frame,ped_height,sim_time,walker,ego,e_veloc,distance,walker_vel_ms,ego_vel_ms,ttc_less_than_200,walker_vel_mms,ego_vel_mms,TCC,TCC_threshold,w_location_x,w_location_y,w_location_z,e_location_x,e_location_y,e_location_z,w_rotation_pitch,w_rotation_yaw,w_rotation_roll,e_rotation_pitch,e_rotation_yaw,e_rotation_roll
0,1.8600000143051147,1,walker.pedestrian.0004,vehicle.nissan.patrol_2021,51.281069,44.56249237060547,0.0,14.244741315090806,False,0.0,0.014244741315090806,3130.0,500,100.86032104492188,13.049999237060547,1.1038998365402222,56.36631393432617,7.799999713897705,0.0974973663687706,0.019349925220012665,-89.99999237060547,-8.337633916610798e-10,-0.007267320994287729,3.2079874780904793e-12,1.7940553220796573e-07
1,1.8600000143051147,2,walker.pedestrian.0004,vehicle.nissan.patrol_2021,51.28106,44.33462142944336,0.1126861423254013,14.244738940234786,False,0.0001126861423254013,0.014244738940234786,3090.0,500,100.86032104492188,13.048196792602539,1.1038998365402222,56.59420394897461,7.799999713897705,0.09687469154596329,0.019349925220012665,-89.99999237060547,-8.337633916610798e-10,-0.007048754952847958,0.0,7.588662356283749e-07
2,1.8600000143051147,3,walker.pedestrian.0004,vehicle.nissan.patrol_2021,51.281051,44.10672378540039,0.2253722846508026,14.244736448164227,False,0.0002253722846508026,0.014244736448164227,3050.0,500,100.86032104492188,13.044590950012207,1.1038998365402222,56.82209777832031,7.799999713897705,0.09625621885061264,0.019349925220012665,-89.99999237060547,-8.337633916610798e-10,-0.006714075803756714,0.0,1.7160120933112921e-06
3,1.8600000143051147,4,walker.pedestrian.0004,vehicle.nissan.patrol_2021,51.281042,43.8787956237793,0.3380584120750427,14.244733843976114,False,0.00033805841207504273,0.014244733843976114,3010.0,500,100.86032104492188,13.03918170928955,1.1038998365402222,57.04999542236328,7.799999713897705,0.09564227610826492,0.019349925220012665,-89.99999237060547,-8.337633916610798e-10,-0.006379396189004183,0.0,2.9162588361941744e-06
4,1.8600000143051147,5,walker.pedestrian.0004,vehicle.nissan.patrol_2021,51.281033,43.65084457397461,0.4507445693016052,14.244731297694305,False,0.0004507445693016052,0.014244731297694305,2970.0,500,100.86032104492188,13.031970024108887,1.1038998365402222,57.277889251708984,7.799999713897705,0.09503334015607834,0.019349925220012665,-89.99999237060547,-8.337633916610798e-10,-0.005955924745649099,0.0,4.251942300470546e-06
5,1.8600000143051147,6,walker.pedestrian.0004,vehicle.nissan.patrol_2021,51.281023,43.42287063598633,0.5634307265281677,14.244728681052084,False,0.0005634307265281678,0.014244728681052084,2930.0,500,100.86032104492188,13.022954940795898,1.1038998365402222,57.50577926635742,7.799999713897705,0.09442947059869766,0.019349925220012665,-89.99999237060547,-8.337633916610798e-10,-0.005525622516870499,0.0,5.685822998202639e-06
6,1.8600000143051147,7,walker.pedestrian.0004,vehicle.nissan.patrol_2021,51.281014,43.19486999511719,0.6761168241500854,14.244726107536387,False,0.0006761168241500855,0.014244726107536387,2890.0,500,100.86032104492188,13.012137413024902,1.1038998365402222,57.73367691040039,7.799999713897705,0.09383079409599304,0.019349925220012665,-89.99999237060547,-8.337633916610798e-10,-0.005067999940365553,0.0,7.117622317309724e-06
7,1.8600000143051147,8,walker.pedestrian.0004,vehicle.nissan.patrol_2021,51.281005,42.966835021972656,0.788802981376648,14.244723542483412,False,0.0007888029813766479,0.014244723542483411,2860.0,500,100.86032104492188,12.999516487121582,1.1038998365402222,57.961570739746094,7.799999713897705,0.09323764592409134,0.019349925220012665,-89.99999237060547,-8.337633916610798e-10,-0.004610377363860607,0.0,8.719885045138653e-06
8,1.8600000143051147,9,walker.pedestrian.0004,vehicle.nissan.patrol_2021,51.280996,42.738773345947266,0.9014891386032104,14.244721018703293,False,0.0009014891386032104,0.014244721018703293,2820.0,500,100.86032104492188,12.985092163085938,1.1038998365402222,58.1894645690918,7.799999713897705,0.09264998883008957,0.019349925220012665,-89.99999237060547,-8.337633916610798e-10,-0.004118603654205799,0.0,1.0327680683985818e-05
9,1.8600000143051147,10,walker.pedestrian.0004,vehicle.nissan.patrol_2021,51.280987,42.51068878173828,1.014175295829773,14.244718494546312,False,0.001014175295829773,0.014244718494546312,2790.0,500,100.86032104492188,12.968865394592285,1.1038998365402222,58.417362213134766,7.799999713897705,0.09206768125295639,0.019349925220012665,-89.99999237060547,-8.337633916610798e-10,-0.0036609810777008533,1.5424123783747135e-11,1.1922656995011494e-05
10,1.8600000143051147,11,walker.pedestrian.0004,vehicle.nissan.patrol_2021,51.280978,42.28257751464844,1.1268614530563354,14.244716047393268,False,0.0011268614530563356,0.01424471604739327,2750.0,500,100.86032104492188,12.950836181640625,1.1038998365402222,58.64525604248047,7.799999713897705,0.09149078279733658,0.019349925220012665,-89.99999237060547,-8.337633916610798e-10,-0.0031760376878082752,6.997825929833112e-11,1.3469825717038475e-05
11,1.8600000143051147,12,walker.pedestrian.0004,vehicle.nissan.patrol_2021,51.280969,42.05442428588867,1.239547610282898,14.244713604556296,False,0.001239547610282898,0.014244713604556297,2720.0,500,100.86032104492188,12.93100357055664,1.1038998365402222,58.87315368652344,7.799999713897705,0.0909196063876152,0.019349925220012665,-89.99999237060547,-8.337633916610798e-10,-0.002745735924690962,1.3788227504196726e-10,1.4866198398522101e-05
12,1.8600000143051147,13,walker.pedestrian.0004,vehicle.nissan.patrol_2021,51.280961,41.826263427734375,1.352233648300171,14.24471126445056,False,0.001352233648300171,0.01424471126445056,2680.0,500,100.86032104492188,12.909367561340332,1.1038998365402222,59.10104751586914,7.799999713897705,0.09035380929708481,0.019349925220012665,-89.99999237060547,-8.337633916610798e-10,-0.002288113348186016,2.1668812577591012e-10,1.619528302398976e-05
13,1.8600000143051147,14,walker.pedestrian.0004,vehicle.nissan.patrol_2021,51.280952,41.59806442260742,1.4649198055267334,14.244708926702133,False,0.0014649198055267335,0.014244708926702133,2650.0,500,100.86032104492188,12.885929107666016,1.1038998365402222,59.32894515991211,7.799999713897705,0.08979347348213196,0.019349925220012665,-89.99999237060547,-8.337633916610798e-10,-0.0018919622525572777,3.0558106045575073e-10,1.7404312529833987e-05
14,1.8600000143051147,15,walker.pedestrian.0004,vehicle.nissan.patrol_2021,51.280944,41.36984634399414,1.577605962753296,14.244706690840433,False,0.0015776059627532959,0.014244706690840433,2610.0,500,100.86032104492188,12.860687255859375,1.1038998365402222,59.55683898925781,7.799999713897705,0.08923843502998352,0.019349925220012665,-89.99999237060547,-8.337633916610798e-10,-0.001495811389759183,4.0280587199070794e-10,1.8496575648896396e-05
15,1.8600000143051147,16,walker.pedestrian.0004,vehicle.nissan.patrol_2021,51.280936,41.141605377197266,1.6902921199798584,14.244704480107728,False,0.0016902921199798584,0.014244704480107728,2580.0,500,100.86032104492188,12.83364200592041,1.1038998365402222,59.78472900390625,7.799999713897705,0.08868850767612457,0.019349925220012665,-89.99999237060547,-8.337633916610798e-10,-0.001126981107518077,5.07004771499453e-10,1.942272501764819e-05
16,1.8600000143051147,17,walker.pedestrian.0004,vehicle.nissan.patrol_2021,51.280928,40.913330078125,1.802978277206421,14.244702336963547,False,0.0018029782772064208,0.014244702336963547,2550.0,500,100.86032104492188,12.804794311523438,1.1038998365402222,60.01262664794922,7.799999713897705,0.08814361691474915,0.019349925220012665,-89.99999237060547,-8.337633916610798e-10,-0.0007923019002191722,6.162466648085285e-10,2.029729694186244e-05
17,1.8600000143051147,18,walker.pedestrian.0004,vehicle.nissan.patrol_2021,51.280921,40.685028076171875,1.9156644344329834,14.244700252374088,False,0.0019156644344329834,0.014244700252374088,2520.0,500,100.86032104492188,12.774144172668457,1.1038998365402222,60.24052047729492,7.799999713897705,0.08760368078947067,0.019349925220012665,-89.99999237060547,-8.337633916610798e-10,-0.0005190943484194577,7.296954707136649e-10,2.1139558157301508e-05
18,1.8600000143051147,19,walker.pedestrian.0004,vehicle.nissan.patrol_2021,51.280914,40.456703186035156,2.028350591659546,14.24469826421687,False,0.002028350591659546,0.01424469826421687,2490.0,500,100.86032104492188,12.741690635681152,1.1038998365402222,60.46841049194336,7.799999713897705,0.08706852048635483,0.019349925220012665,-89.99999237060547,-8.337633916610798e-10,-0.0002458867966197431,8.465578793526163e-10,2.178561953769531e-05
19,1.8600000143051147,20,walker.pedestrian.0004,vehicle.nissan.patrol_2021,51.280907,40.22834396362305,2.1410367488861084,14.244696298896239,False,0.0021410367488861083,0.014244696298896239,2460.0,500,100.86032104492188,12.707433700561523,1.0962629318237305,60.69630813598633,7.799999713897705,0.08653785288333893,0.019349925220012665,-89.99999237060547,-8.337633916610798e-10,6.830188794992864e-06,9.655162225286062e-10,2.2338574126479216e-05
20,1.8600000143051147,21,walker.pedestrian.0004,vehicle.nissan.patrol_2021,51.2809,39.999961853027344,2.253722906112671,14.244694387015594,False,0.002253722906112671,0.014244694387015594,2420.0,500,100.86032104492188,12.671374320983887,1.0814288854599,60.924198150634766,7.799999713897705,0.08601188659667969,0.019349925220012665,-89.99999237060547,-8.337633916610798e-10,0.0002117358526447788,1.0859103616311927e-09,2.289181611558888e-05
21,1.8600000143051147,22,walker.pedestrian.0004,vehicle.nissan.patrol_2021,51.280893,39.77155685424805,2.3664090633392334,14.24469254623303,False,0.0023664090633392335,0.014244692546233029,2390.0,500,100.86032104492188,12.633511543273926,1.0544886589050293,61.1520881652832,7.799999713897705,0.08549026399850845,0.019349925220012665,-89.99999237060547,-8.337633916610798e-10,0.0003961509501095861,1.2071471600094696e-09,2.3299839085666463e-05
22,1.8600000143051147,23,walker.pedestrian.0004,vehicle.nissan.patrol_2021,51.280887,39.54312515258789,2.479095220565796,14.244690742579625,False,0.002479095220565796,0.014244690742579625,2360.0,500,100.86032104492188,12.593846321105957,1.000593900680542,61.37998580932617,7.799999713897705,0.08497264981269836,0.019349925220012665,-89.99999237060547,-8.337633916610798e-10,0.0005464151035994291,1.3286028943682027e-09,2.3606007744092494e-05
23,1.8600000143051147,24,walker.pedestrian.0004,vehicle.nissan.patrol_2021,51.28088,39.314666748046875,2.5917811393737793,14.244689009666331,False,0.0025917811393737795,0.014244689009666332,2340.0,500,100.86032104492188,12.552377700805664,0.9514999389648438,61.60787582397461,7.799999713897705,0.0844593420624733,0.019349925220012665,-89.99999237060547,-8.337633916610798e-10,0.0006761886761523783,1.449892095273242e-09,2.3834601961425506e-05
24,1.8600000143051147,25,walker.pedestrian.0004,vehicle.nissan.patrol_2021,51.280874,39.086181640625,2.704467296600342,14.244687312055273,False,0.002704467296600342,0.014244687312055273,2310.0,500,100.86032104492188,12.509106636047363,0.9514999389648438,61.83576583862305,7.799999713897705,0.08394992351531982,0.019349925220012665,-89.99999237060547,-8.337633916610798e-10,0.0006761886761523783,1.449892095273242e-09,2.3834601961425506e-05
25,1.8600000143051147,26,walker.pedestrian.0004,vehicle.nissan.patrol_2021,51.280869,38.857662200927734,2.8171534538269043,14.244685748211353,False,0.002817153453826904,0.014244685748211352,2280.0,500,100.86032104492188,12.464032173156738,0.9514999389648438,62.063655853271484,7.799999713897705,0.08344371616840363,0.019349925220012665,-89.99999237060547,-8.337633916610798e-10,0.0008537736139260232,1.6909733613346134e-09,2.405258965154644e-05
26,1.8600000143051147,27,walker.pedestrian.0004,vehicle.nissan.patrol_2021,51.280863,38.629127502441406,2.929839611053467,14.244684048450427,False,0.002929839611053467,0.014244684048450426,2250.0,500,100.86032104492188,12.417154312133789,0.9514999389648438,62.29154586791992,7.799999713897705,0.08294154703617096,0.019349925220012665,-89.99999237060547,-8.337633916610798e-10,0.0008537736139260232,1.6909733613346134e-09,2.405258965154644e-05
27,1.8600000143051147,28,walker.pedestrian.0004,vehicle.nissan.patrol_2021,51.280857,38.40055847167969,3.0425257682800293,14.244682537208211,False,0.0030425257682800294,0.014244682537208212,2220.0,500,100.86032104492188,12.368474006652832,0.9514999389648438,62.51944351196289,7.799999713897705,0.0824427381157875,0.019349925220012665,-89.99999237060547,-8.337633916610798e-10,0.0008537736139260232,1.6909733613346134e-09,2.405258965154644e-05
28,1.8600000143051147,29,walker.pedestrian.0004,vehicle.nissan.patrol_2021,51.280852,38.17196273803711,3.155211925506592,14.24468104328806,False,0.0031552119255065917,0.01424468104328806,2190.0,500,100.86032104492188,12.31799030303955,0.9514999389648438,62.74733352661133,7.799999713897705,0.08194736391305923,0.019349925220012665,-89.99999237060547,-8.337633916610798e-10,0.0009630566346459091,2.048701208678949e-09,2.4200069674407132e-05
29,1.8600000143051147,30,walker.pedestrian.0004,vehicle.nissan.patrol_2021,51.280846,37.94334030151367,3.2678980827331543,14.244679467788032,False,0.0032678980827331545,0.014244679467788032,2170.0,500,100.86032104492188,12.265704154968262,0.9514999389648438,62.975223541259766,7.799999713897705,0.08145561069250107,0.019349925220012665,-89.99999237060547,-8.337633916610798e-10,0.0009630566346459091,2.048701208678949e-09,2.4200069674407132e-05
30,1.8600000143051147,31,walker.pedestrian.0004,vehicle.nissan.patrol_2021,51.280841,37.714691162109375,3.380584239959717,14.244678019841288,False,0.003380584239959717,0.014244678019841289,2140.0,500,100.86032104492188,12.211614608764648,0.9514999389648438,63.2031135559082,7.799999713897705,0.08096732944250107,0.019349925220012665,-89.99999237060547,-8.337633916610798e-10,0.0009630566346459091,2.048701208678949e-09,2.4200069674407132e-05
31,1.8600000143051147,32,walker.pedestrian.0004,vehicle.nissan.patrol_2021,51.280836,37.48601531982422,3.4932703971862793,14.244676575245279,False,0.0034932703971862792,0.01424467657524528,2110.0,500,100.86032104492188,12.155722618103027,0.9514999389648438,63.43100357055664,7.799999713897705,0.08048205822706223,0.019349925220012665,-89.99999237060547,-8.337633916610798e-10,0.0009630566346459091,2.048701208678949e-09,2.4200069674407132e-05
32,1.8600000143051147,33,walker.pedestrian.0004,vehicle.nissan.patrol_2021,51.280831,37.257320404052734,3.605956554412842,14.244675158004153,False,0.0036059565544128416,0.014244675158004153,2090.0,500,100.86032104492188,12.098027229309082,0.9514999389648438,63.65888977050781,7.799999713897705,0.07999999821186066,0.019349925220012665,-89.99999237060547,-8.337633916610798e-10,0.0009630566346459091,2.048701208678949e-09,2.4200069674407132e-05
33,1.8600000143051147,34,walker.pedestrian.0004,vehicle.nissan.patrol_2021,51.280826,37.028594970703125,3.7186427116394043,14.244673756324032,False,0.0037186427116394044,0.014244673756324032,2060.0,500,100.86032104492188,12.038528442382812,0.9514999389648438,63.88677978515625,7.799999713897705,0.07952094823122025,0.019349925220012665,-89.99999237060547,-8.337633916610798e-10,0.0009630566346459091,2.048701208678949e-09,2.4200069674407132e-05
34,1.8600000143051147,35,walker.pedestrian.0004,vehicle.nissan.patrol_2021,51.280821,36.799835205078125,3.831328868865967,14.244672370805601,False,0.0038313288688659668,0.014244672370805601,2040.0,500,100.86032104492188,11.977227210998535,0.9514999389648438,64.11466979980469,7.799999713897705,0.07904502749443054,0.019349925220012665,-89.99999237060547,-8.337633916610798e-10,0.0008196226553991437,2.75268097205128e-09,2.3783957658451982e-05
35,1.8600000143051147,36,walker.pedestrian.0004,vehicle.nissan.patrol_2021,51.280816,36.57105255126953,3.9440150260925293,14.244671131600006,False,0.0039440150260925295,0.014244671131600006,2009.9999999999998,500,100.86032104492188,11.91412353515625,0.9514999389648438,64.34255981445312,7.799999713897705,0.07857173681259155,0.019349925220012665,-89.99999237060547,-8.337633916610798e-10,0.0008196226553991437,2.75268097205128e-09,2.3783957658451982e-05
36,1.8600000143051147,37,walker.pedestrian.0004,vehicle.nissan.patrol_2021,51.280811,36.342247009277344,4.056701183319092,14.24466977551146,False,0.004056701183319092,0.01424466977551146,1990.0,500,100.86032104492188,11.84921646118164,0.9514999389648438,64.57044982910156,7.799999713897705,0.07810138165950775,0.019349925220012665,-89.99999237060547,-8.337633916610798e-10,0.0007103396346792579,2.9861935146868746e-09,2.3595059246872552e-05
37,1.8600000143051147,38,walker.pedestrian.0004,vehicle.nissan.patrol_2021,51.280807,36.1134033203125,4.169387340545654,14.244668535075789,False,0.004169387340545654,0.01424466853507579,1960.0,500,100.86032104492188,11.782505989074707,0.9514999389648438,64.79833984375,7.799999713897705,0.07763366401195526,0.019349925220012665,-89.99999237060547,-8.337633916610798e-10,0.0007103396346792579,2.9861935146868746e-09,2.3595059246872552e-05
38,1.8600000143051147,39,walker.pedestrian.0004,vehicle.nissan.patrol_2021,51.280802,35.88453674316406,4.282073497772217,14.244667221555387,False,0.004282073497772217,0.014244667221555388,1940.0,500,100.86032104492188,11.713993072509766,0.9514999389648438,65.02623748779297,7.799999713897705,0.07716907560825348,0.019349925220012665,-89.99999237060547,-8.337633916610798e-10,0.0005873962072655559,3.219874811222212e-09,2.3434957256540656e-05
39,1.8600000143051147,40,walker.pedestrian.0004,vehicle.nissan.patrol_2021,51.280798,35.65565490722656,4.394759654998779,14.244666014969997,False,0.004394759654998779,0.014244666014969997,1910.0,500,100.86032104492188,11.6436767578125,0.9514999389648438,65.2541275024414,7.799999713897705,0.07670684903860092,0.019349925220012665,-89.99999237060547,-8.337633916610798e-10,0.0005873962072655559,3.219874811222212e-09,2.3434957256540656e-05
40,1.8600000143051147,41,walker.pedestrian.0004,vehicle.nissan.patrol_2021,51.280793,35.426734924316406,4.507445812225342,14.244664731317393,False,0.004507445812225342,0.014244664731317393,1890.0,500,100.86032104492188,11.57155704498291,0.9514999389648438,65.48201751708984,7.799999713897705,0.07624755799770355,0.019349925220012665,-89.99999237060547,-8.337633916610798e-10,0.00046445283805951476,3.453930030872243e-09,2.3303409761865623e-05
41,1.8600000143051147,42,walker.pedestrian.0004,vehicle.nissan.patrol_2021,51.280789,35.19779968261719,4.620131969451904,14.244663560854548,False,0.004620131969451905,0.014244663560854548,1870.0,500,100.86032104492188,11.497634887695312,0.9514999389648438,65.70989990234375,7.799999713897705,0.07579074800014496,0.019349925220012665,-89.99999237060547,-8.337633916610798e-10,0.00046445283805951476,3.453930030872243e-09,2.3303409761865623e-05
42,1.8600000143051147,43,walker.pedestrian.0004,vehicle.nissan.patrol_2021,51.280784,34.96882629394531,4.732818126678467,14.244662301537717,False,0.004732818126678467,0.014244662301537717,1840.0,500,100.86032104492188,11.421910285949707,0.9514999389648438,65.93778991699219,7.799999713897705,0.07533679902553558,0.019349925220012665,-89.99999237060547,-8.337633916610798e-10,0.00034833961399272084,3.6883436305146233e-09,2.316352583875414e-05
43,1.8600000143051147,44,walker.pedestrian.0004,vehicle.nissan.patrol_2021,51.28078,34.73985290527344,4.769973278045654,14.244661160182073,False,0.0047699732780456545,0.014244661160182073,1830.0,500,100.86032104492188,11.345590591430664,0.9514999389648438,66.16567993164062,7.799999713897705,0.07488544285297394,0.019349925220012665,-89.99999237060547,-8.337633916610798e-10,0.00034833961399272084,3.6883436305146233e-09,2.316352583875414e-05
44,1.8600000143051147,45,walker.pedestrian.0004,vehicle.nissan.patrol_2021,51.280776,34.51087188720703,4.769973278045654,14.244659927022223,False,0.0047699732780456545,0.014244659927022223,1810.0,500,100.86032104492188,11.269270896911621,0.9514999389648438,66.39356994628906,7.799999713897705,0.074436716735363,0.019349925220012665,-89.99999237060547,-8.337633916610798e-10,0.00034833961399272084,3.6883436305146233e-09,2.316352583875414e-05
45,1.8600000143051147,46,walker.pedestrian.0004,vehicle.nissan.patrol_2021,51.280771,34.281890869140625,4.769973278045654,14.244658719084992,False,0.0047699732780456545,0.014244658719084992,1800.0,500,100.86032104492188,11.192951202392578,0.9514999389648438,66.6214599609375,7.799999713897705,0.07399093359708786,0.019349925220012665,-89.99999237060547,-8.337633916610798e-10,0.0001912452862598002,4.040917378489439e-09,2.3030617740005255e-05
46,1.8600000143051147,47,walker.pedestrian.0004,vehicle.nissan.patrol_2021,51.280768,34.05290985107422,4.769973278045654,14.244657644687297,False,0.0047699732780456545,0.014244657644687297,1790.0,500,100.86032104492188,11.116631507873535,0.9514999389648438,66.84935760498047,7.799999713897705,0.07354728877544403,0.019349925220012665,-89.99999237060547,-8.337633916610798e-10,0.0001912452862598002,4.040917378489439e-09,2.3030617740005255e-05
47,1.8600000143051147,48,walker.pedestrian.0004,vehicle.nissan.patrol_2021,51.280763,33.82392883300781,4.769973278045654,14.244656459445574,False,0.0047699732780456545,0.014244656459445573,1780.0,500,100.86032104492188,11.040311813354492,0.9514999389648438,67.0772476196289,7.799999713897705,0.0731063038110733,0.019349925220012665,-89.99999237060547,-8.337633916610798e-10,0.0001912452862598002,4.040917378489439e-09,2.3030617740005255e-05
48,1.8600000143051147,49,walker.pedestrian.0004,vehicle.nissan.patrol_2021,51.280759,33.594947814941406,4.769973278045654,14.244655294676376,False,0.0047699732780456545,0.014244655294676375,1770.0,500,100.86032104492188,10.963993072509766,0.9514999389648438,67.30513763427734,7.799999713897705,0.07266838103532791,0.019349925220012665,-89.99999237060547,-8.337633916610798e-10,6.830188794992864e-05,4.39452785272465e-09,2.304889858351089e-05
49,1.8600000143051147,50,walker.pedestrian.0004,vehicle.nissan.patrol_2021,51.280755,33.36597442626953,4.769973278045654,14.24465423365006,False,0.0047699732780456545,0.01424465423365006,1750.0,500,100.86032104492188,10.887673377990723,0.9514999389648438,67.53302764892578,7.799999713897705,0.07223255187273026,0.019349925220012665,-89.99999237060547,-8.337633916610798e-10,6.830188794992864e-05,4.39452785272465e-09,2.304889858351089e-05
50,1.8600000143051147,51,walker.pedestrian.0004,vehicle.nissan.patrol_2021,51.280751,33.136993408203125,4.769973278045654,14.244653094353403,False,0.0047699732780456545,0.014244653094353403,1740.0,500,100.86032104492188,10.81135368347168,0.9514999389648438,67.76091766357422,7.799999713897705,0.07179954648017883,0.019349925220012665,-89.99999237060547,-8.337633916610798e-10,6.830188794992864e-05,4.39452785272465e-09,2.304889858351089e-05
51,1.8600000143051147,52,walker.pedestrian.0004,vehicle.nissan.patrol_2021,51.280747,32.90801239013672,4.769973278045654,14.24465196566295,False,0.0047699732780456545,0.01424465196566295,1730.0,500,100.86032104492188,10.735033988952637,0.9514999389648438,67.98880767822266,7.799999713897705,0.07136920839548111,0.019349925220012665,-89.99999237060547,-8.337633916610798e-10,6.830188794992864e-05,4.39452785272465e-09,2.304889858351089e-05
52,1.8600000143051147,53,walker.pedestrian.0004,vehicle.nissan.patrol_2021,51.280743,32.679039001464844,4.769973278045654,14.244650851636536,False,0.0047699732780456545,0.014244650851636535,1720.0,500,100.86032104492188,10.658714294433594,0.9514999389648438,68.2166976928711,7.799999713897705,0.07094146311283112,0.019349925220012665,-89.99999237060547,-8.337633916610798e-10,-3.415094397496432e-05,4.867193759139354e-09,2.312214382982347e-05
53,1.8600000143051147,54,walker.pedestrian.0004,vehicle.nissan.patrol_2021,51.280739,32.45005798339844,4.769973278045654,14.244649830559256,False,0.0047699732780456545,0.014244649830559257,1710.0,500,100.86032104492188,10.58239459991455,0.9514999389648438,68.44458770751953,7.799999713897705,0.07051616162061691,0.019349925220012665,-89.99999237060547,-8.337633916610798e-10,-3.415094397496432e-05,4.867193759139354e-09,2.312214382982347e-05
54,1.8600000143051147,55,walker.pedestrian.0004,vehicle.nissan.patrol_2021,51.280735,32.22107696533203,4.769973278045654,14.24464874371376,False,0.0047699732780456545,0.014244648743713761,1690.0,500,100.86032104492188,10.506074905395508,0.9514999389648438,68.67247772216797,7.799999713897705,0.07009349763393402,0.019349925220012665,-89.99999237060547,-8.337633916610798e-10,-3.415094397496432e-05,4.867193759139354e-09,2.312214382982347e-05
55,1.8600000143051147,56,walker.pedestrian.0004,vehicle.nissan.patrol_2021,51.280732,31.992095947265625,4.769973278045654,14.24464767130302,False,0.0047699732780456545,0.014244647671303021,1680.0,500,100.86032104492188,10.429755210876465,0.9514999389648438,68.9003677368164,7.799999713897705,0.06967353820800781,0.019349925220012665,-89.99999237060547,-8.337633916610798e-10,-3.415094397496432e-05,4.867193759139354e-09,2.312214382982347e-05
56,1.8600000143051147,57,walker.pedestrian.0004,vehicle.nissan.patrol_2021,51.280728,31.76311492919922,4.769973278045654,14.244646611014314,False,0.0047699732780456545,0.014244646611014313,1670.0,500,100.86032104492188,10.353436470031738,0.9514999389648438,69.12825775146484,7.799999713897705,0.06925613433122635,0.019349925220012665,-89.99999237060547,-8.337633916610798e-10,-3.415094397496432e-05,4.867193759139354e-09,2.312214382982347e-05
57,1.8600000143051147,58,walker.pedestrian.0004,vehicle.nissan.patrol_2021,51.280724,31.534141540527344,4.769973278045654,14.244645570017681,False,0.0047699732780456545,0.01424464557001768,1660.0,500,100.86032104492188,10.277116775512695,0.9514999389648438,69.35614776611328,7.799999713897705,0.06884147226810455,0.019349925220012665,-89.99999237060547,-8.337633916610798e-10,-3.415094397496432e-05,4.867193759139354e-09,2.312214382982347e-05
58,1.8600000143051147,59,walker.pedestrian.0004,vehicle.nissan.patrol_2021,51.28072,31.305160522460938,4.7700114250183105,14.244644535012476,False,0.004770011425018311,0.014244644535012476,1650.0,500,100.86032104492188,10.200796127319336,0.9514999389648438,69.58403778076172,7.799999713897705,0.06842941045761108,0.019349925220012665,-89.99999237060547,-8.337633916610798e-10,-3.415094397496432e-05,4.867193759139354e-09,2.312214382982347e-05
59,1.8600000143051147,60,walker.pedestrian.0004,vehicle.nissan.patrol_2021,51.280717,31.07617950439453,4.7700114250183105,14.244643517557213,False,0.004770011425018311,0.014244643517557214,1630.0,500,100.86032104492188,10.124476432800293,0.9514999389648438,69.81192779541016,7.799999713897705,0.06801994144916534,0.019349925220012665,-89.99999237060547,-8.337633916610798e-10,-3.415094397496432e-05,4.867193759139354e-09,2.312214382982347e-05
60,1.8600000143051147,61,walker.pedestrian.0004,vehicle.nissan.patrol_2021,51.280713,30.847206115722656,4.7700114250183105,14.244642509207967,False,0.004770011425018311,0.014244642509207968,1620.0,500,100.86032104492188,10.048155784606934,0.9514999389648438,70.0398178100586,7.799999713897705,0.06761299073696136,0.019349925220012665,-89.99999237060547,-8.337633916610798e-10,-3.415094397496432e-05,4.867193759139354e-09,2.312214382982347e-05
61,1.8600000143051147,62,walker.pedestrian.0004,vehicle.nissan.patrol_2021,51.280709,30.61822509765625,4.7700114250183105,14.24464151697807,False,0.004770011425018311,0.01424464151697807,1610.0,500,100.86032104492188,9.97183609008789,0.9514999389648438,70.26770782470703,7.799999713897705,0.0672086700797081,0.019349925220012665,-89.99999237060547,-8.337633916610798e-10,-3.415094397496432e-05,4.867193759139354e-09,2.312214382982347e-05
62,1.8600000143051147,63,walker.pedestrian.0004,vehicle.nissan.patrol_2021,51.280706,30.389244079589844,4.7700114250183105,14.244640534138906,False,0.004770011425018311,0.014244640534138906,1600.0,500,100.86032104492188,9.895515441894531,0.9514999389648438,70.49559783935547,7.799999713897705,0.06680679321289062,0.019349925220012665,-89.99999237060547,-8.337633916610798e-10,-3.415094397496432e-05,4.867193759139354e-09,2.312214382982347e-05
63,1.8600000143051147,64,walker.pedestrian.0004,vehicle.nissan.patrol_2021,51.280702,30.16027069091797,4.7700114250183105,14.244639568115304,False,0.004770011425018311,0.014244639568115303,1590.0,500,100.86032104492188,9.819195747375488,0.9514999389648438,70.7234878540039,7.799999713897705,0.06640758365392685,0.019349925220012665,-89.99999237060547,-8.337633916610798e-10,-3.415094397496432e-05,4.867193759139354e-09,2.312214382982347e-05
64,1.8600000143051147,65,walker.pedestrian.0004,vehicle.nissan.patrol_2021,51.280699,29.931289672851562,4.7700114250183105,14.244638610244408,False,0.004770011425018311,0.014244638610244408,1570.0,500,100.86032104492188,9.742875099182129,0.9514999389648438,70.95137786865234,7.799999713897705,0.06601081788539886,0.019349925220012665,-89.99999237060547,-8.337633916610798e-10,-3.415094397496432e-05,4.867193759139354e-09,2.312214382982347e-05
65,1.8600000143051147,66,walker.pedestrian.0004,vehicle.nissan.patrol_2021,51.280696,29.702301025390625,4.7700114250183105,14.244637668379736,False,0.004770011425018311,0.014244637668379736,1560.0,500,100.86032104492188,9.666555404663086,0.9514999389648438,71.17926788330078,7.799999713897705,0.0656166821718216,0.019349925220012665,-89.99999237060547,-8.337633916610798e-10,-3.415094397496432e-05,4.867193759139354e-09,2.312214382982347e-05
66,1.8600000143051147,67,walker.pedestrian.0004,vehicle.nissan.patrol_2021,51.280692,29.47333526611328,4.7700114250183105,14.244636734941857,False,0.004770011425018311,0.014244636734941857,1550.0,500,100.86032104492188,9.590234756469727,0.9514999389648438,71.40715789794922,7.799999713897705,0.06522499024868011,0.019349925220012665,-89.99999237060547,-8.337633916610798e-10,-3.415094397496432e-05,4.867193759139354e-09,2.312214382982347e-05
67,1.8600000143051147,68,walker.pedestrian.0004,vehicle.nissan.patrol_2021,51.280689,29.244346618652344,4.7700114250183105,14.244635814578194,False,0.004770011425018311,0.014244635814578193,1540.0,500,100.86032104492188,9.513914108276367,0.9514999389648438,71.63505554199219,7.799999713897705,0.06483577936887741,0.019349925220012665,-89.99999237060547,-8.337633916610798e-10,-3.415094397496432e-05,4.867193759139354e-09,2.312214382982347e-05
68,1.8600000143051147,69,walker.pedestrian.0004,vehicle.nissan.patrol_2021,51.280686,29.015357971191406,4.7700114250183105,14.244634906576511,False,0.004770011425018311,0.01424463490657651,1530.0,500,100.86032104492188,9.437594413757324,0.9514999389648438,71.86294555664062,7.799999713897705,0.06444904208183289,0.019349925220012665,-89.99999237060547,-8.337633916610798e-10,-3.415094397496432e-05,4.867193759139354e-09,2.312214382982347e-05
69,1.8600000143051147,70,walker.pedestrian.0004,vehicle.nissan.patrol_2021,51.280682,28.78638458251953,4.7700114250183105,14.244634006807837,False,0.004770011425018311,0.014244634006807838,1510.0,500,100.86032104492188,9.361273765563965,0.9514999389648438,72.09083557128906,7.799999713897705,0.0640646368265152,0.019349925220012665,-89.99999237060547,-8.337633916610798e-10,-3.415094397496432e-05,4.867193759139354e-09,2.312214382982347e-05
70,1.8600000143051147,71,walker.pedestrian.0004,vehicle.nissan.patrol_2021,51.280679,28.557411193847656,4.7700114250183105,14.244633122718835,False,0.004770011425018311,0.014244633122718835,1500.0,500,100.86032104492188,9.284954071044922,0.9514999389648438,72.3187255859375,7.799999713897705,0.06368274241685867,0.019349925220012665,-89.99999237060547,-8.337633916610798e-10,-3.415094397496432e-05,4.867193759139354e-09,2.312214382982347e-05
71,1.8600000143051147,72,walker.pedestrian.0004,vehicle.nissan.patrol_2021,51.280676,28.328414916992188,4.7700114250183105,14.244632247940862,False,0.004770011425018311,0.014244632247940862,1490.0,500,100.86032104492188,9.208633422851562,0.9514999389648438,72.54662322998047,7.799999713897705,0.06330333650112152,0.019349925220012665,-89.99999237060547,-8.337633916610798e-10,-3.415094397496432e-05,4.867193759139354e-09,2.312214382982347e-05
72,1.8600000143051147,73,walker.pedestrian.0004,vehicle.nissan.patrol_2021,51.280673,28.099441528320312,4.7700114250183105,14.244631384613724,False,0.004770011425018311,0.014244631384613723,1480.0,500,100.86032104492188,9.13231372833252,0.9514999389648438,72.7745132446289,7.799999713897705,0.0629262924194336,0.019349925220012665,-89.99999237060547,-8.337633916610798e-10,-3.415094397496432e-05,4.867193759139354e-09,2.312214382982347e-05
73,1.8600000143051147,74,walker.pedestrian.0004,vehicle.nissan.patrol_2021,51.28067,27.870468139648438,4.7700114250183105,14.244630532510959,False,0.004770011425018311,0.014244630532510958,1470.0,500,100.86032104492188,9.05599308013916,0.9514999389648438,73.00240325927734,7.799999713897705,0.06255168467760086,0.019349925220012665,-89.99999237060547,-8.337633916610798e-10,-3.415094397496432e-05,4.867193759139354e-09,2.312214382982347e-05
74,1.8600000143051147,75,walker.pedestrian.0004,vehicle.nissan.patrol_2021,51.280667,27.6414794921875,4.7700114250183105,14.244629692585878,False,0.004770011425018311,0.014244629692585878,1450.0,500,100.86032104492188,8.979673385620117,0.9514999389648438,73.23029327392578,7.799999713897705,0.06217948719859123,0.019349925220012665,-89.99999237060547,-8.337633916610798e-10,-3.415094397496432e-05,4.867193759139354e-09,2.312214382982347e-05
75,1.8600000143051147,76,walker.pedestrian.0004,vehicle.nissan.patrol_2021,51.280664,27.412506103515625,4.7700114250183105,14.244628861124637,False,0.004770011425018311,0.014244628861124637,1440.0,500,100.86032104492188,8.903352737426758,0.9514999389648438,73.45818328857422,7.799999713897705,0.0618097297847271,0.019349925220012665,-89.99999237060547,-8.337633916610798e-10,-3.415094397496432e-05,4.867193759139354e-09,2.312214382982347e-05
76,1.8600000143051147,77,walker.pedestrian.0004,vehicle.nissan.patrol_2021,51.280661,27.18353271484375,4.7700114250183105,14.244628038346443,False,0.004770011425018311,0.014244628038346443,1430.0,500,100.86032104492188,8.827033042907715,0.9514999389648438,73.68607330322266,7.799999713897705,0.061442144215106964,0.019349925220012665,-89.99999237060547,-8.337633916610798e-10,-3.415094397496432e-05,4.867193759139354e-09,2.312214382982347e-05
77,1.8600000143051147,78,walker.pedestrian.0004,vehicle.nissan.patrol_2021,51.280658,26.954544067382812,4.7700114250183105,14.244627227880677,False,0.004770011425018311,0.014244627227880677,1420.0,500,100.86032104492188,8.750712394714355,0.9514999389648438,73.9139633178711,7.799999713897705,0.061076924204826355,0.019349925220012665,-89.99999237060547,-8.337633916610798e-10,-3.415094397496432e-05,4.867193759139354e-09,2.312214382982347e-05
78,1.8600000143051147,79,walker.pedestrian.0004,vehicle.nissan.patrol_2021,51.280655,26.725563049316406,4.7700114250183105,14.24462642981247,False,0.004770011425018311,0.01424462642981247,1410.0,500,100.86032104492188,8.674392700195312,0.9514999389648438,74.14185333251953,7.799999713897705,0.06071411073207855,0.019349925220012665,-89.99999237060547,-8.337633916610798e-10,-3.415094397496432e-05,4.867193759139354e-09,2.312214382982347e-05
79,1.8600000143051147,80,walker.pedestrian.0004,vehicle.nissan.patrol_2021,51.280652,26.49658966064453,4.7700114250183105,14.244625638964461,False,0.004770011425018311,0.014244625638964462,1390.0,500,100.86032104492188,8.598072052001953,0.9514999389648438,74.36974334716797,7.799999713897705,0.06035354360938072,0.019349925220012665,-89.99999237060547,-8.337633916610798e-10,-3.415094397496432e-05,4.867193759139354e-09,2.312214382982347e-05
80,1.8600000143051147,81,walker.pedestrian.0004,vehicle.nissan.patrol_2021,51.280649,26.267608642578125,4.7700114250183105,14.244624859562109,False,0.004770011425018311,0.014244624859562108,1380.0,500,100.86032104492188,8.52175235748291,0.9514999389648438,74.5976333618164,7.799999713897705,0.05999530479311943,0.019349925220012665,-89.99999237060547,-8.337633916610798e-10,-3.415094397496432e-05,4.867193759139354e-09,2.312214382982347e-05
81,1.8600000143051147,82,walker.pedestrian.0004,vehicle.nissan.patrol_2021,51.280647,26.03862762451172,4.7700114250183105,14.244624089049257,False,0.004770011425018311,0.014244624089049257,1370.0,500,100.86032104492188,8.44543170928955,0.9514999389648438,74.82552337646484,7.799999713897705,0.059639282524585724,0.019349925220012665,-89.99999237060547,-8.337633916610798e-10,-3.415094397496432e-05,4.867193759139354e-09,2.312214382982347e-05
82,1.8600000143051147,83,walker.pedestrian.0004,vehicle.nissan.patrol_2021,51.280644,25.809654235839844,4.7700114250183105,14.244623328951814,False,0.004770011425018311,0.014244623328951813,1360.0,500,100.86032104492188,8.369112014770508,0.9514999389648438,75.05341339111328,7.799999713897705,0.05928558111190796,0.019349925220012665,-89.99999237060547,-8.337633916610798e-10,-3.415094397496432e-05,4.867193759139354e-09,2.312214382982347e-05
83,1.8600000143051147,84,walker.pedestrian.0004,vehicle.nissan.patrol_2021,51.280641,25.580673217773438,4.7700114250183105,14.24462257924971,False,0.004770011425018311,0.01424462257924971,1350.0,500,100.86032104492188,8.292791366577148,0.9514999389648438,75.28130340576172,7.799999713897705,0.058934133499860764,0.019349925220012665,-89.99999237060547,-8.337633916610798e-10,-3.415094397496432e-05,4.867193759139354e-09,2.312214382982347e-05
84,1.8600000143051147,85,walker.pedestrian.0004,vehicle.nissan.patrol_2021,51.280639,25.3516845703125,4.7700114250183105,14.244621838489003,False,0.004770011425018311,0.014244621838489003,1330.0,500,100.86032104492188,8.216471672058105,0.9514999389648438,75.50920104980469,7.799999713897705,0.05858493596315384,0.019349925220012665,-89.99999237060547,-8.337633916610798e-10,-3.415094397496432e-05,4.867193759139354e-09,2.312214382982347e-05
85,1.8600000143051147,86,walker.pedestrian.0004,vehicle.nissan.patrol_2021,51.280636,25.122711181640625,4.7700114250183105,14.244621102846947,False,0.004770011425018311,0.014244621102846947,1320.0,500,100.86032104492188,8.140151023864746,0.9514999389648438,75.73709106445312,7.799999713897705,0.05823776125907898,0.019349925220012665,-89.99999237060547,-8.337633916610798e-10,-3.415094397496432e-05,4.867193759139354e-09,2.312214382982347e-05
86,1.8600000143051147,87,walker.pedestrian.0004,vehicle.nissan.patrol_2021,51.280633,24.89373016357422,4.7700114250183105,14.244620381534425,False,0.004770011425018311,0.014244620381534425,1310.0,500,100.86032104492188,8.063831329345703,0.9514999389648438,75.96498107910156,7.799999713897705,0.05789291113615036,0.019349925220012665,-89.99999237060547,-8.337633916610798e-10,-3.415094397496432e-05,4.867193759139354e-09,2.312214382982347e-05
87,1.8600000143051147,88,walker.pedestrian.0004,vehicle.nissan.patrol_2021,51.280631,24.664749145507812,4.7700114250183105,14.244619670203305,False,0.004770011425018311,0.014244619670203304,1300.0,500,100.86032104492188,7.987510681152344,0.9514999389648438,76.19287109375,7.799999713897705,0.057550352066755295,0.019349925220012665,-89.99999237060547,-8.337633916610798e-10,-3.415094397496432e-05,4.867193759139354e-09,2.312214382982347e-05
88,1.8600000143051147,89,walker.pedestrian.0004,vehicle.nissan.patrol_2021,51.280628,24.435768127441406,4.7700114250183105,14.24461896782986,False,0.004770011425018311,0.01424461896782986,1290.0,500,100.86032104492188,7.911190509796143,0.9514999389648438,76.42076110839844,7.799999713897705,0.05720996856689453,0.019349925220012665,-89.99999237060547,-8.337633916610798e-10,-3.415094397496432e-05,4.867193759139354e-09,2.312214382982347e-05
89,1.8600000143051147,90,walker.pedestrian.0004,vehicle.nissan.patrol_2021,51.280626,24.206787109375,4.7700114250183105,14.24461827102994,False,0.004770011425018311,0.01424461827102994,1270.0,500,100.86032104492188,7.834870338439941,0.9514999389648438,76.64865112304688,7.799999713897705,0.056871719658374786,0.019349925220012665,-89.99999237060547,-8.337633916610798e-10,-3.415094397496432e-05,4.867193759139354e-09,2.312214382982347e-05
90,1.8600000143051147,91,walker.pedestrian.0004,vehicle.nissan.patrol_2021,51.280623,23.977813720703125,4.7700114250183105,14.244617582794872,False,0.004770011425018311,0.014244617582794872,1260.0,500,100.86032104492188,7.75855016708374,0.9514999389648438,76.87654113769531,7.799999713897705,0.05653552711009979,0.019349925220012665,-89.99999237060547,-8.337633916610798e-10,-3.415094397496432e-05,4.867193759139354e-09,2.312214382982347e-05
91,1.8600000143051147,92,walker.pedestrian.0004,vehicle.nissan.patrol_2021,51.280621,23.748825073242188,4.7700114250183105,14.244616906932082,False,0.004770011425018311,0.014244616906932081,1250.0,500,100.86032104492188,7.682229995727539,0.9514999389648438,77.10443115234375,7.799999713897705,0.056201592087745667,0.019349925220012665,-89.99999237060547,-8.337633916610798e-10,-3.415094397496432e-05,4.867193759139354e-09,2.312214382982347e-05
92,1.8600000143051147,93,walker.pedestrian.0004,vehicle.nissan.patrol_2021,51.280618,23.519851684570312,4.7700114250183105,14.24461623743046,False,0.004770011425018311,0.01424461623743046,1240.0,500,100.86032104492188,7.605909824371338,0.9514999389648438,77.33232116699219,7.799999713897705,0.05586971342563629,0.019349925220012665,-89.99999237060547,-8.337633916610798e-10,-3.415094397496432e-05,4.867193759139354e-09,2.312214382982347e-05
93,1.8600000143051147,94,walker.pedestrian.0004,vehicle.nissan.patrol_2021,51.280616,23.290878295898438,4.7700114250183105,14.244615575703124,False,0.004770011425018311,0.014244615575703124,1220.0,500,100.86032104492188,7.529589653015137,0.9514999389648438,77.56021118164062,7.799999713897705,0.05554000660777092,0.019349925220012665,-89.99999237060547,-8.337633916610798e-10,-3.415094397496432e-05,4.867193759139354e-09,2.312214382982347e-05
94,1.8600000143051147,95,walker.pedestrian.0004,vehicle.nissan.patrol_2021,51.280614,23.06189727783203,4.7700114250183105,14.244614923813216,False,0.004770011425018311,0.014244614923813216,1210.0,500,100.86032104492188,7.4532694816589355,0.9514999389648438,77.78810119628906,7.799999713897705,0.05521232634782791,0.019349925220012665,-89.99999237060547,-8.337633916610798e-10,-3.415094397496432e-05,4.867193759139354e-09,2.312214382982347e-05
95,1.8600000143051147,96,walker.pedestrian.0004,vehicle.nissan.patrol_2021,51.280611,22.832916259765625,4.7700114250183105,14.244614281574002,False,0.004770011425018311,0.014244614281574001,1200.0,500,100.86032104492188,7.376949310302734,0.9514999389648438,78.0159912109375,7.799999713897705,0.054886817932128906,0.019349925220012665,-89.99999237060547,-8.337633916610798e-10,-3.415094397496432e-05,4.867193759139354e-09,2.312214382982347e-05
96,1.8600000143051147,97,walker.pedestrian.0004,vehicle.nissan.patrol_2021,51.280609,22.60394287109375,4.7700114250183105,14.244613643051247,False,0.004770011425018311,0.014244613643051247,1190.0,500,100.86032104492188,7.300629138946533,0.9514999389648438,78.24388122558594,7.799999713897705,0.05456329137086868,0.019349925220012665,-89.99999237060547,-8.337633916610798e-10,-3.415094397496432e-05,4.867193759139354e-09,2.312214382982347e-05
97,1.8600000143051147,98,walker.pedestrian.0004,vehicle.nissan.patrol_2021,51.280607,22.374954223632812,4.7700114250183105,14.244613014864024,False,0.004770011425018311,0.014244613014864025,1180.0,500,100.86032104492188,7.224308967590332,0.9514999389648438,78.4717788696289,7.799999713897705,0.05424179136753082,0.019349925220012665,-89.99999237060547,-8.337633916610798e-10,-3.415094397496432e-05,4.867193759139354e-09,2.312214382982347e-05
98,1.8600000143051147,99,walker.pedestrian.0004,vehicle.nissan.patrol_2021,51.280605,22.145973205566406,4.7700114250183105,14.244612395426932,False,0.004770011425018311,0.014244612395426933,1160.0,500,100.86032104492188,7.147988796234131,0.9514999389648438,78.69966888427734,7.799999713897705,0.053922347724437714,0.019349925220012665,-89.99999237060547,-8.337633916610798e-10,-3.415094397496432e-05,4.867193759139354e-09,2.312214382982347e-05
99,1.8600000143051147,100,walker.pedestrian.0004,vehicle.nissan.patrol_2021,51.280602,21.9169921875,4.7700114250183105,14.244611783347171,False,0.004770011425018311,0.014244611783347171,1150.0,500,100.86032104492188,7.07166862487793,0.9514999389648438,78.92755889892578,7.799999713897705,0.05360500141978264,0.019349925220012665,-89.99999237060547,-8.337633916610798e-10,-3.415094397496432e-05,4.867193759139354e-09,2.312214382982347e-05
100,1.8600000143051147,101,walker.pedestrian.0004,vehicle.nissan.patrol_2021,51.2806,21.688011169433594,4.7700114250183105,14.244611179076717,False,0.004770011425018311,0.014244611179076718,1140.0,500,100.86032104492188,6.9953484535217285,0.9514999389648438,79.15544891357422,7.799999713897705,0.053289640694856644,0.019349925220012665,-89.99999237060547,-8.337633916610798e-10,-3.415094397496432e-05,4.867193759139354e-09,2.312214382982347e-05
101,1.8600000143051147,102,walker.pedestrian.0004,vehicle.nissan.patrol_2021,51.280598,21.459030151367188,4.7700114250183105,14.244610583035719,False,0.004770011425018311,0.014244610583035718,1130.0,500,100.86032104492188,6.919028282165527,0.9514999389648438,79.38333892822266,7.799999713897705,0.052976302802562714,0.019349925220012665,-89.99999237060547,-8.337633916610798e-10,-3.415094397496432e-05,4.867193759139354e-09,2.312214382982347e-05
102,1.8600000143051147,103,walker.pedestrian.0004,vehicle.nissan.patrol_2021,51.280596,21.23004913330078,4.7700114250183105,14.244609994052272,False,0.004770011425018311,0.014244609994052273,1120.0,500,100.86032104492188,6.842708110809326,0.9514999389648438,79.6112289428711,7.799999713897705,0.052664946764707565,0.019349925220012665,-89.99999237060547,-8.337633916610798e-10,-3.415094397496432e-05,4.867193759139354e-09,2.312214382982347e-05
103,1.8600000143051147,104,walker.pedestrian.0004,vehicle.nissan.patrol_2021,51.280594,21.001075744628906,4.7700114250183105,14.244609412345824,False,0.004770011425018311,0.014244609412345824,1100.0,500,100.86032104492188,6.766387939453125,0.9514999389648438,79.83911895751953,7.799999713897705,0.0523555725812912,0.019349925220012665,-89.99999237060547,-8.337633916610798e-10,-3.415094397496432e-05,4.867193759139354e-09,2.312214382982347e-05
104,1.8600000143051147,105,walker.pedestrian.0004,vehicle.nissan.patrol_2021,51.280592,20.7720947265625,4.7700114250183105,14.244608836083321,False,0.004770011425018311,0.014244608836083321,1090.0,500,100.86032104492188,6.690067768096924,0.9514999389648438,80.06700897216797,7.799999713897705,0.05204810947179794,0.019349925220012665,-89.99999237060547,-8.337633916610798e-10,-3.415094397496432e-05,4.867193759139354e-09,2.312214382982347e-05
105,1.8600000143051147,106,walker.pedestrian.0004,vehicle.nissan.patrol_2021,51.28059,20.543121337890625,4.7700114250183105,14.244608271255037,False,0.004770011425018311,0.014244608271255038,1080.0,500,100.86032104492188,6.613747596740723,0.9514999389648438,80.2948989868164,7.799999713897705,0.051742665469646454,0.019349925220012665,-89.99999237060547,-8.337633916610798e-10,-3.415094397496432e-05,4.867193759139354e-09,2.312214382982347e-05
106,1.8600000143051147,107,walker.pedestrian.0004,vehicle.nissan.patrol_2021,51.280588,20.31414031982422,4.7700114250183105,14.244607710813991,False,0.004770011425018311,0.01424460771081399,1070.0,500,100.86032104492188,6.5374274253845215,0.9514999389648438,80.52278900146484,7.799999713897705,0.05143916979432106,0.019349925220012665,-89.99999237060547,-8.337633916610798e-10,-3.415094397496432e-05,4.867193759139354e-09,2.312214382982347e-05
107,1.8600000143051147,108,walker.pedestrian.0004,vehicle.nissan.patrol_2021,51.280586,20.085159301757812,4.7700114250183105,14.244607157750591,False,0.004770011425018311,0.014244607157750592,1060.0,500,100.86032104492188,6.46110725402832,0.9514999389648438,80.75067901611328,7.799999713897705,0.051137540489435196,0.019349925220012665,-89.99999237060547,-8.337633916610798e-10,-3.415094397496432e-05,4.867193759139354e-09,2.312214382982347e-05
108,1.8600000143051147,109,walker.pedestrian.0004,vehicle.nissan.patrol_2021,51.280584,19.856178283691406,4.7700114250183105,14.244606612246837,False,0.004770011425018311,0.014244606612246836,1040.0,500,100.86032104492188,6.384787082672119,0.9514999389648438,80.97856903076172,7.799999713897705,0.05083782225847244,0.019349925220012665,-89.99999237060547,-8.337633916610798e-10,-3.415094397496432e-05,4.867193759139354e-09,2.312214382982347e-05
109,1.8600000143051147,110,walker.pedestrian.0004,vehicle.nissan.patrol_2021,51.280582,19.627197265625,4.7700114250183105,14.244606072307198,False,0.004770011425018311,0.014244606072307198,1030.0,500,100.86032104492188,6.30846643447876,0.9514999389648438,81.20646667480469,7.799999713897705,0.0505400076508522,0.019349925220012665,-89.99999237060547,-8.337633916610798e-10,-3.415094397496432e-05,4.867193759139354e-09,2.312214382982347e-05
110,1.8600000143051147,111,walker.pedestrian.0004,vehicle.nissan.patrol_2021,51.28058,19.45049285888672,4.7700114250183105,14.244605540588662,False,0.004770011425018311,0.014244605540588661,1020.0,500,100.86032104492188,6.232146263122559,0.9514999389648438,81.43435668945312,7.799999713897705,0.05024413764476776,0.019349925220012665,-89.99999237060547,-8.337633916610798e-10,-3.415094397496432e-05,4.867193759139354e-09,2.312214382982347e-05
111,1.8600000143051147,112,walker.pedestrian.0004,vehicle.nissan.patrol_2021,51.280578,19.221435546875,4.7700114250183105,14.244605016606656,False,0.004770011425018311,0.014244605016606656,1010.0,500,100.86032104492188,6.155826091766357,0.9514999389648438,81.66231536865234,7.799999713897705,0.04995017871260643,0.019349925220012665,-89.99999237060547,-8.337633916610798e-10,-3.415094397496432e-05,4.867193759139354e-09,2.312214382982347e-05
112,1.8600000143051147,113,walker.pedestrian.0004,vehicle.nissan.patrol_2021,51.280576,18.99237823486328,4.7700114250183105,14.244604497339658,False,0.004770011425018311,0.014244604497339658,1000.0,500,100.86032104492188,6.079505920410156,0.9514999389648438,81.89028930664062,7.799999713897705,0.04965801164507866,0.019349925220012665,-89.99999237060547,-8.337633916610798e-10,-3.415094397496432e-05,4.867193759139354e-09,2.312214382982347e-05
113,1.8600000143051147,114,walker.pedestrian.0004,vehicle.nissan.patrol_2021,51.280574,18.763336181640625,4.7700114250183105,14.24460398530135,False,0.004770011425018311,0.014244603985301349,990.0,500,100.86032104492188,6.003185749053955,0.9514999389648438,82.11824798583984,7.799999713897705,0.0493677519261837,0.019349925220012665,-89.99999237060547,-8.337633916610798e-10,-3.415094397496432e-05,4.867193759139354e-09,2.312214382982347e-05
114,1.8600000143051147,115,walker.pedestrian.0004,vehicle.nissan.patrol_2021,51.280573,18.534271240234375,4.7700114250183105,14.244603480662045,False,0.004770011425018311,0.014244603480662045,970.0,500,100.86032104492188,5.926865577697754,0.9514999389648438,82.34622192382812,7.799999713897705,0.04907932132482529,0.019349925220012665,-89.99999237060547,-8.337633916610798e-10,-3.415094397496432e-05,4.867193759139354e-09,2.312214382982347e-05
115,1.8600000143051147,116,walker.pedestrian.0004,vehicle.nissan.patrol_2021,51.280571,18.305213928222656,4.7700114250183105,14.244602979005546,False,0.004770011425018311,0.014244602979005545,960.0,500,100.86032104492188,5.850545406341553,0.9514999389648438,82.57418823242188,7.799999713897705,0.04879264906048775,0.019349925220012665,-89.99999237060547,-8.337633916610798e-10,-3.415094397496432e-05,4.867193759139354e-09,2.312214382982347e-05
116,1.8600000143051147,117,walker.pedestrian.0004,vehicle.nissan.patrol_2021,51.280569,18.07616424560547,4.7700114250183105,14.244602486047189,False,0.004770011425018311,0.014244602486047189,950.0,500,100.86032104492188,5.774225234985352,0.9514999389648438,82.80215454101562,7.799999713897705,0.04850776493549347,0.019349925220012665,-89.99999237060547,-8.337633916610798e-10,-3.415094397496432e-05,4.867193759139354e-09,2.312214382982347e-05
117,1.8600000143051147,118,walker.pedestrian.0004,vehicle.nissan.patrol_2021,51.280567,17.847091674804688,4.7700114250183105,14.24460199965251,False,0.004770011425018311,0.01424460199965251,940.0,500,100.86032104492188,5.69790506362915,0.9514999389648438,83.0301284790039,7.799999713897705,0.048224713653326035,0.019349925220012665,-89.99999237060547,-8.337633916610798e-10,-3.415094397496432e-05,4.867193759139354e-09,2.312214382982347e-05
118,1.8600000143051147,119,walker.pedestrian.0004,vehicle.nissan.patrol_2021,51.280565,17.6180419921875,4.7700114250183105,14.244601519320177,False,0.004770011425018311,0.014244601519320178,930.0,500,100.86032104492188,5.621584892272949,0.9514999389648438,83.25809478759766,7.799999713897705,0.04794349521398544,0.019349925220012665,-89.99999237060547,-8.337633916610798e-10,-3.415094397496432e-05,4.867193759139354e-09,2.312214382982347e-05
119,1.8600000143051147,120,walker.pedestrian.0004,vehicle.nissan.patrol_2021,51.280564,17.388992309570312,4.7700114250183105,14.244601045163147,False,0.004770011425018311,0.014244601045163147,910.0,500,100.86032104492188,5.545264720916748,0.9514999389648438,83.4860610961914,7.799999713897705,0.04766406863927841,0.019349925220012665,-89.99999237060547,-8.337633916610798e-10,-3.415094397496432e-05,4.867193759139354e-09,2.312214382982347e-05
120,1.8600000143051147,121,walker.pedestrian.0004,vehicle.nissan.patrol_2021,51.280562,17.15991973876953,4.7700114250183105,14.244600576944555,False,0.004770011425018311,0.014244600576944554,900.0,500,100.86032104492188,5.468944549560547,0.9514999389648438,83.71403503417969,7.799999713897705,0.047386396676301956,0.019349925220012665,-89.99999237060547,-8.337633916610798e-10,-3.415094397496432e-05,4.867193759139354e-09,2.312214382982347e-05
121,1.8600000143051147,122,walker.pedestrian.0004,vehicle.nissan.patrol_2021,51.28056,16.930862426757812,4.7700114250183105,14.24460011442404,False,0.004770011425018311,0.01424460011442404,890.0,500,100.86032104492188,5.392624378204346,0.9514999389648438,83.94200134277344,7.799999713897705,0.047110557556152344,0.019349925220012665,-89.99999237060547,-8.337633916610798e-10,-3.415094397496432e-05,4.867193759139354e-09,2.312214382982347e-05
122,1.8600000143051147,123,walker.pedestrian.0004,vehicle.nissan.patrol_2021,51.280559,16.701812744140625,4.7700114250183105,14.244599659082033,False,0.004770011425018311,0.014244599659082032,880.0,500,100.86032104492188,5.3163042068481445,0.9514999389648438,84.16996765136719,7.799999713897705,0.04683646932244301,0.019349925220012665,-89.99999237060547,-8.337633916610798e-10,-3.415094397496432e-05,4.867193759139354e-09,2.312214382982347e-05
123,1.8600000143051147,124,walker.pedestrian.0004,vehicle.nissan.patrol_2021,51.280557,16.472755432128906,4.7700114250183105,14.244599208247163,False,0.004770011425018311,0.014244599208247163,870.0,500,100.86032104492188,5.239984035491943,0.9514999389648438,84.39793395996094,7.799999713897705,0.04656413942575455,0.019349925220012665,-89.99999237060547,-8.337633916610798e-10,-3.415094397496432e-05,4.867193759139354e-09,2.312214382982347e-05
124,1.8600000143051147,125,walker.pedestrian.0004,vehicle.nissan.patrol_2021,51.280556,16.243690490722656,4.7700114250183105,14.2445987623161,False,0.004770011425018311,0.0142445987623161,850.0,500,100.86032104492188,5.163663864135742,0.9514999389648438,84.62590789794922,7.799999713897705,0.04629352316260338,0.019349925220012665,-89.99999237060547,-8.337633916610798e-10,-3.415094397496432e-05,4.867193759139354e-09,2.312214382982347e-05
125,1.8600000143051147,126,walker.pedestrian.0004,vehicle.nissan.patrol_2021,51.280554,16.01464080810547,4.769992351531982,14.244598323039288,False,0.004769992351531982,0.014244598323039287,840.0,500,100.86032104492188,5.087344169616699,0.9514999389648438,84.85387420654297,7.799999713897705,0.0460246279835701,0.019349925220012665,-89.99999237060547,-8.337633916610798e-10,-3.415094397496432e-05,4.867193759139354e-09,2.312214382982347e-05
126,1.8600000143051147,127,walker.pedestrian.0004,vehicle.nissan.patrol_2021,51.280552,15.78558349609375,4.769992351531982,14.244597889974308,False,0.004769992351531982,0.014244597889974309,830.0,500,100.86032104492188,5.011023998260498,0.9514999389648438,85.08184051513672,7.799999713897705,0.04575744643807411,0.019349925220012665,-89.99999237060547,-8.337633916610798e-10,-3.415094397496432e-05,4.867193759139354e-09,2.312214382982347e-05
127,1.8600000143051147,128,walker.pedestrian.0004,vehicle.nissan.patrol_2021,51.280551,15.5565185546875,4.769992351531982,14.244597460280481,False,0.004769992351531982,0.014244597460280482,820.0,500,100.86032104492188,4.934704303741455,0.9514999389648438,85.309814453125,7.799999713897705,0.04549190402030945,0.019349925220012665,-89.99999237060547,-8.337633916610798e-10,-3.415094397496432e-05,4.867193759139354e-09,2.312214382982347e-05
128,1.8600000143051147,129,walker.pedestrian.0004,vehicle.nissan.patrol_2021,51.280549,15.327468872070312,4.769992351531982,14.244597037316758,False,0.004769992351531982,0.014244597037316759,810.0,500,100.86032104492188,4.858384132385254,0.9514999389648438,85.53778076171875,7.799999713897705,0.04522804170846939,0.019349925220012665,-89.99999237060547,-8.337633916610798e-10,-3.415094397496432e-05,4.867193759139354e-09,2.312214382982347e-05
129,1.8600000143051147,130,walker.pedestrian.0004,vehicle.nissan.patrol_2021,51.280548,15.098411560058594,4.769992351531982,14.24459662075981,False,0.004769992351531982,0.01424459662075981,790.0,500,100.86032104492188,4.782064437866211,0.9514999389648438,85.7657470703125,7.799999713897705,0.044965971261262894,0.019349925220012665,-89.99999237060547,-8.337633916610798e-10,-3.415094397496432e-05,4.867193759139354e-09,2.312214382982347e-05
130,1.8600000143051147,131,walker.pedestrian.0004,vehicle.nissan.patrol_2021,51.280546,14.869346618652344,4.769992351531982,14.244596206727522,False,0.004769992351531982,0.014244596206727522,780.0,500,100.86032104492188,4.705744743347168,0.9514999389648438,85.99372100830078,7.799999713897705,0.044705428183078766,0.019349925220012665,-89.99999237060547,-8.337633916610798e-10,-3.415094397496432e-05,4.867193759139354e-09,2.312214382982347e-05
131,1.8600000143051147,132,walker.pedestrian.0004,vehicle.nissan.patrol_2021,51.280545,14.640289306640625,4.769992351531982,14.244595801010453,False,0.004769992351531982,0.014244595801010453,770.0,500,100.86032104492188,4.629424571990967,0.9514999389648438,86.22168731689453,7.799999713897705,0.04444660246372223,0.019349925220012665,-89.99999237060547,-8.337633916610798e-10,-3.415094397496432e-05,4.867193759139354e-09,2.312214382982347e-05
132,1.8600000143051147,133,walker.pedestrian.0004,vehicle.nissan.patrol_2021,51.280543,14.411231994628906,4.769992351531982,14.244595397260062,False,0.004769992351531982,0.014244595397260062,760.0,500,100.86032104492188,4.553104877471924,0.9514999389648438,86.44965362548828,7.799999713897705,0.04418933764100075,0.019349925220012665,-89.99999237060547,-8.337633916610798e-10,-3.415094397496432e-05,4.867193759139354e-09,2.312214382982347e-05
133,1.8600000143051147,134,walker.pedestrian.0004,vehicle.nissan.patrol_2021,51.280542,14.182174682617188,4.769992351531982,14.244595002328841,False,0.004769992351531982,0.01424459500232884,750.0,500,100.86032104492188,4.476784706115723,0.9514999389648438,86.67762756347656,7.799999713897705,0.04393382743000984,0.019349925220012665,-89.99999237060547,-8.337633916610798e-10,-3.415094397496432e-05,4.867193759139354e-09,2.312214382982347e-05
134,1.8600000143051147,135,walker.pedestrian.0004,vehicle.nissan.patrol_2021,51.280541,13.953117370605469,4.769992351531982,14.244594610191053,False,0.004769992351531982,0.014244594610191053,730.0,500,100.86032104492188,4.40046501159668,0.9514999389648438,86.90559387207031,7.799999713897705,0.04367992281913757,0.019349925220012665,-89.99999237060547,-8.337633916610798e-10,-3.415094397496432e-05,4.867193759139354e-09,2.312214382982347e-05
