frame,ped_height,sim_time,walker,ego,e_veloc,distance,walker_vel_ms,ego_vel_ms,ttc_less_than_200,walker_vel_mms,ego_vel_mms,TCC,TCC_threshold,w_location_x,w_location_y,w_location_z,e_location_x,e_location_y,e_location_z,w_rotation_pitch,w_rotation_yaw,w_rotation_roll,e_rotation_pitch,e_rotation_yaw,e_rotation_roll
0,1.8600000143051147,1,walker.pedestrian.0004,vehicle.nissan.patrol_2021,53.670117,30.942584991455078,0.0,14.908365923795978,False,0.0,0.014908365923795979,2080.0,500,85.31837463378906,13.049999237060547,1.1038998365402222,54.44731140136719,7.799999713897705,0.09761844575405121,0.15539363026618958,-89.99999237060547,0.0,-0.026583094149827957,-3.0517576306010596e-05,9.977728950616438e-06
1,1.8600000143051147,2,walker.pedestrian.0004,vehicle.nissan.patrol_2021,53.527958,30.704723358154297,0.0368499718606472,14.868877321929977,False,3.68499718606472e-05,0.014868877321929977,2060.0,500,85.31837463378906,13.049409866333008,1.1038998365402222,54.68521499633789,7.8000006675720215,0.09699920564889908,0.15539363026618958,-89.99999237060547,0.0,-0.03631611540913582,-9.155272709904239e-05,3.618732080212794e-05
2,1.8600000143051147,3,walker.pedestrian.0004,vehicle.nissan.patrol_2021,53.49257,30.46694564819336,0.0736999437212944,14.859047230514706,False,7.36999437212944e-05,0.014859047230514707,2040.0,500,85.31837463378906,13.04823112487793,1.1038998365402222,54.923030853271484,7.80000114440918,0.09633872658014297,0.15539363026618958,-89.99999237060547,0.0,-0.045079246163368225,-0.00018310546875,7.47904196032323e-05
3,1.8600000143051147,4,walker.pedestrian.0004,vehicle.nissan.patrol_2021,53.475415,30.229198455810547,0.1105499118566513,14.854281903716988,False,0.0001105499118566513,0.014854281903716987,2020.0,500,85.31837463378906,13.046462059020996,1.1038998365402222,55.16080093383789,7.800001621246338,0.09564437717199326,0.15539363026618958,-89.99999237060547,0.0,-0.053282301872968674,-0.0003356933011673391,0.00012228610285092145
4,1.8600000143051147,5,walker.pedestrian.0004,vehicle.nissan.patrol_2021,53.479279,29.991436004638672,0.1473998874425888,14.85535517104099,False,0.0001473998874425888,0.014855355171040991,2000.0,500,85.31837463378906,13.044103622436523,1.1038998365402222,55.39858627319336,7.800002098083496,0.09491787105798721,0.15539363026618958,-89.99999237060547,0.0,-0.06088430434465408,-0.00048828122089616954,0.00017545926675666124
5,1.8600000143051147,6,walker.pedestrian.0004,vehicle.nissan.patrol_2021,53.479978,29.753643035888672,0.1842498481273651,14.855549370166981,False,0.00018424984812736512,0.014855549370166981,1980.0,500,85.31837463378906,13.041155815124512,1.1038998365402222,55.63638687133789,7.800003528594971,0.09416137635707855,0.15539363026618958,-89.99999237060547,0.0,-0.0678715854883194,-0.000701904296875,0.00023137728567235172
6,1.8600000143051147,7,walker.pedestrian.0004,vehicle.nissan.patrol_2021,53.47962,29.51584243774414,0.2210998237133026,14.855450009152564,False,0.0002210998237133026,0.014855450009152565,1960.0,500,85.31837463378906,13.037617683410645,1.1038998365402222,55.87418746948242,7.800004005432129,0.09337753057479858,0.15539363026618958,-89.99999237060547,0.0,-0.07416219264268875,-0.0008850095910020173,0.00028762317379005253
7,1.8600000143051147,8,walker.pedestrian.0004,vehicle.nissan.patrol_2021,53.479733,29.278026580810547,0.2579497992992401,14.855481344908968,False,0.0002579497992992401,0.014855481344908968,1940.0,500,85.31837463378906,13.033491134643555,1.1038998365402222,56.111995697021484,7.800005912780762,0.09256888926029205,0.15539363026618958,-89.99999237060547,0.0,-0.07980392873287201,-0.0011291500413790345,0.0003423582238610834
8,1.8600000143051147,9,walker.pedestrian.0004,vehicle.nissan.patrol_2021,53.479801,29.04019546508789,0.2947997748851776,14.855500343544078,False,0.0002947997748851776,0.014855500343544078,1920.0,500,85.31837463378906,13.02877426147461,1.1038998365402222,56.34981155395508,7.799999237060547,0.09173820167779922,0.15539363026618958,-89.99999237060547,0.0,-0.08477630466222763,-0.0013732907827943563,0.000393827969674021
9,1.8600000143051147,10,walker.pedestrian.0004,vehicle.nissan.patrol_2021,53.479856,28.80234146118164,0.3316497206687927,14.855515582624877,False,0.0003316497206687927,0.014855515582624877,1900.0,500,85.31837463378906,13.023468017578125,1.1038998365402222,56.5876350402832,7.799990653991699,0.0908883661031723,0.15539363026618958,-89.99999237060547,0.0,-0.08911347389221191,-0.0016174315242096782,0.0004404232604429126
10,1.8600000143051147,11,walker.pedestrian.0004,vehicle.nissan.patrol_2021,53.496816,28.564453125,0.3684996962547302,14.860226718351392,False,0.00036849969625473024,0.014860226718351391,1880.0,500,85.31837463378906,13.017571449279785,1.1038998365402222,56.82549285888672,7.79998254776001,0.09002162516117096,0.15539363026618958,-89.99999237060547,0.0,-0.09274030476808548,-0.001861572265625,0.00048100107233040035
11,1.8600000143051147,12,walker.pedestrian.0004,vehicle.nissan.patrol_2021,53.544733,28.326435089111328,0.4053496718406677,14.873536992272465,False,0.00040534967184066773,0.014873536992272465,1850.0,500,85.31837463378906,13.011086463928223,1.1038998365402222,57.0634651184082,7.7999749183654785,0.08913715183734894,0.15539363026618958,-89.99999237060547,0.0,-0.09519234299659729,-0.0021362302359193563,0.0005150355282239616
12,1.8600000143051147,13,walker.pedestrian.0004,vehicle.nissan.patrol_2021,53.562927,28.088340759277344,0.4421996474266052,14.878590776117678,False,0.0004421996474266052,0.014878590776117678,1830.0,500,85.31837463378906,13.004011154174805,1.1038998365402222,57.3015022277832,7.799966812133789,0.0882362350821495,0.15539363026618958,-89.99999237060547,0.0,-0.09610075503587723,-0.00238037109375,0.0005419039516709745
13,1.8600000143051147,14,walker.pedestrian.0004,vehicle.nissan.patrol_2021,53.563518,27.85022735595703,0.4790496230125427,14.878755065588955,False,0.0004790496230125427,0.014878755065588955,1810.0,500,85.31837463378906,12.996346473693848,1.1038998365402222,57.539554595947266,7.7999587059021,0.08732608705759048,0.15539363026618958,-89.99999237060547,0.0,-0.09558166563510895,-0.002624511020258069,0.0005612334934994578
14,1.8600000143051147,15,walker.pedestrian.0004,vehicle.nissan.patrol_2021,53.563523,27.612091064453125,0.5158995985984802,14.878756345529528,False,0.0005158995985984802,0.014878756345529529,1790.0,500,85.31837463378906,12.988091468811035,1.1038998365402222,57.77762222290039,7.799951076507568,0.08641365170478821,0.15539363026618958,-89.99999237060547,0.0,-0.09383996576070786,-0.0028686521109193563,0.0005731804994866252
15,1.8600000143051147,16,walker.pedestrian.0004,vehicle.nissan.patrol_2021,53.563519,27.373939514160156,0.5527495741844177,14.878755217834527,False,0.0005527495741844177,0.014878755217834527,1770.0,500,85.31837463378906,12.979248046875,1.1038998365402222,58.01569747924805,7.799942970275879,0.08550487458705902,0.15539363026618958,-89.99999237060547,0.0,-0.0910259261727333,-0.00311279296875,0.0005777252954430878
16,1.8600000143051147,17,walker.pedestrian.0004,vehicle.nissan.patrol_2021,53.563507,27.13577651977539,0.5895995497703552,14.878751911307765,False,0.0005895995497703552,0.014878751911307764,1750.0,500,85.31837463378906,12.96981430053711,1.1038998365402222,58.25377655029297,7.799935340881348,0.08460579067468643,0.15539363026618958,-89.99999237060547,0.0,-0.0873103067278862,-0.0033264157827943563,0.0005750196287408471
17,1.8600000143051147,18,walker.pedestrian.0004,vehicle.nissan.patrol_2021,53.563492,26.897586822509766,0.6264495253562927,14.878747664496583,False,0.0006264495253562927,0.014878747664496582,1730.0,500,85.31837463378906,12.95979118347168,1.1038998365402222,58.49186706542969,7.799927234649658,0.08372092992067337,0.15539363026618958,-89.99999237060547,0.0,-0.08288434147834778,-0.0035400392953306437,0.0005655923741869628
18,1.8600000143051147,19,walker.pedestrian.0004,vehicle.nissan.patrol_2021,53.563464,26.659381866455078,0.6632994413375854,14.87873994379065,False,0.0006632994413375854,0.01487873994379065,1720.0,500,85.31837463378906,12.949177742004395,1.1038998365402222,58.72996520996094,7.799909591674805,0.08285419642925262,0.15539363026618958,-89.99999237060547,0.0,-0.07788464426994324,-0.00372314453125,0.0005499745602719486
19,1.8600000143051147,20,walker.pedestrian.0004,vehicle.nissan.patrol_2021,53.563445,26.42116928100586,0.700149416923523,14.878734664770775,False,0.000700149416923523,0.014878734664770774,1700.0,500,85.31837463378906,12.937975883483887,1.1038998365402222,58.96806335449219,7.799891948699951,0.08200877904891968,0.15539363026618958,-89.99999237060547,0.0,-0.07244781404733658,-0.003906249301508069,0.0005287835374474525
20,1.8600000143051147,21,walker.pedestrian.0004,vehicle.nissan.patrol_2021,53.563422,26.182941436767578,0.7369993925094604,14.878728259152211,False,0.0007369993925094605,0.014878728259152211,1680.0,500,85.31837463378906,12.926183700561523,1.1038998365402222,59.20616912841797,7.799873352050781,0.08118747174739838,0.15539363026618958,-89.99999237060547,0.0,-0.0667104572057724,-0.004089354071766138,0.0005025346181355417
21,1.8600000143051147,22,walker.pedestrian.0004,vehicle.nissan.patrol_2021,53.563395,25.944705963134766,0.773849368095398,14.878720866776632,False,0.000773849368095398,0.014878720866776633,1660.0,500,85.31837463378906,12.913802146911621,1.1038998365402222,59.44427490234375,7.799855709075928,0.08039188385009766,0.15539363026618958,-89.99999237060547,0.0,-0.060788679867982864,-0.004241943359375,0.00047160935355350375
22,1.8600000143051147,23,walker.pedestrian.0004,vehicle.nissan.patrol_2021,53.563369,25.70645523071289,0.8106993436813354,14.878713617349474,False,0.0008106993436813355,0.014878713617349474,1640.0,500,85.31837463378906,12.90083122253418,1.1038998365402222,59.68238067626953,7.799837589263916,0.07962349057197571,0.15539363026618958,-89.99999237060547,0.0,-0.05477811396121979,-0.004364013206213713,0.0004367426736280322
23,1.8600000143051147,24,walker.pedestrian.0004,vehicle.nissan.patrol_2021,53.563344,25.468204498291016,0.847549319267273,14.878706625183815,False,0.000847549319267273,0.014878706625183815,1620.0,500,85.31837463378906,12.887269973754883,1.1038998365402222,59.92048645019531,7.799818992614746,0.07888335734605789,0.15539363026618958,-89.99999237060547,0.0,-0.04880169779062271,-0.004486083984375,0.00039903607103042305
24,1.8600000143051147,25,walker.pedestrian.0004,vehicle.nissan.patrol_2021,53.56333,25.229938507080078,0.8843992948532104,14.878702838107865,False,0.0008843992948532104,0.014878702838107865,1600.0,500,85.31837463378906,12.873119354248047,1.1038998365402222,60.158592224121094,7.799800872802734,0.07817184180021286,0.15539363026618958,-89.99999237060547,0.0,-0.042907245457172394,-0.004577635787427425,0.0003590908891055733
25,1.8600000143051147,26,walker.pedestrian.0004,vehicle.nissan.patrol_2021,53.563311,24.99167251586914,0.921249270439148,14.878697588031018,False,0.0009212492704391479,0.014878697588031018,1580.0,500,85.31837463378906,12.858379364013672,1.1038998365402222,60.396697998046875,7.799782752990723,0.07748878002166748,0.15539363026618958,-89.99999237060547,0.0,-0.037176717072725296,-0.004669188987463713,0.00031768865301273763
26,1.8600000143051147,27,walker.pedestrian.0004,vehicle.nissan.patrol_2021,53.563287,24.753387451171875,0.9580992460250854,14.878690888275104,False,0.0009580992460250854,0.014878690888275104,1560.0,500,85.31837463378906,12.843050003051758,1.1038998365402222,60.63479995727539,7.7997636795043945,0.07683403044939041,0.15539363026618958,-89.99999237060547,0.0,-0.03164426609873772,-0.004730223678052425,0.0002755832392722368
27,1.8600000143051147,28,walker.pedestrian.0004,vehicle.nissan.patrol_2021,53.563272,24.515106201171875,0.994949221611023,14.878686590383671,False,0.000994949221611023,0.014878686590383671,1540.0,500,85.31837463378906,12.827131271362305,1.1038998365402222,60.87289810180664,7.799745082855225,0.07620704174041748,0.15539363026618958,-89.99999237060547,0.0,-0.026426000520586967,-0.004791259765625,0.00023347852402366698
28,1.8600000143051147,29,walker.pedestrian.0004,vehicle.nissan.patrol_2021,53.563251,24.276817321777344,1.0317991971969604,14.878680942510147,False,0.0010317991971969605,0.014878680942510148,1530.0,500,85.31837463378906,12.810622215270996,1.1038998365402222,61.11099624633789,7.799726486206055,0.075606569647789,0.15539363026618958,-89.99999237060547,0.0,-0.021487774327397346,-0.004852294921875,0.00019183072436135262
29,1.8600000143051147,30,walker.pedestrian.0004,vehicle.nissan.patrol_2021,53.563229,24.03852081298828,1.068649172782898,14.878674832414188,False,0.0010686491727828979,0.014878674832414188,1510.0,500,85.31837463378906,12.793523788452148,1.1038998365402222,61.34908676147461,7.799707412719727,0.07503177225589752,0.15539363026618958,-89.99999237060547,0.0,-0.016911547631025314,-0.0048828125,0.00015109025116544217
30,1.8600000143051147,31,walker.pedestrian.0004,vehicle.nissan.patrol_2021,53.563209,23.800228118896484,1.1054991483688354,14.878669272548992,False,0.0011054991483688355,0.014878669272548991,1490.0,500,85.31837463378906,12.775835990905762,1.1038998365402222,61.58717727661133,7.799688339233398,0.07448127865791321,0.15539363026618958,-89.99999237060547,0.0,-0.012697321362793446,-0.004882812034338713,0.00011163788440171629
31,1.8600000143051147,32,walker.pedestrian.0004,vehicle.nissan.patrol_2021,53.563202,23.56191635131836,1.142349123954773,14.878667084749228,False,0.0011423491239547728,0.014878667084749228,1470.0,500,85.31837463378906,12.75755786895752,1.1038998365402222,61.82526397705078,7.7996697425842285,0.07395362854003906,0.15539363026618958,-89.99999237060547,0.0,-0.008851924911141396,-0.004882812034338713,7.419036410283297e-05
32,1.8600000143051147,33,walker.pedestrian.0004,vehicle.nissan.patrol_2021,53.563185,23.323612213134766,1.1791990995407104,14.878662511144453,False,0.0011791990995407104,0.014878662511144454,1450.0,500,85.31837463378906,12.738691329956055,1.1038998365402222,62.0633430480957,7.799650192260742,0.07344715297222137,0.15539363026618958,-89.99999237060547,0.0,-0.005402679555118084,-0.004882812034338713,3.9392176404362544e-05
33,1.8600000143051147,34,walker.pedestrian.0004,vehicle.nissan.patrol_2021,53.56317,23.085296630859375,1.216049075126648,14.87865841429833,False,0.001216049075126648,0.014878658414298331,1430.0,500,85.31837463378906,12.719234466552734,1.1038998365402222,62.30141830444336,7.799631118774414,0.07296020537614822,0.15539363026618958,-89.99999237060547,0.0,-0.002288113348186016,-0.004882812034338713,7.176928647822933e-06
34,1.8600000143051147,35,walker.pedestrian.0004,vehicle.nissan.patrol_2021,53.563157,22.846981048583984,1.2528990507125854,14.878654718138936,False,0.0012528990507125854,0.014878654718138935,1420.0,500,85.31837463378906,12.699188232421875,1.1038998365402222,62.53948974609375,7.799611568450928,0.07249152660369873,0.15539363026618958,-89.99999237060547,0.0,0.00040298112435266376,-0.004852294456213713,-3.0517576306010596e-05
35,1.8600000143051147,36,walker.pedestrian.0004,vehicle.nissan.patrol_2021,53.563138,22.60865020751953,1.2897489070892334,14.878649555827707,False,0.0012897489070892334,0.014878649555827708,1400.0,500,85.31837463378906,12.67855167388916,1.1038998365402222,62.77756118774414,7.799592018127441,0.07203914225101471,0.15539363026618958,-89.99999237060547,0.0,0.002738905604928732,-0.004821776878088713,-6.103515261202119e-05
36,1.8600000143051147,37,walker.pedestrian.0004,vehicle.nissan.patrol_2021,53.563128,22.370323181152344,1.326598882675171,14.878646665359929,False,0.0013265988826751708,0.01487864666535993,1380.0,500,85.31837463378906,12.657326698303223,1.1038998365402222,63.015628814697266,7.799572467803955,0.07160156220197678,0.15539363026618958,-89.99999237060547,0.0,0.004719660617411137,-0.004791259299963713,-6.103515261202119e-05
37,1.8600000143051147,38,walker.pedestrian.0004,vehicle.nissan.patrol_2021,53.563119,22.131980895996094,1.3634488582611084,14.87864412612297,False,0.0013634488582611084,0.01487864412612297,1360.0,500,85.31837463378906,12.63551139831543,1.1038998365402222,63.25369644165039,7.799552917480469,0.07117705792188644,0.15539363026618958,-89.99999237060547,0.0,0.00636573601514101,-0.0047607421875,-9.1552734375e-05
38,1.8600000143051147,39,walker.pedestrian.0004,vehicle.nissan.patrol_2021,53.563111,21.89364242553711,1.400298833847046,14.878641897613742,False,0.001400298833847046,0.014878641897613742,1340.0,500,85.31837463378906,12.613106727600098,1.1038998365402222,63.49175262451172,7.799533367156982,0.07076416164636612,0.15539363026618958,-89.99999237060547,0.0,0.007690792437642813,-0.004730224143713713,-0.00012207030522404239
39,1.8600000143051147,40,walker.pedestrian.0004,vehicle.nissan.patrol_2021,53.563104,21.655296325683594,1.4371488094329834,14.878639958218448,False,0.0014371488094329834,0.014878639958218448,1330.0,500,85.31837463378906,12.59011173248291,1.1038998365402222,63.72980880737305,7.799513339996338,0.07036132365465164,0.15539363026618958,-89.99999237060547,0.0,0.008715321309864521,-0.00469970703125,-0.00012207030522404239
40,1.8600000143051147,41,walker.pedestrian.0004,vehicle.nissan.patrol_2021,53.563094,21.41693878173828,1.473998785018921,14.878637328168356,False,0.001473998785018921,0.014878637328168355,1310.0,500,85.31837463378906,12.5665283203125,1.1038998365402222,63.967864990234375,7.799493789672852,0.06996719539165497,0.15539363026618958,-89.99999237060547,0.0,0.009473471902310848,-0.004638671409338713,-0.00012207030522404239
41,1.8600000143051147,42,walker.pedestrian.0004,vehicle.nissan.patrol_2021,53.563089,21.17858123779297,1.5108487606048584,14.878635875458011,False,0.0015108487606048584,0.014878635875458011,1290.0,500,85.31837463378906,12.542354583740234,1.1038998365402222,64.20591735839844,7.799473762512207,0.06958049535751343,0.15539363026618958,-89.99999237060547,0.0,0.009972075931727886,-0.004608154296875,-0.00015258787607308477
42,1.8600000143051147,43,walker.pedestrian.0004,vehicle.nissan.patrol_2021,53.563081,20.940216064453125,1.547698736190796,14.878633683342079,False,0.001547698736190796,0.014878633683342078,1270.0,500,85.31837463378906,12.51759147644043,1.1038998365402222,64.44396209716797,7.799454212188721,0.06919994205236435,0.15539363026618958,-89.99999237060547,0.0,0.010258943773806095,-0.004547119140625,-0.00015258787607308477
43,1.8600000143051147,44,walker.pedestrian.0004,vehicle.nissan.patrol_2021,53.563077,20.70184326171875,1.5599820613861084,14.878632616712236,False,0.0015599820613861083,0.014878632616712236,1260.0,500,85.31837463378906,12.492631912231445,1.100484848022461,64.68201446533203,7.799434185028076,0.06882457435131073,0.15539363026618958,-89.99999237060547,0.0,0.010258943773806095,-0.004547119140625,-0.00015258787607308477
44,1.8600000143051147,45,walker.pedestrian.0004,vehicle.nissan.patrol_2021,53.563067,20.463485717773438,1.5599820613861084,14.878629860800517,False,0.0015599820613861083,0.014878629860800517,1240.0,500,85.31837463378906,12.467671394348145,1.0938481092453003,64.92005920410156,7.79941463470459,0.06845306605100632,0.15539363026618958,-89.99999237060547,0.0,0.010258943773806095,-0.004547119140625,-0.00015258787607308477
45,1.8600000143051147,46,walker.pedestrian.0004,vehicle.nissan.patrol_2021,53.563064,20.225120544433594,1.5599820613861084,14.878629021349058,False,0.0015599820613861083,0.014878629021349057,1230.0,500,85.31837463378906,12.44271183013916,1.0832655429840088,65.1581039428711,7.799394130706787,0.06808513402938843,0.15539363026618958,-89.99999237060547,0.0,0.009985735639929771,-0.00439453125,-0.00015258787607308477
46,1.8600000143051147,47,walker.pedestrian.0004,vehicle.nissan.patrol_2021,53.563055,19.98675537109375,1.5599820613861084,14.87862647900146,False,0.0015599820613861083,0.014878626479001459,1220.0,500,85.31837463378906,12.417752265930176,1.0679137706756592,65.39614868164062,7.799374103546143,0.06771964579820633,0.15539363026618958,-89.99999237060547,0.0,0.009589585475623608,-0.004364013206213713,-0.00015258787607308477
47,1.8600000143051147,48,walker.pedestrian.0004,vehicle.nissan.patrol_2021,53.563053,19.748397827148438,1.5599820613861084,14.878625928711106,False,0.0015599820613861083,0.014878625928711106,1200.0,500,85.31837463378906,12.392792701721191,1.0461127758026123,65.63418579101562,7.799354553222656,0.0673556849360466,0.15539363026618958,-89.99999237060547,0.0,0.00910464208573103,-0.004302978049963713,-0.00015258787607308477
48,1.8600000143051147,49,walker.pedestrian.0004,vehicle.nissan.patrol_2021,53.563052,19.510032653808594,1.5599820613861084,14.878625447922381,False,0.0015599820613861083,0.014878625447922381,1190.0,500,85.31837463378906,12.367833137512207,1.007968544960022,65.87223052978516,7.799334526062012,0.0669928714632988,0.15539363026618958,-89.99999237060547,0.0,0.008524075150489807,-0.004272460471838713,-0.00015258786152116954
49,1.8600000143051147,50,walker.pedestrian.0004,vehicle.nissan.patrol_2021,53.56305,19.27166748046875,1.5599820613861084,14.878625036914688,False,0.0015599820613861083,0.014878625036914688,1170.0,500,85.31837463378906,12.342873573303223,0.964400053024292,66.11027526855469,7.799314498901367,0.0666307806968689,0.15539363026618958,-89.99999237060547,0.0,0.00786837749183178,-0.004241943359375,-0.00012207030522404239
50,1.8600000143051147,51,walker.pedestrian.0004,vehicle.nissan.patrol_2021,53.563049,19.033309936523438,1.5599820613861084,14.878624678078634,False,0.0015599820613861083,0.014878624678078633,1160.0,500,85.31837463378906,12.317914009094238,0.9514999389648438,66.34831237792969,7.799294948577881,0.06626888364553452,0.15539363026618958,-89.99999237060547,0.0,0.00716486806049943,-0.004211425315588713,-0.00012207030522404239
51,1.8600000143051147,52,walker.pedestrian.0004,vehicle.nissan.patrol_2021,53.563048,18.794960021972656,1.5599820613861084,14.878624355387926,False,0.0015599820613861083,0.014878624355387926,1140.0,500,85.31837463378906,12.292953491210938,0.9514999389648438,66.58634948730469,7.799274921417236,0.06590686738491058,0.15539363026618958,-89.99999237060547,0.0,0.006427207496017218,-0.004150390159338713,-0.00012207030522404239
52,1.8600000143051147,53,walker.pedestrian.0004,vehicle.nissan.patrol_2021,53.563047,18.556602478027344,1.5599820613861084,14.878624049555352,False,0.0015599820613861083,0.014878624049555353,1130.0,500,85.31837463378906,12.267993927001953,0.9514999389648438,66.82438659667969,7.79925537109375,0.06554443389177322,0.15539363026618958,-89.99999237060547,0.0,0.0056622265838086605,-0.004119873046875,-0.00012207030522404239
53,1.8600000143051147,54,walker.pedestrian.0004,vehicle.nissan.patrol_2021,53.563046,18.31824493408203,1.5599820613861084,14.87862376623314,False,0.0015599820613861083,0.01487862376623314,1110.0,500,85.31837463378906,12.243034362792969,0.9514999389648438,67.06243133544922,7.799234867095947,0.06518138945102692,0.15539363026618958,-89.99999237060547,0.0,0.004897245205938816,-0.004089355003088713,-9.1552734375e-05
54,1.8600000143051147,55,walker.pedestrian.0004,vehicle.nissan.patrol_2021,53.563045,18.079879760742188,1.5599820613861084,14.878623480157353,False,0.0015599820613861083,0.014878623480157354,1100.0,500,85.31837463378906,12.218074798583984,0.9514999389648438,67.30046844482422,7.799215316772461,0.06481761485338211,0.15539363026618958,-89.99999237060547,0.0,0.004132264293730259,-0.004089355003088713,-9.1552734375e-05
55,1.8600000143051147,56,walker.pedestrian.0004,vehicle.nissan.patrol_2021,53.563044,17.841529846191406,1.5599820613861084,14.87862319620988,False,0.0015599820613861083,0.014878623196209879,1090.0,500,85.31837463378906,12.193115234375,0.9514999389648438,67.53850555419922,7.799195289611816,0.06445316225290298,0.15539363026618958,-89.99999237060547,0.0,0.0033809435553848743,-0.004058837424963713,-9.1552734375e-05
56,1.8600000143051147,57,walker.pedestrian.0004,vehicle.nissan.patrol_2021,53.563042,17.603164672851562,1.5599820613861084,14.878622899449136,False,0.0015599820613861083,0.014878622899449136,1070.0,500,85.31837463378906,12.168155670166016,0.9514999389648438,67.77654266357422,7.79917573928833,0.06408790498971939,0.15539363026618958,-89.99999237060547,0.0,0.0026569433975964785,-0.0040283203125,-6.103515261202119e-05
57,1.8600000143051147,58,walker.pedestrian.0004,vehicle.nissan.patrol_2021,53.563041,17.36479949951172,1.5599820613861084,14.87862258647998,False,0.0015599820613861083,0.014878622586479978,1060.0,500,85.31837463378906,12.143195152282715,0.9514999389648438,68.01458740234375,7.7991557121276855,0.06372199952602386,0.15539363026618958,-89.99999237060547,0.0,0.0019534339662641287,-0.0040283203125,-6.103515261202119e-05
58,1.8600000143051147,59,walker.pedestrian.0004,vehicle.nissan.patrol_2021,53.56304,17.126449584960938,1.5599820613861084,14.878622257534367,False,0.0015599820613861083,0.014878622257534366,1040.0,500,85.31837463378906,12.11823558807373,0.9514999389648438,68.25262451171875,7.799136161804199,0.06335537135601044,0.15539363026618958,-89.99999237060547,0.0,0.0012977358419448137,-0.003997802268713713,-3.0517576306010596e-05
59,1.8600000143051147,60,walker.pedestrian.0004,vehicle.nissan.patrol_2021,53.563039,16.888092041015625,1.5599820613861084,14.878621895292124,False,0.0015599820613861083,0.014878621895292123,1030.0,500,85.31837463378906,12.093276023864746,0.9514999389648438,68.49066925048828,7.799116134643555,0.06298828125,0.15539363026618958,-89.99999237060547,0.0,0.0006761886761523783,-0.00396728515625,-3.0517576306010596e-05
60,1.8600000143051147,61,walker.pedestrian.0004,vehicle.nissan.patrol_2021,53.563037,16.64972686767578,1.5599820613861084,14.878621510172225,False,0.0015599820613861083,0.014878621510172226,1010.0,500,85.31837463378906,12.068316459655762,0.9514999389648438,68.72870635986328,7.799096584320068,0.06262065470218658,0.15539363026618958,-89.99999237060547,0.0,9.56226431299001e-05,-0.00396728515625,-3.0517576306010596e-05
61,1.8600000143051147,62,walker.pedestrian.0004,vehicle.nissan.patrol_2021,53.563036,16.411361694335938,1.5599820613861084,14.878621099368418,False,0.0015599820613861083,0.014878621099368418,1000.0,500,85.31837463378906,12.043356895446777,0.9514999389648438,68.96675109863281,7.799077033996582,0.06225269287824631,0.15539363026618958,-89.99999237060547,0.0,-0.0004234717052895576,-0.00396728515625,-3.0517576306010596e-05
62,1.8600000143051147,63,walker.pedestrian.0004,vehicle.nissan.patrol_2021,53.563034,16.172996520996094,1.5599820613861084,14.878620654620114,False,0.0015599820613861083,0.014878620654620114,980.0,500,85.31837463378906,12.018397331237793,0.9514999389648438,69.20479583740234,7.799057483673096,0.0618848018348217,0.15539363026618958,-89.99999237060547,0.0,-0.0009152452694252133,-0.003936767112463713,0.0
63,1.8600000143051147,64,walker.pedestrian.0004,vehicle.nissan.patrol_2021,53.563033,15.934638977050781,1.5599820613861084,14.878620184746568,False,0.0015599820613861083,0.014878620184746567,970.0,500,85.31837463378906,11.993436813354492,0.9514999389648438,69.44283294677734,7.799037456512451,0.06151687353849411,0.15539363026618958,-89.99999237060547,0.0,-0.0013455471489578485,-0.003936767112463713,0.0
64,1.8600000143051147,65,walker.pedestrian.0004,vehicle.nissan.patrol_2021,53.563031,15.696281433105469,1.5599820613861084,14.878619677622497,False,0.0015599820613861083,0.014878619677622497,950.0,500,85.31837463378906,11.968477249145508,0.9514999389648438,69.68087768554688,7.799017906188965,0.06114921346306801,0.15539363026618958,-89.99999237060547,0.0,-0.0017416981281712651,-0.003936767112463713,2.695811872399645e-06
65,1.8600000143051147,66,walker.pedestrian.0004,vehicle.nissan.patrol_2021,53.563029,15.457916259765625,1.5599820613861084,14.878619156710974,False,0.0015599820613861083,0.014878619156710973,940.0,500,85.31837463378906,11.943517684936523,0.9514999389648438,69.9189224243164,7.7989983558654785,0.06078197434544563,0.15539363026618958,-89.99999237060547,0.0,-0.0020763773936778307,-0.003936767112463713,8.281176633317955e-06
66,1.8600000143051147,67,walker.pedestrian.0004,vehicle.nissan.patrol_2021,53.563027,15.219551086425781,1.5599820613861084,14.878618599472512,False,0.0015599820613861083,0.014878618599472511,930.0,500,85.31837463378906,11.918558120727539,0.9514999389648438,70.15696716308594,7.798978805541992,0.06041557341814041,0.15539363026618958,-89.99999237060547,0.0,-0.0023495848290622234,-0.0039062497671693563,1.2950069503858685e-05
67,1.8600000143051147,68,walker.pedestrian.0004,vehicle.nissan.patrol_2021,53.563025,14.981193542480469,1.5599820613861084,14.878618004511312,False,0.0015599820613861083,0.014878618004511311,910.0,500,85.31837463378906,11.893598556518555,0.9514999389648438,70.39501190185547,7.798959255218506,0.060049932450056076,0.15539363026618958,-89.99999237060547,0.0,-0.002588641596958041,-0.0039062497671693563,1.7048989320755936e-05
68,1.8600000143051147,69,walker.pedestrian.0004,vehicle.nissan.patrol_2021,53.563023,14.742828369140625,1.5599820613861084,14.878617396517596,False,0.0015599820613861083,0.014878617396517595,900.0,500,85.31837463378906,11.86863899230957,0.9514999389648438,70.633056640625,7.7989397048950195,0.0596853606402874,0.15539363026618958,-89.99999237060547,0.0,-0.002807207638397813,-0.0039062497671693563,2.0632851374102756e-05
69,1.8600000143051147,70,walker.pedestrian.0004,vehicle.nissan.patrol_2021,53.56302,14.504463195800781,1.5599820613861084,14.878616775253452,False,0.0015599820613861083,0.014878616775253452,880.0,500,85.31837463378906,11.84367847442627,0.9514999389648438,70.87110137939453,7.798919677734375,0.05932197347283363,0.15539363026618958,-89.99999237060547,0.0,-0.0029643019661307335,-0.0039062497671693563,2.3474171030102298e-05
70,1.8600000143051147,71,walker.pedestrian.0004,vehicle.nissan.patrol_2021,53.563018,14.266090393066406,1.5599820613861084,14.878616119814893,False,0.0015599820613861083,0.014878616119814893,870.0,500,85.31837463378906,11.818718910217285,0.9514999389648438,71.10914611816406,7.798900127410889,0.058959998190402985,0.15539363026618958,-89.99999237060547,0.0,-0.0030872453935444355,-0.0039062497671693563,2.5452751287957653e-05
71,1.8600000143051147,72,walker.pedestrian.0004,vehicle.nissan.patrol_2021,53.563016,14.027732849121094,1.5599820613861084,14.878615452306805,False,0.0015599820613861083,0.014878615452306804,850.0,500,85.31837463378906,11.7937593460083,0.9514999389648438,71.3471908569336,7.798880577087402,0.05859954655170441,0.15539363026618958,-89.99999237060547,0.0,-0.0030872453935444355,-0.0039062497671693563,2.5452751287957653e-05
72,1.8600000143051147,73,walker.pedestrian.0004,vehicle.nissan.patrol_2021,53.563013,13.78936767578125,1.5599820613861084,14.878614716005766,False,0.0015599820613861083,0.014878614716005765,840.0,500,85.31837463378906,11.768799781799316,0.9514999389648438,71.58523559570312,7.798861026763916,0.05824119597673416,0.15539363026618958,-89.99999237060547,0.0,-0.0032375094015151262,-0.003875732421875,2.7083169698016718e-05
73,1.8600000143051147,74,walker.pedestrian.0004,vehicle.nissan.patrol_2021,53.563011,13.550994873046875,1.5599820613861084,14.878614084562955,False,0.0015599820613861083,0.014878614084562954,820.0,500,85.31837463378906,11.743840217590332,0.9514999389648438,71.82328796386719,7.79884147644043,0.057884253561496735,0.15539363026618958,-89.99999237060547,0.0,-0.0032375094015151262,-0.003875732421875,2.7083169698016718e-05
74,1.8600000143051147,75,walker.pedestrian.0004,vehicle.nissan.patrol_2021,53.563008,13.3126220703125,1.5599820613861084,14.87861336527741,False,0.0015599820613861083,0.01487861336527741,810.0,500,85.31837463378906,11.718880653381348,0.9514999389648438,72.06133270263672,7.798821926116943,0.057529449462890625,0.15539363026618958,-89.99999237060547,0.0,-0.0032375094015151262,-0.003875732421875,2.7083169698016718e-05
75,1.8600000143051147,76,walker.pedestrian.0004,vehicle.nissan.patrol_2021,53.563006,13.074264526367188,1.5599820613861084,14.878612654064725,False,0.0015599820613861083,0.014878612654064725,800.0,500,85.31837463378906,11.693921089172363,0.9514999389648438,72.29937744140625,7.798802375793457,0.05717674270272255,0.15539363026618958,-89.99999237060547,0.0,-0.0032375094015151262,-0.003875732421875,2.7083169698016718e-05
76,1.8600000143051147,77,walker.pedestrian.0004,vehicle.nissan.patrol_2021,53.563003,12.835899353027344,1.5599820613861084,14.878611950587315,False,0.0015599820613861083,0.014878611950587315,780.0,500,85.31837463378906,11.668960571289062,0.9514999389648438,72.53742218017578,7.798782825469971,0.056826017796993256,0.15539363026618958,-89.99999237060547,0.0,-0.0032375094015151262,-0.003875732421875,2.7083169698016718e-05
77,1.8600000143051147,78,walker.pedestrian.0004,vehicle.nissan.patrol_2021,53.563001,12.597526550292969,1.5599820613861084,14.878611258216338,False,0.0015599820613861083,0.014878611258216339,770.0,500,85.31837463378906,11.644001007080078,0.9514999389648438,72.77547454833984,7.798763275146484,0.056477393954992294,0.15539363026618958,-89.99999237060547,0.0,-0.0032375094015151262,-0.003875732421875,2.7083169698016718e-05
78,1.8600000143051147,79,walker.pedestrian.0004,vehicle.nissan.patrol_2021,53.562998,12.359161376953125,1.5599820613861084,14.87861057402634,False,0.0015599820613861083,0.014878610574026339,750.0,500,85.31837463378906,11.619041442871094,0.9514999389648438,73.01351928710938,7.798743724822998,0.05613086745142937,0.15539363026618958,-89.99999237060547,0.0,-0.003114566206932068,-0.0038452146109193563,2.0538920580293052e-05
79,1.8600000143051147,80,walker.pedestrian.0004,vehicle.nissan.patrol_2021,53.562995,12.120796203613281,1.5599820613861084,14.878609823502229,False,0.0015599820613861083,0.01487860982350223,740.0,500,85.31837463378906,11.59408187866211,0.9514999389648438,73.2515640258789,7.798724174499512,0.05578693374991417,0.15539363026618958,-89.99999237060547,0.0,-0.003114566206932068,-0.0038452146109193563,2.0538920580293052e-05
80,1.8600000143051147,81,walker.pedestrian.0004,vehicle.nissan.patrol_2021,53.562993,11.882431030273438,1.5599820613861084,14.878609159288654,False,0.0015599820613861083,0.014878609159288654,720.0,500,85.31837463378906,11.569122314453125,0.9514999389648438,73.48961639404297,7.798704624176025,0.05544517561793327,0.15539363026618958,-89.99999237060547,0.0,-0.0029643019661307335,-0.0038146970327943563,1.5175538464973215e-05
81,1.8600000143051147,82,walker.pedestrian.0004,vehicle.nissan.patrol_2021,53.56299,11.644065856933594,1.5599820613861084,14.878608410796238,False,0.0015599820613861083,0.014878608410796237,710.0,500,85.31837463378906,11.54416275024414,0.9514999389648438,73.7276611328125,7.798684597015381,0.055106163024902344,0.15539363026618958,-89.99999237060547,0.0,-0.0029643019661307335,-0.0038146970327943563,1.5175538464973215e-05
82,1.8600000143051147,83,walker.pedestrian.0004,vehicle.nissan.patrol_2021,53.562988,11.405693054199219,1.5599820613861084,14.878607763508946,False,0.0015599820613861083,0.014878607763508946,690.0,500,85.31837463378906,11.51920223236084,0.9514999389648438,73.96571350097656,7.7986650466918945,0.05476917326450348,0.15539363026618958,-89.99999237060547,0.0,-0.002745735924690962,-0.0038146970327943563,9.543359738017898e-06
83,1.8600000143051147,84,walker.pedestrian.0004,vehicle.nissan.patrol_2021,53.562985,11.167327880859375,1.5599820613861084,14.878606995863263,False,0.0015599820613861083,0.014878606995863264,680.0,500,85.31837463378906,11.494242668151855,0.9514999389648438,74.2037582397461,7.798645496368408,0.054435040801763535,0.15539363026618958,-89.99999237060547,0.0,-0.002745735924690962,-0.0038146970327943563,9.543359738017898e-06
84,1.8600000143051147,85,walker.pedestrian.0004,vehicle.nissan.patrol_2021,53.562983,10.928970336914062,1.5599820613861084,14.878606369789887,False,0.0015599820613861083,0.014878606369789887,660.0,500,85.31837463378906,11.469283103942871,0.9514999389648438,74.44180297851562,7.798625946044922,0.054103050380945206,0.15539363026618958,-89.99999237060547,0.0,-0.002568150870501995,-0.0037841792218387127,2.676038093341049e-06
85,1.8600000143051147,86,walker.pedestrian.0004,vehicle.nissan.patrol_2021,53.56298,10.690589904785156,1.5599820613861084,14.87860564165013,False,0.0015599820613861083,0.01487860564165013,650.0,500,85.31837463378906,11.444323539733887,0.9514999389648438,74.67985534667969,7.7986063957214355,0.05377395451068878,0.15539363026618958,-89.99999237060547,0.0,-0.002568150870501995,-0.0037841792218387127,2.676038093341049e-06
86,1.8600000143051147,87,walker.pedestrian.0004,vehicle.nissan.patrol_2021,53.562978,10.452239990234375,1.5599820613861084,14.878605033474424,False,0.0015599820613861083,0.014878605033474424,640.0,500,85.31837463378906,11.419363975524902,0.9514999389648438,74.91790008544922,7.798586845397949,0.05344695970416069,0.15539363026618958,-89.99999237060547,0.0,-0.0023837359622120857,-0.0037536618765443563,0.0
87,1.8600000143051147,88,walker.pedestrian.0004,vehicle.nissan.patrol_2021,53.562976,10.213859558105469,1.5599820613861084,14.878604322578669,False,0.0015599820613861083,0.014878604322578669,620.0,500,85.31837463378906,11.394404411315918,0.9514999389648438,75.15595245361328,7.798567295074463,0.053122710436582565,0.15539363026618958,-89.99999237060547,0.0,-0.0023837359622120857,-0.0037536618765443563,0.0
88,1.8600000143051147,89,walker.pedestrian.0004,vehicle.nissan.patrol_2021,53.562557,9.975494384765625,1.5599820613861084,14.878488120751962,False,0.0015599820613861083,0.014878488120751963,610.0,500,85.31837463378906,11.369443893432617,0.9514999389648438,75.39399719238281,7.798617839813232,0.05280059576034546,0.15539363026618958,-89.99999237060547,0.0,-0.0021993208210915327,-0.0012207030085846782,-0.0010375975398346782
89,1.8600000143051147,90,walker.pedestrian.0004,vehicle.nissan.patrol_2021,53.56288,9.737129211425781,1.5599820613861084,14.878577675497441,False,0.0015599820613861083,0.014878577675497441,590.0,500,85.31837463378906,11.344484329223633,0.9514999389648438,75.63204193115234,7.798622131347656,0.05248134583234787,0.15539363026618958,-89.99999237060547,0.0,-0.0021105282939970493,0.004773493390530348,-0.0033874509390443563
90,1.8600000143051147,91,walker.pedestrian.0004,vehicle.nissan.patrol_2021,53.56293,9.498756408691406,1.5599820613861084,14.878591665448576,False,0.0015599820613861083,0.014878591665448576,580.0,500,85.31837463378906,11.319524765014648,0.9514999389648438,75.8700942993164,7.798638343811035,0.05216449499130249,0.15539363026618958,-89.99999237060547,0.0,-0.0020490565802901983,0.012033549137413502,-0.005981444846838713
91,1.8600000143051147,92,walker.pedestrian.0004,vehicle.nissan.patrol_2021,53.56294,9.260391235351562,1.5599820613861084,14.878594558706313,False,0.0015599820613861083,0.014878594558706312,560.0,500,85.31837463378906,11.294565200805664,0.9514999389648438,76.10813903808594,7.798674583435059,0.051849935203790665,0.15539363026618958,-89.99999237060547,0.0,-0.0019875848665833473,0.02032308466732502,-0.008697508834302425
92,1.8600000143051147,93,walker.pedestrian.0004,vehicle.nissan.patrol_2021,53.562945,9.022018432617188,1.5599820613861084,14.878595890767752,False,0.0015599820613861083,0.014878595890767753,550.0,500,85.31837463378906,11.26960563659668,0.9514999389648438,76.34619140625,7.7987380027771,0.05153762549161911,0.15539363026618958,-89.99999237060547,0.0,-0.00191928306594491,0.02944408729672432,-0.011413571424782276
93,1.8600000143051147,94,walker.pedestrian.0004,vehicle.nissan.patrol_2021,53.562948,8.783660888671875,1.5599820613861084,14.878596679777335,False,0.0015599820613861083,0.014878596679777334,530.0,500,85.31837463378906,11.244646072387695,0.9514999389648438,76.58423614501953,7.798832416534424,0.05122760683298111,0.15539363026618958,-89.99999237060547,0.0,-0.001857811352238059,0.03920973092317581,-0.014068603515625
94,1.8600000143051147,95,walker.pedestrian.0004,vehicle.nissan.patrol_2021,53.562953,8.545280456542969,1.5599820613861084,14.878597934837646,False,0.0015599820613861083,0.014878597934837647,520.0,500,85.31837463378906,11.219685554504395,0.9514999389648438,76.82228088378906,7.798959255218506,0.0509197972714901,0.15539363026618958,-89.99999237060547,0.0,-0.0018031698418781161,0.049445055425167084,-0.01654052734375
95,1.8600000143051147,96,walker.pedestrian.0004,vehicle.nissan.patrol_2021,53.562952,8.306915283203125,1.5599820613861084,14.87859776830513,False,0.0015599820613861083,0.01487859776830513,510.0,500,85.31837463378906,11.19472599029541,0.9514999389648438,77.06033325195312,7.799123287200928,0.05061446875333786,0.15539363026618958,-89.99999237060547,0.0,-0.0017690189415588975,0.05998826026916504,-0.018798828125
96,1.8600000143051147,97,walker.pedestrian.0004,vehicle.nissan.patrol_2021,53.56295,8.068550109863281,1.5599820613861084,14.878597172538273,False,0.0015599820613861083,0.014878597172538272,490.0,500,85.31837463378906,11.169766426086426,0.9514999389648438,77.29837799072266,7.799324989318848,0.0503108948469162,0.15539363026618958,-89.99999237060547,0.0,-0.0017075472278520465,0.0706908330321312,-0.020782470703125
97,1.8600000143051147,98,walker.pedestrian.0004,vehicle.nissan.patrol_2021,53.258453,7.831504821777344,1.5599820613861084,14.794014591622934,False,0.0015599820613861083,0.014794014591622934,480.0,500,85.31837463378906,11.144806861877441,0.9514999389648438,77.53509521484375,7.799622058868408,0.05000942200422287,0.15539363026618958,-89.99999237060547,0.0,-0.0016187547007575631,0.08359809219837189,-0.02337646484375
98,1.8600000143051147,99,walker.pedestrian.0004,vehicle.nissan.patrol_2021,52.949292,7.595855712890625,1.5599820613861084,14.708136670438817,False,0.0015599820613861083,0.014708136670438817,470.0,500,85.31837463378906,11.119847297668457,0.9514999389648438,77.77041625976562,7.799961566925049,0.049709662795066833,0.15539363026618958,-89.99999237060547,0.0,-0.001495811389759183,0.101009301841259,-0.02743530087172985
99,1.8600000143051147,100,walker.pedestrian.0004,vehicle.nissan.patrol_2021,52.640173,7.361549377441406,1.5599820613861084,14.62227036283591,False,0.0015599820613861083,0.014622270362835909,450.0,500,85.31837463378906,11.094887733459473,0.9514999389648438,78.00439453125,7.800347328186035,0.049412116408348083,0.15539363026618958,-89.99999237060547,0.0,-0.00131139624863863,0.12248996645212173,-0.032562255859375
100,1.8600000143051147,101,walker.pedestrian.0004,vehicle.nissan.patrol_2021,52.330981,7.128631591796875,1.5599820613861084,14.53638348224929,False,0.0015599820613861083,0.01453638348224929,440.0,500,85.31837463378906,11.069928169250488,0.9514999389648438,78.23698425292969,7.8007965087890625,0.04911670461297035,0.15539363026618958,-89.99999237060547,0.0,-0.001072339597158134,0.1476299911737442,-0.0385436974465847
101,1.8600000143051147,102,walker.pedestrian.0004,vehicle.nissan.patrol_2021,52.021864,6.897087097167969,1.5599820613861084,14.45051780669384,False,0.0015599820613861083,0.01445051780669384,430.0,500,85.31837463378906,11.044967651367188,0.9514999389648438,78.46820831298828,7.801322937011719,0.04882388934493065,0.15539363026618958,-89.99999237060547,0.0,-0.0008264528587460518,0.17605499923229218,-0.04510498046875
102,1.8600000143051147,103,walker.pedestrian.0004,vehicle.nissan.patrol_2021,51.712655,6.666908264160156,1.5599820613861084,14.364626455599879,False,0.0015599820613861083,0.01436462645559988,420.0,500,85.31837463378906,11.020008087158203,0.9514999389648438,78.69805145263672,7.801941394805908,0.04853374511003494,0.15539363026618958,-89.99999237060547,0.0,-0.0005532453069463372,0.20742402970790863,-0.0519714318215847
103,1.8600000143051147,104,walker.pedestrian.0004,vehicle.nissan.patrol_2021,51.40347,6.438133239746094,1.5599820613861084,14.278741657024865,False,0.0015599820613861083,0.014278741657024864,410.0,500,85.31837463378906,10.995048522949219,0.9514999389648438,78.9264907836914,7.8026604652404785,0.04824630543589592,0.15539363026618958,-89.99999237060547,0.0,-0.0002458867966197431,0.24142616987228394,-0.0590209886431694
104,1.8600000143051147,105,walker.pedestrian.0004,vehicle.nissan.patrol_2021,51.094345,6.2106781005859375,1.5599820613861084,14.192873634427686,False,0.0015599820613861083,0.014192873634427686,390.0,500,85.31837463378906,10.970088958740234,0.9514999389648438,79.15361022949219,7.80349063873291,0.0479619987308979,0.15539363026618958,-89.99999237060547,0.0,6.830188794992864e-05,0.2777782678604126,-0.0660705417394638
105,1.8600000143051147,106,walker.pedestrian.0004,vehicle.nissan.patrol_2021,50.785153,5.9846343994140625,1.5599820613861084,14.106986821371615,False,0.0015599820613861083,0.014106986821371615,380.0,500,85.31837463378906,10.94512939453125,0.9514999389648438,79.37931823730469,7.804440021514893,0.047680243849754333,0.15539363026618958,-89.99999237060547,0.0,0.0003824905725196004,0.3162232041358948,-0.0729980394244194
106,1.8600000143051147,107,walker.pedestrian.0004,vehicle.nissan.patrol_2021,50.476035,5.759941101074219,1.5599820613861084,14.021120880306702,False,0.0015599820613861083,0.014021120880306702,370.0,500,85.31837463378906,10.920169830322266,0.9514999389648438,79.60367584228516,7.805516719818115,0.04740150272846222,0.15539363026618958,-89.99999237060547,0.0,0.0007035094313323498,0.3565264642238617,-0.0797119066119194
107,1.8600000143051147,108,walker.pedestrian.0004,vehicle.nissan.patrol_2021,50.166813,5.53662109375,1.5599820613861084,13.935225733544666,False,0.0015599820613861083,0.013935225733544667,360.0,500,85.31837463378906,10.895209312438965,0.9514999389648438,79.82664489746094,7.806726455688477,0.04712589085102081,0.15539363026618958,-89.99999237060547,0.0,0.001017698086798191,0.3984757661819458,-0.0860900804400444
108,1.8600000143051147,109,walker.pedestrian.0004,vehicle.nissan.patrol_2021,49.85762,5.3147125244140625,1.5599820613861084,13.84933895722995,False,0.0015599820613861083,0.013849338957229949,340.0,500,85.31837463378906,10.87024974822998,0.9514999389648438,80.0482177734375,7.808075428009033,0.04685310274362564,0.15539363026618958,-89.99999237060547,0.0,0.001325056655332446,0.44187796115875244,-0.0921325534582138
109,1.8600000143051147,110,walker.pedestrian.0004,vehicle.nissan.patrol_2021,49.5485,5.0941314697265625,1.5599820613861084,13.763472295031457,False,0.0015599820613861083,0.013763472295031456,330.0,500,85.31837463378906,10.845290184020996,0.9514999389648438,80.2684555053711,7.809566974639893,0.04658302292227745,0.15539363026618958,-89.99999237060547,0.0,0.0016255849041044712,0.48655831813812256,-0.0977783128619194
110,1.8600000143051147,111,walker.pedestrian.0004,vehicle.nissan.patrol_2021,49.239285,4.874946594238281,1.5599820613861084,13.677579232897049,False,0.0015599820613861083,0.01367757923289705,320.0,500,85.31837463378906,10.820330619812012,0.9514999389648438,80.48728942871094,7.811206340789795,0.04631618410348892,0.15539363026618958,-89.99999237060547,0.0,0.0019056226592510939,0.5323567986488342,-0.1029662936925888
111,1.8600000143051147,112,walker.pedestrian.0004,vehicle.nissan.patrol_2021,48.930154,4.6571197509765625,1.5599820613861084,13.59170946965227,False,0.0015599820613861083,0.01359170946965227,310.0,500,85.31837463378906,10.795371055603027,0.9514999389648438,80.70476531982422,7.812995910644531,0.04605182632803917,0.15539363026618958,-89.99999237060547,0.0,0.0021788303274661303,0.5791302919387817,-0.1077270582318306
112,1.8600000143051147,113,walker.pedestrian.0004,vehicle.nissan.patrol_2021,48.620956,4.440666198730469,1.5599820613861084,13.50582111465521,False,0.0015599820613861083,0.01350582111465521,290.0,500,85.31837463378906,10.770411491394043,0.9514999389648438,80.92086029052734,7.814938068389893,0.045790061354637146,0.15539363026618958,-89.99999237060547,0.0,0.0024315472692251205,0.6267485618591309,-0.11206051707267761
113,1.8600000143051147,114,walker.pedestrian.0004,vehicle.nissan.patrol_2021,48.311753,4.225624084472656,1.5599820613861084,13.419931309256414,False,0.0015599820613861083,0.013419931309256415,280.0,500,85.31837463378906,10.745450973510742,0.9514999389648438,81.13555145263672,7.81703519821167,0.04553112015128136,0.15539363026618958,-89.99999237060547,0.0,0.0026706038042902946,0.6750931739807129,-0.1159362643957138
114,1.8600000143051147,115,walker.pedestrian.0004,vehicle.nissan.patrol_2021,48.002623,4.0118865966796875,1.5599820613861084,13.334061911131466,False,0.0015599820613861083,0.013334061911131465,270.0,500,85.31837463378906,10.720491409301758,0.9514999389648438,81.34892272949219,7.819289207458496,0.045274581760168076,0.15539363026618958,-89.99999237060547,0.0,0.00288233975879848,0.7240577340126038,-0.11938473582267761
115,1.8600000143051147,116,walker.pedestrian.0004,vehicle.nissan.patrol_2021,47.693418,3.7995529174804688,1.5599820613861084,13.248171793650078,False,0.0015599820613861083,0.013248171793650078,260.0,500,85.31837463378906,10.695531845092773,0.9514999389648438,81.56089782714844,7.821699619293213,0.045020636171102524,0.15539363026618958,-89.99999237060547,0.0,0.0030804150737822056,0.7735453844070435,-0.1224059984087944
116,1.8600000143051147,117,walker.pedestrian.0004,vehicle.nissan.patrol_2021,47.384279,3.5885543823242188,1.5599820613861084,13.162299853506717,False,0.0015599820613861083,0.013162299853506717,240.0,500,85.31837463378906,10.670572280883789,0.9514999389648438,81.77153015136719,7.824267387390137,0.04476913437247276,0.15539363026618958,-89.99999237060547,0.0,0.0032511698082089424,0.8234695196151733,-0.1250610053539276
117,1.8600000143051147,118,walker.pedestrian.0004,vehicle.nissan.patrol_2021,47.075088,3.3789749145507812,1.5599820613861084,13.076413464680762,False,0.0015599820613861083,0.013076413464680761,230.0,500,85.31837463378906,10.645612716674805,0.9514999389648438,81.98075103759766,7.826992511749268,0.044519614428281784,0.15539363026618958,-89.99999237060547,0.0,0.003408264135941863,0.8737505674362183,-0.1273803561925888
118,1.8600000143051147,119,walker.pedestrian.0004,vehicle.nissan.patrol_2021,46.765886,3.1707763671875,1.5599820613861084,12.990523806772236,False,0.0015599820613861083,0.012990523806772236,220.0,500,85.31837463378906,10.62065315246582,0.9514999389648438,82.1885757446289,7.829875469207764,0.04427246004343033,0.15539363026618958,-89.99999237060547,0.0,0.003538037883117795,0.924318790435791,-0.12933349609375
119,1.8600000143051147,120,walker.pedestrian.0004,vehicle.nissan.patrol_2021,46.456749,2.9639892578125,1.5599820613861084,12.904652526319886,False,0.0015599820613861083,0.012904652526319886,200.0,500,85.31837463378906,10.595693588256836,0.9514999389648438,82.39498901367188,7.83291482925415,0.044027481228113174,0.15539363026618958,-89.99999237060547,0.0,0.003654150990769267,0.975109875202179,-0.1309814453125
120,1.8600000143051147,121,walker.pedestrian.0004,vehicle.nissan.patrol_2021,46.14755,2.7586135864257812,1.5599820613861084,12.818764023680181,True,0.0015599820613861083,0.012818764023680181,190.0,500,85.31837463378906,10.570733070373535,0.9514999389648438,82.59999084472656,7.836110591888428,0.0437844842672348,0.15539363026618958,-89.99999237060547,0.0,0.0037497736047953367,1.0260655879974365,-0.1323852390050888
121,1.8600000143051147,122,walker.pedestrian.0004,vehicle.nissan.patrol_2021,45.83833,2.554473876953125,1.5599820613861084,12.732869401129221,True,0.0015599820613861083,0.012732869401129221,180.0,500,85.31837463378906,10.54577350616455,0.9514999389648438,82.80374908447266,7.839460372924805,0.04354354739189148,0.15539363026618958,-89.99999237060547,0.0,0.00383173581212759,1.0771336555480957,-0.133514404296875
122,1.8600000143051147,123,walker.pedestrian.0004,vehicle.nissan.patrol_2021,45.52921,2.3517532348632812,1.5599820613861084,12.647002647422662,True,0.0015599820613861083,0.012647002647422662,170.0,500,85.31837463378906,10.520813941955566,0.9514999389648438,83.006103515625,7.842963218688965,0.043304212391376495,0.15539363026618958,-89.99999237060547,0.0,0.003886377438902855,1.1282687187194824,-0.1344299167394638
123,1.8600000143051147,124,walker.pedestrian.0004,vehicle.nissan.patrol_2021,45.219999,2.150421142578125,1.5599820613861084,12.561110954270125,True,0.0015599820613861083,0.012561110954270125,150.0,500,85.31837463378906,10.495854377746582,0.9514999389648438,83.20704650878906,7.846617221832275,0.04306648299098015,0.15539363026618958,-89.99999237060547,0.0,0.00393418874591589,1.1794284582138062,-0.1351623237133026
124,1.8600000143051147,125,walker.pedestrian.0004,vehicle.nissan.patrol_2021,44.910798,1.9505081176757812,1.5599820613861084,12.47522159866024,True,0.0015599820613861083,0.012475221598660241,140.0,500,85.31837463378906,10.470894813537598,0.9514999389648438,83.40657806396484,7.85042142868042,0.0428306944668293,0.15539363026618958,-89.99999237060547,0.0,0.003968339879065752,1.2305748462677002,-0.135711669921875
125,1.8600000143051147,126,walker.pedestrian.0004,vehicle.nissan.patrol_2021,44.601658,1.751983642578125,1.5599820613861084,12.38934944829615,True,0.0015599820613861083,0.01238934944829615,130.0,500,85.31837463378906,10.445935249328613,0.9514999389648438,83.6047134399414,7.854372978210449,0.042596396058797836,0.15539363026618958,-89.99999237060547,0.0,0.0039820000529289246,1.2816729545593262,-0.1361084133386612
126,1.8600000143051147,127,walker.pedestrian.0004,vehicle.nissan.patrol_2021,44.292469,1.5547103881835938,1.5599820613861084,12.303463612800131,True,0.0015599820613861083,0.01230346361280013,110.0,500,85.31837463378906,10.420974731445312,0.9514999389648438,83.80159759521484,7.858470916748047,0.04236358404159546,0.15539363026618958,-89.99999237060547,0.0,0.0039888303726911545,1.332693338394165,-0.1364135593175888
127,1.8600000143051147,128,walker.pedestrian.0004,vehicle.nissan.patrol_2021,43.98326,1.3588333129882812,1.5599820613861084,12.217572281813084,True,0.0015599820613861083,0.012217572281813084,100.0,500,85.31837463378906,10.396015167236328,0.9514999389648438,83.99707794189453,7.862712860107422,0.0421324148774147,0.15539363026618958,-89.99999237060547,0.0,0.0039888303726911545,1.383609652519226,-0.1365966647863388
128,1.8600000143051147,129,walker.pedestrian.0004,vehicle.nissan.patrol_2021,43.674133,1.16436767578125,1.5599820613861084,12.131703682387096,True,0.0015599820613861083,0.012131703682387095,90.0,500,85.31837463378906,10.371055603027344,0.9514999389648438,84.19114685058594,7.867095947265625,0.041902732104063034,0.15539363026618958,-89.99999237060547,0.0,0.003975169733166695,1.4343950748443604,-0.136688232421875
129,1.8600000143051147,130,walker.pedestrian.0004,vehicle.nissan.patrol_2021,43.364936,0.9713058471679688,1.5599820613861084,12.045815454372875,True,0.0015599820613861083,0.012045815454372874,70.0,500,85.31837463378906,10.34609603881836,0.9514999389648438,84.38381958007812,7.871615886688232,0.041674308478832245,0.15539363026618958,-89.99999237060547,0.0,0.003954679239541292,1.485028624534607,-0.1367187350988388
130,1.8600000143051147,131,walker.pedestrian.0004,vehicle.nissan.patrol_2021,43.055717,0.7796554565429688,1.5599820613861084,11.959921524280995,True,0.0015599820613861083,0.011959921524280995,60.0,500,85.31837463378906,10.321136474609375,0.9514999389648438,84.5750732421875,7.876271724700928,0.04144733399152756,0.15539363026618958,-89.99999237060547,0.0,0.00392735842615366,1.53549063205719,-0.1366882175207138
131,1.8600000143051147,132,walker.pedestrian.0004,vehicle.nissan.patrol_2021,42.746584,0.5893936157226562,1.5599820613861084,11.874051058574409,True,0.0015599820613861083,0.01187405105857441,40.0,500,85.31837463378906,10.29617691040039,0.9514999389648438,84.76493072509766,7.881060600280762,0.04122146591544151,0.15539363026618958,-89.99999237060547,0.0,0.003900037845596671,1.5857634544372559,-0.136627197265625
132,1.8600000143051147,133,walker.pedestrian.0004,vehicle.nissan.patrol_2021,42.437386,0.40038299560546875,1.5599820613861084,11.788162695927477,True,0.0015599820613861083,0.011788162695927477,30.0,500,85.31837463378906,10.27121639251709,0.9514999389648438,84.95353698730469,7.885980129241943,0.04099693149328232,0.15539363026618958,-89.99999237060547,0.0,0.0038658869452774525,1.6358305215835571,-0.1365051418542862
133,1.8600000143051147,134,walker.pedestrian.0004,vehicle.nissan.patrol_2021,42.128211,0.21277618408203125,1.5599820613861084,11.70228082378675,True,0.0015599820613861083,0.011702280823786751,20.0,500,85.31837463378906,10.246256828308105,0.9514999389648438,85.14073181152344,7.891026020050049,0.04077373445034027,0.15539363026618958,-89.99999237060547,0.0,0.00383173581212759,1.68567955493927,-0.1363830417394638
134,1.8600000143051147,135,walker.pedestrian.0004,vehicle.nissan.patrol_2021,41.819048,0.02657318115234375,1.5599820613861084,11.61640225108808,True,0.0015599820613861083,0.01161640225108808,0.0,500,85.31837463378906,10.221297264099121,0.9514999389648438,85.32652282714844,7.896195888519287,0.04055168107151985,0.15539363026618958,-89.99999237060547,0.0,0.0037907548248767853,1.7352964878082275,-0.136260986328125
135,1.8600000143051147,136,walker.pedestrian.0004,vehicle.nissan.patrol_2021,41.509837,-0.15821075439453125,1.5599820613861084,11.530510389186869,True,0.0015599820613861083,0.01153051038918687,-10.0,500,85.31837463378906,10.196337699890137,0.9514999389648438,85.51091003417969,7.901487350463867,0.04033103957772255,0.15539363026618958,-89.99999237060547,0.0,0.0037566039245575666,1.784669280052185,-0.1361083984375
136,1.8600000143051147,137,walker.pedestrian.0004,vehicle.nissan.patrol_2021,41.200636,-0.34161376953125,1.5599820613861084,11.444621079761466,True,0.0015599820613861083,0.011444621079761467,-30.0,500,85.31837463378906,10.171378135681152,0.9514999389648438,85.69388580322266,7.90689754486084,0.04011150449514389,0.15539363026618958,-89.99999237060547,0.0,0.003715622704476118,1.8337879180908203,-0.1359557956457138
137,1.8600000143051147,138,walker.pedestrian.0004,vehicle.nissan.patrol_2021,40.891497,-0.5237350463867188,1.5599820613861084,11.358749214533315,True,0.0015599820613861083,0.011358749214533314,-40.0,500,85.31837463378906,10.146418571472168,0.9514999389648438,85.87560272216797,7.912422180175781,0.03989311307668686,0.15539363026618958,-89.99999237060547,0.0,0.0036746414843946695,1.8826440572738647,-0.13580322265625
138,1.8600000143051147,139,walker.pedestrian.0004,vehicle.nissan.patrol_2021,40.582317,-0.7044754028320312,1.5599820613861084,11.272865886205839,True,0.0015599820613861083,0.01127286588620584,-50.0,500,85.31837463378906,10.121458053588867,0.9514999389648438,86.05592346191406,7.9180588722229,0.039675939828157425,0.15539363026618958,-89.99999237060547,0.0,0.003640490584075451,1.9312289953231812,-0.1356811225414276
139,1.8600000143051147,140,walker.pedestrian.0004,vehicle.nissan.patrol_2021,40.273098,-0.883819580078125,1.5599820613861084,11.18697168966309,True,0.0015599820613861083,0.011186971689663091,-70.0,500,85.31837463378906,10.096498489379883,0.9514999389648438,86.23484802246094,7.923805236816406,0.03945983946323395,0.15539363026618958,-89.99999237060547,0.0,0.0036063396837562323,1.9795374870300293,-0.1355285495519638
140,1.8600000143051147,141,walker.pedestrian.0004,vehicle.nissan.patrol_2021,39.963959,-1.0617523193359375,1.5599820613861084,11.101099669387924,True,0.0015599820613861083,0.011101099669387925,-80.0,500,85.31837463378906,10.071538925170898,0.9514999389648438,86.41236114501953,7.929656982421875,0.0392448790371418,0.15539363026618958,-89.99999237060547,0.0,0.0035721887834370136,2.027562141418457,-0.135406494140625
141,1.8600000143051147,142,walker.pedestrian.0004,vehicle.nissan.patrol_2021,39.654757,-1.23828125,1.5599820613861084,11.015210408942885,True,0.0015599820613861083,0.011015210408942884,-100.0,500,85.31837463378906,10.046579360961914,0.9514999389648438,86.58846282958984,7.935610771179199,0.03903144598007202,0.15539363026618958,-89.99999237060547,0.0,0.003538037883117795,2.0752944946289062,-0.13531494140625
