frame,ped_height,sim_time,walker,ego,e_veloc,distance,walker_vel_ms,ego_vel_ms,ttc_less_than_200,walker_vel_mms,ego_vel_mms,TCC,TCC_threshold,w_location_x,w_location_y,w_location_z,e_location_x,e_location_y,e_location_z,w_rotation_pitch,w_rotation_yaw,w_rotation_roll,e_rotation_pitch,e_rotation_yaw,e_rotation_roll
0,1.8600000143051147,1,walker.pedestrian.0004,vehicle.nissan.patrol_2021,60.673783,20.364856719970703,0.0,16.8538286166374,False,0.0,0.016853828616637402,1210.0,500,73.97095489501953,13.049999237060547,1.1038998365402222,53.67997741699219,7.800005912780762,0.09769313782453537,0.15539363026618958,-89.99999237060547,0.0,-0.04419132322072983,0.00023650482762604952,-9.1552734375e-05
1,1.8600000143051147,2,walker.pedestrian.0004,vehicle.nissan.patrol_2021,60.043266,20.098217010498047,0.0406646654009819,16.678685122212613,False,4.06646654009819e-05,0.016678685122212614,1200.0,500,73.97095489501953,13.049348831176758,1.1038998365402222,53.94666290283203,7.800012588500977,0.09697338193655014,0.15539363026618958,-89.99999237060547,0.0,-0.05246267840266228,0.0009636744507588446,-0.00036621090839616954
2,1.8600000143051147,3,walker.pedestrian.0004,vehicle.nissan.patrol_2021,59.840866,19.832210540771484,0.0813293308019638,16.62246277039179,False,8.13293308019638e-05,0.016622462770391793,1190.0,500,73.97095489501953,13.04804801940918,1.1038998365402222,54.21271514892578,7.800020694732666,0.09620918333530426,0.15539363026618958,-89.99999237060547,0.0,-0.05908113345503807,0.002174100838601589,-0.0008239745511673391
3,1.8600000143051147,4,walker.pedestrian.0004,vehicle.nissan.patrol_2021,59.809891,19.566272735595703,0.1219940036535263,16.613858599165848,False,0.0001219940036535263,0.016613858599165848,1170.0,500,73.97095489501953,13.046095848083496,1.1038998365402222,54.47867965698242,7.80003023147583,0.09541729092597961,0.15539363026618958,-89.99999237060547,0.0,-0.06521464139223099,0.0038071032613515854,-0.0013732911320403218
4,1.8600000143051147,5,walker.pedestrian.0004,vehicle.nissan.patrol_2021,59.808659,19.300331115722656,0.1626586616039276,16.61351634316231,False,0.0001626586616039276,0.01661351634316231,1150.0,500,73.97095489501953,13.043493270874023,1.1038998365402222,54.74464416503906,7.800045490264893,0.09460113197565079,0.15539363026618958,-89.99999237060547,0.0,-0.07098615169525146,0.005809337366372347,-0.00201416015625
5,1.8600000143051147,6,walker.pedestrian.0004,vehicle.nissan.patrol_2021,59.80978,19.034374237060547,0.2033233344554901,16.613827821474285,False,0.00020332333445549012,0.016613827821474286,1130.0,500,73.97095489501953,13.040240287780762,1.1038998365402222,55.01061248779297,7.80006742477417,0.09376216679811478,0.15539363026618958,-89.99999237060547,0.0,-0.0763615071773529,0.008130647242069244,-0.0026550290640443563
6,1.8600000143051147,7,walker.pedestrian.0004,vehicle.nissan.patrol_2021,59.809746,18.768390655517578,0.2439880073070526,16.613818352431696,False,0.0002439880073070526,0.016613818352431697,1110.0,500,73.97095489501953,13.036335945129395,1.1038998365402222,55.27659225463867,7.800097465515137,0.09290141612291336,0.15539363026618958,-89.99999237060547,0.0,-0.08129973709583282,0.010720896534621716,-0.0033264157827943563
7,1.8600000143051147,8,walker.pedestrian.0004,vehicle.nissan.patrol_2021,59.809744,18.502403259277344,0.2846526801586151,16.613817834602322,False,0.0002846526801586151,0.01661381783460232,1090.0,500,73.97095489501953,13.031782150268555,1.1038998365402222,55.542572021484375,7.800137042999268,0.09202125668525696,0.15539363026618958,-89.99999237060547,0.0,-0.08575984835624695,0.013530652970075607,-0.003997802268713713
8,1.8600000143051147,9,walker.pedestrian.0004,vehicle.nissan.patrol_2021,59.809816,18.23639678955078,0.3253173232078552,16.613837649611153,False,0.0003253173232078552,0.016613837649611152,1080.0,500,73.97095489501953,13.02657699584961,1.1038998365402222,55.80855941772461,7.8001885414123535,0.09112369269132614,0.15539363026618958,-89.99999237060547,0.0,-0.08978283405303955,0.016511816531419754,-0.004608154762536287
9,1.8600000143051147,10,walker.pedestrian.0004,vehicle.nissan.patrol_2021,59.809892,17.97037124633789,0.3659819960594177,16.613858823985954,False,0.0003659819960594177,0.016613858823985955,1060.0,500,73.97095489501953,13.020721435546875,1.1038998365402222,56.07455062866211,7.80025053024292,0.09021106362342834,0.15539363026618958,-89.99999237060547,0.0,-0.0933481901884079,0.019617948681116104,-0.005157470237463713
10,1.8600000143051147,11,walker.pedestrian.0004,vehicle.nissan.patrol_2021,59.825957,17.704326629638672,0.4066466689109802,16.61832152266628,False,0.00040664666891098024,0.01661832152266628,1040.0,500,73.97095489501953,13.014214515686035,1.1038998365402222,56.3405647277832,7.800326347351074,0.08928432315587997,0.15539363026618958,-89.99999237060547,0.0,-0.09640128165483475,0.02280469238758087,-0.005645751953125
11,1.8600000143051147,12,walker.pedestrian.0004,vehicle.nissan.patrol_2021,59.874677,17.43813705444336,0.4473113417625427,16.631854766440693,False,0.00044731134176254273,0.016631854766440694,1020.0,500,73.97095489501953,13.007058143615723,1.1038998365402222,56.60670471191406,7.800413608551025,0.0883420929312706,0.15539363026618958,-89.99999237060547,0.0,-0.09845034033060074,0.026030760258436203,-0.006042480934411287
12,1.8600000143051147,13,walker.pedestrian.0004,vehicle.nissan.patrol_2021,59.902244,17.171833038330078,0.4879760146141052,16.639512123481808,False,0.0004879760146141052,0.016639512123481807,1000.0,500,73.97095489501953,12.999250411987305,1.1038998365402222,56.87294387817383,7.800516605377197,0.0873854011297226,0.15539363026618958,-89.99999237060547,0.0,-0.09903090447187424,0.02925674058496952,-0.006378173828125
13,1.8600000143051147,14,walker.pedestrian.0004,vehicle.nissan.patrol_2021,59.903862,16.90550994873047,0.5286406874656677,16.63996166574651,False,0.0005286406874656678,0.01663996166574651,980.0,500,73.97095489501953,12.990792274475098,1.1038998365402222,57.13920211791992,7.800631046295166,0.08642089366912842,0.15539363026618958,-89.99999237060547,0.0,-0.09820445626974106,0.032444655895233154,-0.006591796409338713
14,1.8600000143051147,15,walker.pedestrian.0004,vehicle.nissan.patrol_2021,59.903915,16.639163970947266,0.5693053603172302,16.63997645161663,False,0.0005693053603172302,0.01663997645161663,970.0,500,73.97095489501953,12.981682777404785,1.1038998365402222,57.40547180175781,7.80076265335083,0.08545608073472977,0.15539363026618958,-89.99999237060547,0.0,-0.09616222977638245,0.035559773445129395,-0.006744384299963713
15,1.8600000143051147,16,walker.pedestrian.0004,vehicle.nissan.patrol_2021,59.903895,16.372787475585938,0.6099700331687927,16.639970694450156,False,0.0006099700331687927,0.016639970694450158,950.0,500,73.97095489501953,12.971923828125,1.1038998365402222,57.671756744384766,7.800904750823975,0.08449786901473999,0.15539363026618958,-89.99999237060547,0.0,-0.09305449575185776,0.038571249693632126,-0.006774900946766138
16,1.8600000143051147,17,walker.pedestrian.0004,vehicle.nissan.patrol_2021,59.903876,16.106403350830078,0.6506346464157104,16.639965626615844,False,0.0006506346464157104,0.016639965626615842,930.0,500,73.97095489501953,12.96151351928711,1.1038998365402222,57.938045501708984,7.80106258392334,0.08355216681957245,0.15539363026618958,-89.99999237060547,0.0,-0.0890519991517067,0.04145237058401108,-0.006744384765625
17,1.8600000143051147,18,walker.pedestrian.0004,vehicle.nissan.patrol_2021,59.903862,15.840003967285156,0.691299319267273,16.639961575870668,False,0.0006912993192672729,0.01663996157587067,910.0,500,73.97095489501953,12.95045280456543,1.1038998365402222,58.20433807373047,7.801234722137451,0.08262389898300171,0.15539363026618958,-89.99999237060547,0.0,-0.08435282856225967,0.044180307537317276,-0.006622313521802425
18,1.8600000143051147,19,walker.pedestrian.0004,vehicle.nissan.patrol_2021,59.903838,15.573577880859375,0.7319639921188354,16.639955000353492,False,0.0007319639921188354,0.016639955000353493,900.0,500,73.97095489501953,12.938740730285645,1.1038998365402222,58.47064208984375,7.801416873931885,0.08171699196100235,0.15539363026618958,-89.99999237060547,0.0,-0.07906626909971237,0.04673613980412483,-0.006408690940588713
19,1.8600000143051147,20,walker.pedestrian.0004,vehicle.nissan.patrol_2021,59.90382,15.307147979736328,0.772628664970398,16.63994996000037,False,0.000772628664970398,0.01663994996000037,880.0,500,73.97095489501953,12.926379203796387,1.1038998365402222,58.73694610595703,7.801609992980957,0.080835722386837,0.15539363026618958,-89.99999237060547,0.0,-0.0733972117304802,0.04910489544272423,-0.006134033203125
20,1.8600000143051147,21,walker.pedestrian.0004,vehicle.nissan.patrol_2021,59.903801,15.040691375732422,0.8132933378219604,16.639944779215302,False,0.0008132933378219605,0.0166399447792153,860.0,500,73.97095489501953,12.913366317749023,1.1038998365402222,59.00326156616211,7.80181360244751,0.07998260110616684,0.15539363026618958,-89.99999237060547,0.0,-0.06744128465652466,0.05127539485692978,-0.00579833984375
21,1.8600000143051147,22,walker.pedestrian.0004,vehicle.nissan.patrol_2021,59.903776,14.774242401123047,0.853958010673523,16.639937693703946,False,0.000853958010673523,0.016639937693703945,840.0,500,73.97095489501953,12.899703025817871,1.1038998365402222,59.269569396972656,7.802028656005859,0.0791589692234993,0.15539363026618958,-89.99999237060547,0.0,-0.06133509427309036,0.05323995649814606,-0.005401611328125
22,1.8600000143051147,23,walker.pedestrian.0004,vehicle.nissan.patrol_2021,59.903758,14.507770538330078,0.8946226835250854,16.63993269047856,False,0.0008946226835250855,0.01663993269047856,830.0,500,73.97095489501953,12.88538932800293,1.1038998365402222,59.53588104248047,7.802253723144531,0.07836631685495377,0.15539363026618958,-89.99999237060547,0.0,-0.055146943777799606,0.054994020611047745,-0.004943847190588713
23,1.8600000143051147,24,walker.pedestrian.0004,vehicle.nissan.patrol_2021,59.903741,14.241287231445312,0.935287356376648,16.639927944569838,False,0.000935287356376648,0.016639927944569838,810.0,500,73.97095489501953,12.870424270629883,1.1038998365402222,59.80219268798828,7.802490711212158,0.07760566473007202,0.15539363026618958,-89.99999237060547,0.0,-0.04900660365819931,0.0565360002219677,-0.004455565009266138
24,1.8600000143051147,25,walker.pedestrian.0004,vehicle.nissan.patrol_2021,59.903725,13.974807739257812,0.9759520292282104,16.639923571526676,False,0.0009759520292282104,0.016639923571526678,790.0,500,73.97095489501953,12.854808807373047,1.1038998365402222,60.06850051879883,7.802738666534424,0.07687759399414062,0.15539363026618958,-89.99999237060547,0.0,-0.042968716472387314,0.05786702781915665,-0.00396728515625
25,1.8600000143051147,26,walker.pedestrian.0004,vehicle.nissan.patrol_2021,59.903704,13.708309173583984,1.016616702079773,16.639917710807026,False,0.001016616702079773,0.016639917710807025,780.0,500,73.97095489501953,12.838542938232422,1.1038998365402222,60.334808349609375,7.802988529205322,0.07618167996406555,0.15539363026618958,-89.99999237060547,0.0,-0.037108413875103,0.0589904859662056,-0.0034179685171693563
26,1.8600000143051147,27,walker.pedestrian.0004,vehicle.nissan.patrol_2021,59.903684,13.44180679321289,1.0572813749313354,16.639912313070045,False,0.0010572813749313355,0.016639912313070045,760.0,500,73.97095489501953,12.821626663208008,1.1038998365402222,60.60111618041992,7.803249359130859,0.07551749795675278,0.15539363026618958,-89.99999237060547,0.0,-0.03149399906396866,0.05991233512759209,-0.002899169921875
27,1.8600000143051147,28,walker.pedestrian.0004,vehicle.nissan.patrol_2021,59.90366,13.17529296875,1.097946047782898,16.639905501839465,False,0.001097946047782898,0.016639905501839466,740.0,500,73.97095489501953,12.804059982299805,1.1038998365402222,60.86741638183594,7.803511619567871,0.0748840719461441,0.15539363026618958,-89.99999237060547,0.0,-0.02615279331803322,0.06064027547836304,-0.0023498537484556437
28,1.8600000143051147,29,walker.pedestrian.0004,vehicle.nissan.patrol_2021,59.903644,12.90877914428711,1.1386107206344604,16.639901098608718,False,0.0011386107206344605,0.016639901098608717,730.0,500,73.97095489501953,12.785841941833496,1.1038998365402222,61.13372039794922,7.80378532409668,0.07428058236837387,0.15539363026618958,-89.99999237060547,0.0,-0.021173585206270218,0.06118367612361908,-0.0018005372257903218
29,1.8600000143051147,30,walker.pedestrian.0004,vehicle.nissan.patrol_2021,59.903623,12.642257690429688,1.179275393486023,16.63989532435849,False,0.0011792753934860229,0.01663989532435849,710.0,500,73.97095489501953,12.766973495483398,1.1038998365402222,61.4000129699707,7.804059982299805,0.073705293238163,0.15539363026618958,-89.99999237060547,0.0,-0.016570037230849266,0.06155311316251755,-0.0012817383976653218
30,1.8600000143051147,31,walker.pedestrian.0004,vehicle.nissan.patrol_2021,59.903604,12.375720977783203,1.2199400663375854,16.639890045047526,False,0.0012199400663375855,0.016639890045047526,690.0,500,73.97095489501953,12.747454643249512,1.1038998365402222,61.66630554199219,7.804337024688721,0.07315631955862045,0.15539363026618958,-89.99999237060547,0.0,-0.012294339947402477,0.06176021322607994,-0.00079345703125
31,1.8600000143051147,32,walker.pedestrian.0004,vehicle.nissan.patrol_2021,59.903587,12.109188079833984,1.260604739189148,16.639885223941928,False,0.0012606047391891478,0.016639885223941928,680.0,500,73.97095489501953,12.72728443145752,1.1038998365402222,61.93259811401367,7.804614543914795,0.07263267040252686,0.15539363026618958,-89.99999237060547,0.0,-0.008421623148024082,0.061817705631256104,-0.00030517578125
32,1.8600000143051147,33,walker.pedestrian.0004,vehicle.nissan.patrol_2021,59.903571,11.842647552490234,1.301269292831421,16.639880856715784,False,0.0013012692928314209,0.016639880856715784,660.0,500,73.97095489501953,12.706464767456055,1.1038998365402222,62.19887924194336,7.80489444732666,0.07213211059570312,0.15539363026618958,-89.99999237060547,0.0,-0.004945056512951851,0.06173907592892647,0.00013853335985913873
33,1.8600000143051147,34,walker.pedestrian.0004,vehicle.nissan.patrol_2021,59.903557,11.576103210449219,1.3419339656829834,16.639876930289724,False,0.0013419339656829835,0.016639876930289725,640.0,500,73.97095489501953,12.684993743896484,1.1038998365402222,62.46516036987305,7.805174827575684,0.07165294140577316,0.15539363026618958,-89.99999237060547,0.0,-0.001857811352238059,0.06153794750571251,0.0005533788935281336
34,1.8600000143051147,35,walker.pedestrian.0004,vehicle.nissan.patrol_2021,59.903544,11.309558868408203,1.382598638534546,16.63987341210064,False,0.0013825986385345458,0.01663987341210064,630.0,500,73.97095489501953,12.662872314453125,1.1038998365402222,62.7314338684082,7.80545711517334,0.07119342684745789,0.15539363026618958,-89.99999237060547,0.0,0.0008264528587460518,0.06122824177145958,0.0009320733370259404
35,1.8600000143051147,36,walker.pedestrian.0004,vehicle.nissan.patrol_2021,59.903533,11.04299545288086,1.4232633113861084,16.639870276290868,False,0.0014232633113861084,0.016639870276290866,610.0,500,73.97095489501953,12.64009952545166,1.1038998365402222,62.99770736694336,7.8057403564453125,0.07075149565935135,0.15539363026618958,-89.99999237060547,0.0,0.0031487171072512865,0.06082375347614288,0.001272278488613665
36,1.8600000143051147,37,walker.pedestrian.0004,vehicle.nissan.patrol_2021,59.903523,10.776435852050781,1.463927984237671,16.639867482110215,False,0.0014639279842376708,0.016639867482110215,600.0,500,73.97095489501953,12.616677284240723,1.1038998365402222,63.26397705078125,7.806024074554443,0.07032524049282074,0.15539363026618958,-89.99999237060547,0.0,0.005102151073515415,0.06033807992935181,0.0015726318815723062
37,1.8600000143051147,38,walker.pedestrian.0004,vehicle.nissan.patrol_2021,59.903514,10.50986099243164,1.5045926570892334,16.63986501226531,False,0.0015045926570892334,0.01663986501226531,580.0,500,73.97095489501953,12.59260368347168,1.1038998365402222,63.530242919921875,7.806305408477783,0.06991283595561981,0.15539363026618958,-89.99999237060547,0.0,0.0067209056578576565,0.05978449061512947,0.0018324155826121569
38,1.8600000143051147,39,walker.pedestrian.0004,vehicle.nissan.patrol_2021,59.903506,10.243282318115234,1.545257329940796,16.63986283304841,False,0.001545257329940796,0.01663986283304841,560.0,500,73.97095489501953,12.567879676818848,1.1038998365402222,63.7965087890625,7.806581974029541,0.06951263546943665,0.15539363026618958,-89.99999237060547,0.0,0.008018641732633114,0.05917588248848915,0.0020513194613158703
39,1.8600000143051147,40,walker.pedestrian.0004,vehicle.nissan.patrol_2021,59.903506,9.976692199707031,1.5859220027923584,16.639862827466516,False,0.0015859220027923584,0.016639862827466517,550.0,500,73.97095489501953,12.54250431060791,1.1038998365402222,64.0627670288086,7.806859016418457,0.06912296265363693,0.15539363026618958,-89.99999237060547,0.0,0.009015848860144615,0.058524854481220245,0.002229739911854267
40,1.8600000143051147,41,walker.pedestrian.0004,vehicle.nissan.patrol_2021,59.9035,9.710105895996094,1.626586675643921,16.639861158797743,False,0.001626586675643921,0.01663986115879774,530.0,500,73.97095489501953,12.5164794921875,1.1038998365402222,64.32902526855469,7.807136058807373,0.06874244660139084,0.15539363026618958,-89.99999237060547,0.0,0.009733019396662712,0.05784312263131142,0.0023685500491410494
41,1.8600000143051147,42,walker.pedestrian.0004,vehicle.nissan.patrol_2021,59.903488,9.443511962890625,1.6672513484954834,16.63985780294015,False,0.0016672513484954834,0.01663985780294015,520.0,500,73.97095489501953,12.489803314208984,1.1038998365402222,64.59527587890625,7.8074049949646,0.06836936622858047,0.15539363026618958,-89.99999237060547,0.0,0.0101974718272686,0.057141561061143875,0.002469210186973214
42,1.8600000143051147,43,walker.pedestrian.0004,vehicle.nissan.patrol_2021,59.903484,9.176902770996094,1.707916021347046,16.639856549368893,False,0.001707916021347046,0.016639856549368892,500.0,500,73.97095489501953,12.46247673034668,1.1038998365402222,64.86153411865234,7.807673931121826,0.06800250709056854,0.15539363026618958,-89.99999237060547,0.0,0.010436528362333775,0.056430526077747345,0.0025333648081868887
43,1.8600000143051147,44,walker.pedestrian.0004,vehicle.nissan.patrol_2021,59.476738,8.91217041015625,1.719970464706421,16.521316087878137,False,0.0017199704647064208,0.016521316087878136,490.0,500,73.97095489501953,12.434956550598145,1.1038998365402222,65.12590789794922,7.80794095993042,0.06763969361782074,0.15539363026618958,-89.99999237060547,0.0,0.010545811615884304,0.05571974068880081,0.002563255373388529
44,1.8600000143051147,45,walker.pedestrian.0004,vehicle.nissan.patrol_2021,59.043044,8.649391174316406,1.719970464706421,16.400845477041585,False,0.0017199704647064208,0.016400845477041584,480.0,500,73.97095489501953,12.407437324523926,1.1038998365402222,65.3883285522461,7.808201313018799,0.06727992743253708,0.15539363026618958,-89.99999237060547,0.0,0.010579962283372879,0.055013369768857956,0.0025631599128246307
45,1.8600000143051147,46,walker.pedestrian.0004,vehicle.nissan.patrol_2021,58.609082,8.388572692871094,1.719970464706421,16.280300548531212,False,0.0017199704647064208,0.01628030054853121,470.0,500,73.97095489501953,12.379918098449707,1.1038998365402222,65.64879608154297,7.8084564208984375,0.0669231042265892,0.15539363026618958,-89.99999237060547,0.0,0.010532150976359844,0.05431140959262848,0.002538669155910611
46,1.8600000143051147,47,walker.pedestrian.0004,vehicle.nissan.patrol_2021,58.175196,8.129623413085938,1.719970464706421,16.159776665675025,False,0.0017199704647064208,0.016159776665675026,450.0,500,73.97095489501953,12.352398872375488,1.1038998365402222,65.90738677978516,7.808706283569336,0.06656837463378906,0.15539363026618958,-89.99999237060547,0.0,0.01041603833436966,0.05361384153366089,0.0024948420468717813
47,1.8600000143051147,48,walker.pedestrian.0004,vehicle.nissan.patrol_2021,57.741303,7.872627258300781,1.719970464706421,16.039250931443693,False,0.0017199704647064208,0.016039250931443694,440.0,500,73.97095489501953,12.324878692626953,1.100814700126648,66.16402435302734,7.808951377868652,0.06621551513671875,0.15539363026618958,-89.99999237060547,0.0,0.010245283134281635,0.05292066931724548,0.002436267677694559
48,1.8600000143051147,49,walker.pedestrian.0004,vehicle.nissan.patrol_2021,57.307342,7.617584228515625,1.719970464706421,15.918706172041718,False,0.0017199704647064208,0.01591870617204172,430.0,500,73.97095489501953,12.297359466552734,1.0935696363449097,66.41870880126953,7.809192180633545,0.06586429476737976,0.15539363026618958,-89.99999237060547,0.0,0.010019887238740921,0.05223191902041435,0.002366793341934681
49,1.8600000143051147,50,walker.pedestrian.0004,vehicle.nissan.patrol_2021,56.873446,7.3644561767578125,1.719970464706421,15.79817957382803,False,0.0017199704647064208,0.01579817957382803,420.0,500,73.97095489501953,12.269840240478516,1.0814965963363647,66.6714859008789,7.809427261352539,0.06551433354616165,0.15539363026618958,-89.99999237060547,0.0,0.009767170064151287,0.051547545939683914,0.002289863070473075
50,1.8600000143051147,51,walker.pedestrian.0004,vehicle.nissan.patrol_2021,56.439554,7.113243103027344,1.719970464706421,15.677653956463466,False,0.0017199704647064208,0.015677653956463467,410.0,500,73.97095489501953,12.24232006072998,1.0634117126464844,66.9223403930664,7.809658050537109,0.065165214240551,0.15539363026618958,-89.99999237060547,0.0,0.009480302222073078,0.050867605954408646,0.002208341145887971
51,1.8600000143051147,52,walker.pedestrian.0004,vehicle.nissan.patrol_2021,56.005604,6.863983154296875,1.719970464706421,15.557112157013846,False,0.0017199704647064208,0.015557112157013846,400.0,500,73.97095489501953,12.214800834655762,1.0262951850891113,67.1712417602539,7.809885501861572,0.06481735408306122,0.15539363026618958,-89.99999237060547,0.0,0.00917294342070818,0.050192028284072876,0.002124669263139367
52,1.8600000143051147,53,walker.pedestrian.0004,vehicle.nissan.patrol_2021,55.571705,6.616668701171875,1.719970464706421,15.436584678450053,False,0.0017199704647064208,0.015436584678450053,390.0,500,73.97095489501953,12.187281608581543,0.9910287261009216,67.41819763183594,7.8101067543029785,0.06447017192840576,0.15539363026618958,-89.99999237060547,0.0,0.008845094591379166,0.0495208241045475,0.002040823921561241
53,1.8600000143051147,54,walker.pedestrian.0004,vehicle.nissan.patrol_2021,55.137734,6.3712310791015625,1.719970464706421,15.316037196125066,False,0.0017199704647064208,0.015316037196125067,370.0,500,73.97095489501953,12.159761428833008,0.9514999985694885,67.66326904296875,7.810327053070068,0.06412368267774582,0.15539363026618958,-89.99999237060547,0.0,0.008517245762050152,0.04885401949286461,0.0019586605485528708
54,1.8600000143051147,55,walker.pedestrian.0004,vehicle.nissan.patrol_2021,54.703852,6.127754211425781,1.719970464706421,15.195514512975475,False,0.0017199704647064208,0.015195514512975475,360.0,500,73.97095489501953,12.132242202758789,0.9514999985694885,67.90638732910156,7.810538291931152,0.0637778490781784,0.15539363026618958,-89.99999237060547,0.0,0.008189396001398563,0.048191606998443604,0.0018794062780216336
55,1.8600000143051147,56,walker.pedestrian.0004,vehicle.nissan.patrol_2021,54.26995,5.886222839355469,1.719970464706421,15.074986107954075,False,0.0017199704647064208,0.015074986107954075,350.0,500,73.97095489501953,12.10472297668457,0.9514999985694885,68.1475601196289,7.810749530792236,0.06343269348144531,0.15539363026618958,-89.99999237060547,0.0,0.00785471685230732,0.047533582895994186,0.0018041403964161873
56,1.8600000143051147,57,walker.pedestrian.0004,vehicle.nissan.patrol_2021,53.835989,5.6465606689453125,1.719970464706421,14.954441512265616,False,0.0017199704647064208,0.014954441512265616,340.0,500,73.97095489501953,12.077202796936035,0.9514999985694885,68.38685607910156,7.810950756072998,0.06308814883232117,0.15539363026618958,-89.99999237060547,0.0,0.007533698342740536,0.04687994346022606,0.0017335328739136457
57,1.8600000143051147,58,walker.pedestrian.0004,vehicle.nissan.patrol_2021,53.402094,5.408866882324219,1.719970464706421,14.833915025960072,False,0.0017199704647064208,0.014833915025960072,330.0,500,73.97095489501953,12.049683570861816,0.9514999985694885,68.62419128417969,7.811151504516602,0.06274417787790298,0.15539363026618958,-89.99999237060547,0.0,0.007226339541375637,0.04623071476817131,0.001668049837462604
58,1.8600000143051147,59,walker.pedestrian.0004,vehicle.nissan.patrol_2021,52.968137,5.173118591308594,1.719970464706421,14.71337136759924,False,0.0017199704647064208,0.01471337136759924,310.0,500,73.97095489501953,12.022164344787598,0.9514999985694885,68.85958099365234,7.811343193054199,0.06240081787109375,0.15539363026618958,-89.99999237060547,0.0,0.006925811525434256,0.04558591917157173,0.0016080742934718728
59,1.8600000143051147,60,walker.pedestrian.0004,vehicle.nissan.patrol_2021,52.534245,4.939247131347656,1.719970464706421,14.592845832695149,False,0.0017199704647064208,0.014592845832695149,300.0,500,73.97095489501953,11.994644165039062,0.9514999985694885,69.09309387207031,7.811534404754639,0.062058255076408386,0.15539363026618958,-89.99999237060547,0.0,0.006652603857219219,0.04494553431868553,0.0015539987944066525
60,1.8600000143051147,61,walker.pedestrian.0004,vehicle.nissan.patrol_2021,52.100353,4.7073211669921875,1.719970464706421,14.472320283431571,False,0.0017199704647064208,0.014472320283431572,290.0,500,73.97095489501953,11.967124938964844,0.9514999985694885,69.32465362548828,7.811720371246338,0.061716269701719284,0.15539363026618958,-89.99999237060547,0.0,0.006386226508766413,0.0443095788359642,0.0015055768890306354
61,1.8600000143051147,62,walker.pedestrian.0004,vehicle.nissan.patrol_2021,51.666392,4.477348327636719,1.719970464706421,14.351775665488425,False,0.0017199704647064208,0.014351775665488425,280.0,500,73.97095489501953,11.939605712890625,0.9514999985694885,69.55426025390625,7.8119025230407715,0.061375197023153305,0.15539363026618958,-89.99999237060547,0.0,0.006147169973701239,0.043678052723407745,0.0014626241754740477
62,1.8600000143051147,63,walker.pedestrian.0004,vehicle.nissan.patrol_2021,51.23249,4.249259948730469,1.719970464706421,14.231247245755007,False,0.0017199704647064208,0.014231247245755007,270.0,500,73.97095489501953,11.91208553314209,0.9514999985694885,69.78199005126953,7.812082767486572,0.06103500351309776,0.15539363026618958,-89.99999237060547,0.0,0.005928603932261467,0.04305100068449974,0.0014250325039029121
63,1.8600000143051147,64,walker.pedestrian.0004,vehicle.nissan.patrol_2021,50.798533,4.0231170654296875,1.719970464706421,14.110703558747124,False,0.0017199704647064208,0.014110703558747124,250.0,500,73.97095489501953,11.884566307067871,0.9514999985694885,70.00776672363281,7.812254428863525,0.06069580093026161,0.15539363026618958,-89.99999237060547,0.0,0.005730528384447098,0.0424283929169178,0.001392573700286448
64,1.8600000143051147,65,walker.pedestrian.0004,vehicle.nissan.patrol_2021,50.364644,3.7989273071289062,1.719970464706421,13.990178943381714,False,0.0017199704647064208,0.013990178943381714,240.0,500,73.97095489501953,11.857047080993652,0.9514999985694885,70.23159790039062,7.8124260902404785,0.060357701033353806,0.15539363026618958,-89.99999237060547,0.0,0.005552943330258131,0.041810255497694016,0.001364951254799962
65,1.8600000143051147,66,walker.pedestrian.0004,vehicle.nissan.patrol_2021,49.930677,3.576629638671875,1.719970464706421,13.869632383165879,False,0.0017199704647064208,0.013869632383165879,230.0,500,73.97095489501953,11.829526901245117,0.9514999985694885,70.45353698730469,7.812590599060059,0.06002071127295494,0.15539363026618958,-89.99999237060547,0.0,0.005402679555118084,0.04119660332798958,0.001341820228844881
66,1.8600000143051147,67,walker.pedestrian.0004,vehicle.nissan.patrol_2021,49.496781,3.35626220703125,1.719970464706421,13.749105841591135,False,0.0017199704647064208,0.013749105841591135,220.0,500,73.97095489501953,11.802007675170898,0.9514999985694885,70.67353057861328,7.812752723693848,0.059685058891773224,0.15539363026618958,-89.99999237060547,0.0,0.005272905807942152,0.04058746248483658,0.001322781783528626
67,1.8600000143051147,68,walker.pedestrian.0004,vehicle.nissan.patrol_2021,49.062831,3.1378555297851562,1.719970464706421,13.628564035301297,False,0.0017199704647064208,0.013628564035301298,200.0,500,73.97095489501953,11.77448844909668,0.9514999985694885,70.8915786743164,7.812913417816162,0.05935066193342209,0.15539363026618958,-89.99999237060547,0.0,0.00515679270029068,0.039982832968235016,0.001307521597482264
68,1.8600000143051147,69,walker.pedestrian.0004,vehicle.nissan.patrol_2021,48.628928,2.9213714599609375,1.719970464706421,13.508035579442382,True,0.0017199704647064208,0.013508035579442381,190.0,500,73.97095489501953,11.746968269348145,0.9514999985694885,71.10769653320312,7.813065052032471,0.059017714112997055,0.15539363026618958,-89.99999237060547,0.0,0.005067999940365553,0.039382703602313995,0.0012955497950315475
69,1.8600000143051147,70,walker.pedestrian.0004,vehicle.nissan.patrol_2021,48.195032,2.706787109375,1.719970464706421,13.38750902065249,True,0.0017199704647064208,0.013387509020652489,180.0,500,73.97095489501953,11.719449043273926,0.9514999985694885,71.32191467285156,7.813216209411621,0.058686256408691406,0.15539363026618958,-89.99999237060547,0.0,0.004992867819964886,0.038787126541137695,0.0012866371544077992
70,1.8600000143051147,71,walker.pedestrian.0004,vehicle.nissan.patrol_2021,47.761075,2.4941558837890625,1.719970464706421,13.266965297005466,True,0.0017199704647064208,0.013266965297005466,170.0,500,73.97095489501953,11.691929817199707,0.9514999985694885,71.5341796875,7.81336784362793,0.058356285095214844,0.15539363026618958,-89.99999237060547,0.0,0.004938226658850908,0.03819608315825462,0.0012802568962797523
71,1.8600000143051147,72,walker.pedestrian.0004,vehicle.nissan.patrol_2021,47.32719,2.2834625244140625,1.719970464706421,13.14644159577807,True,0.0017199704647064208,0.01314644159577807,150.0,500,73.97095489501953,11.664410591125488,0.9514999985694885,71.74449920654297,7.813509464263916,0.05802791565656662,0.15539363026618958,-89.99999237060547,0.0,0.004904075525701046,0.037609606981277466,0.0012761680409312248
72,1.8600000143051147,73,walker.pedestrian.0004,vehicle.nissan.patrol_2021,46.893229,2.0746688842773438,1.719970464706421,13.025896910559243,True,0.0017199704647064208,0.013025896910559243,140.0,500,73.97095489501953,11.636890411376953,0.9514999985694885,71.95293426513672,7.813651084899902,0.057701338082551956,0.15539363026618958,-89.99999237060547,0.0,0.0048835850320756435,0.03702770918607712,0.0012740674428641796
73,1.8600000143051147,74,walker.pedestrian.0004,vehicle.nissan.patrol_2021,46.459333,1.8678207397460938,1.719970464706421,12.905370343390496,True,0.0017199704647064208,0.012905370343390496,130.0,500,73.97095489501953,11.609371185302734,0.9514999985694885,72.15941619873047,7.813790321350098,0.0573764406144619,0.15539363026618958,-89.99999237060547,0.0,0.004869924392551184,0.036450404673814774,0.001273631234653294
74,1.8600000143051147,75,walker.pedestrian.0004,vehicle.nissan.patrol_2021,46.025372,1.6629257202148438,1.719970464706421,12.784825663337116,True,0.0017199704647064208,0.012784825663337116,110.0,500,73.97095489501953,11.581851959228516,0.9514999985694885,72.36394500732422,7.813921928405762,0.0570533350110054,0.15539363026618958,-89.99999237060547,0.0,0.004876754712313414,0.035877715796232224,0.0012745581334456801
75,1.8600000143051147,76,walker.pedestrian.0004,vehicle.nissan.patrol_2021,45.591473,1.4598922729492188,1.719970464706421,12.66429814397335,True,0.0017199704647064208,0.01266429814397335,100.0,500,73.97095489501953,11.55433177947998,0.9514999985694885,72.56660461425781,7.814053058624268,0.05673202499747276,0.15539363026618958,-89.99999237060547,0.0,0.0048904153518378735,0.035309646278619766,0.00127666094340384
76,1.8600000143051147,77,walker.pedestrian.0004,vehicle.nissan.patrol_2021,45.157509,1.258819580078125,1.719970464706421,12.543752513191796,True,0.0017199704647064208,0.012543752513191796,90.0,500,73.97095489501953,11.526812553405762,0.9514999985694885,72.7673110961914,7.814183235168457,0.05641265586018562,0.15539363026618958,-89.99999237060547,0.0,0.004910905845463276,0.0347461961209774,0.0012795486254617572
77,1.8600000143051147,78,walker.pedestrian.0004,vehicle.nissan.patrol_2021,44.723617,1.0597076416015625,1.719970464706421,12.423226910353685,True,0.0017199704647064208,0.012423226910353686,70.0,500,73.97095489501953,11.499293327331543,0.9514999985694885,72.96605682373047,7.814304828643799,0.05609500780701637,0.15539363026618958,-89.99999237060547,0.0,0.004945056512951851,0.03418742120265961,0.0012831012718379498
78,1.8600000143051147,79,walker.pedestrian.0004,vehicle.nissan.patrol_2021,44.289653,0.8624649047851562,1.719970464706421,12.302681284940109,True,0.0017199704647064208,0.012302681284940109,60.0,500,73.97095489501953,11.471773147583008,0.9514999985694885,73.16292572021484,7.814425945281982,0.05577941611409187,0.15539363026618958,-89.99999237060547,0.0,0.004986037965863943,0.03363329544663429,0.00128706987015903
79,1.8600000143051147,80,walker.pedestrian.0004,vehicle.nissan.patrol_2021,43.855754,0.6671829223632812,1.719970464706421,12.182153783387639,True,0.0017199704647064208,0.012182153783387639,50.0,500,73.97095489501953,11.444253921508789,0.9514999985694885,73.35784912109375,7.814547538757324,0.0554656982421875,0.15539363026618958,-89.99999237060547,0.0,0.005027018953114748,0.03308384120464325,0.0012912771198898554
80,1.8600000143051147,81,walker.pedestrian.0004,vehicle.nissan.patrol_2021,43.42181,0.47383880615234375,1.719970464706421,12.061613894345028,True,0.0017199704647064208,0.012061613894345027,30.0,500,73.97095489501953,11.41673469543457,0.9514999985694885,73.55081939697266,7.81466007232666,0.05515388399362564,0.15539363026618958,-89.99999237060547,0.0,0.005081660579890013,0.03253908455371857,0.0012960191816091537
81,1.8600000143051147,82,walker.pedestrian.0004,vehicle.nissan.patrol_2021,42.987911,0.282379150390625,1.719970464706421,11.941086404221226,True,0.0017199704647064208,0.011941086404221226,20.0,500,73.97095489501953,11.389214515686035,0.9514999985694885,73.74190521240234,7.81477165222168,0.05484401434659958,0.15539363026618958,-89.99999237060547,0.0,0.0051294718869030476,0.03199902921915054,0.0013009057147428393
82,1.8600000143051147,83,walker.pedestrian.0004,vehicle.nissan.patrol_2021,42.55395,0.09287261962890625,1.719970464706421,11.820541762720604,True,0.0017199704647064208,0.011820541762720604,10.0,500,73.97095489501953,11.361695289611816,0.9514999985694885,73.93104553222656,7.814883232116699,0.05453609302639961,0.15539363026618958,-89.99999237060547,0.0,0.005190943367779255,0.03146369010210037,0.0013057816540822387
83,1.8600000143051147,84,walker.pedestrian.0004,vehicle.nissan.patrol_2021,42.120017,-0.09468841552734375,1.719970464706421,11.700004753137252,True,0.0017199704647064208,0.011700004753137252,-10.0,500,73.97095489501953,11.334176063537598,0.9514999985694885,74.11823272705078,7.814986228942871,0.05423019453883171,0.15539363026618958,-89.99999237060547,0.0,0.00524558499455452,0.030933083966374397,0.001310618594288826
84,1.8600000143051147,85,walker.pedestrian.0004,vehicle.nissan.patrol_2021,41.686094,-0.28034210205078125,1.719970464706421,11.579470616820442,True,0.0017199704647064208,0.011579470616820442,-20.0,500,73.97095489501953,11.306655883789062,0.9514999985694885,74.30351257324219,7.815088272094727,0.053926125168800354,0.15539363026618958,-89.99999237060547,0.0,0.005307056475430727,0.030407220125198364,0.001315243891440332
85,1.8600000143051147,86,walker.pedestrian.0004,vehicle.nissan.patrol_2021,41.25213,-0.46407318115234375,1.719970464706421,11.458925043528705,True,0.0017199704647064208,0.011458925043528705,-40.0,500,73.97095489501953,11.279136657714844,0.9514999985694885,74.48686981201172,7.815189838409424,0.05362411215901375,0.15539363026618958,-89.99999237060547,0.0,0.005361698102205992,0.029886098578572273,0.0013196594081819057
86,1.8600000143051147,87,walker.pedestrian.0004,vehicle.nissan.patrol_2021,40.818235,-0.6458587646484375,1.719970464706421,11.338398555839268,True,0.0017199704647064208,0.011338398555839268,-50.0,500,73.97095489501953,11.251617431640625,0.9514999985694885,74.66828155517578,7.815290927886963,0.05332401022315025,0.15539363026618958,-89.99999237060547,0.0,0.005423170048743486,0.029369767755270004,0.0013239395339041948
87,1.8600000143051147,88,walker.pedestrian.0004,vehicle.nissan.patrol_2021,40.384274,-0.8256759643554688,1.719970464706421,11.217853955921177,True,0.0017199704647064208,0.011217853955921177,-60.0,500,73.97095489501953,11.22409725189209,0.9514999985694885,74.84773254394531,7.815382957458496,0.053025778383016586,0.15539363026618958,-89.99999237060547,0.0,0.005477811209857464,0.02885821834206581,0.001328009064309299
88,1.8600000143051147,89,walker.pedestrian.0004,vehicle.nissan.patrol_2021,39.950386,-1.003631591796875,1.719970464706421,11.097329395026808,True,0.0017199704647064208,0.011097329395026808,-80.0,500,73.97095489501953,11.196578025817871,0.9514999985694885,75.02531433105469,7.815474510192871,0.05272941291332245,0.15539363026618958,-89.99999237060547,0.0,0.005532452836632729,0.028351467102766037,0.00133180757984519
89,1.8600000143051147,90,walker.pedestrian.0004,vehicle.nissan.patrol_2021,39.516429,-1.17962646484375,1.719970464706421,10.9767857722948,True,0.0017199704647064208,0.0109767857722948,-90.0,500,73.97095489501953,11.169058799743652,0.9514999985694885,75.20093536376953,7.8155670166015625,0.052434880286455154,0.15539363026618958,-89.99999237060547,0.0,0.005580264143645763,0.02784954570233822,0.0013351731467992067
90,1.8600000143051147,91,walker.pedestrian.0004,vehicle.nissan.patrol_2021,39.082534,-1.3536758422851562,1.719970464706421,10.856259329290072,True,0.0017199704647064208,0.010856259329290073,-110.0,500,73.97095489501953,11.141538619995117,0.9514999985694885,75.3746109008789,7.8156561851501465,0.05214233323931694,0.15539363026618958,-89.99999237060547,0.0,0.005641736090183258,0.02735244110226631,0.0013381917960941792
91,1.8600000143051147,92,walker.pedestrian.0004,vehicle.nissan.patrol_2021,38.648563,-1.5258407592773438,1.719970464706421,10.735711906307492,True,0.0017199704647064208,0.010735711906307491,-120.0,500,73.97095489501953,11.114019393920898,0.9514999985694885,75.54640197753906,7.815737724304199,0.05185149982571602,0.15539363026618958,-89.99999237060547,0.0,0.005689547397196293,0.0268601942807436,0.0013409929815679789
92,1.8600000143051147,93,walker.pedestrian.0004,vehicle.nissan.patrol_2021,38.214596,-1.6960601806640625,1.719970464706421,10.61516545819358,True,0.0017199704647064208,0.01061516545819358,-140.0,500,73.97095489501953,11.08650016784668,0.9514999985694885,75.71624755859375,7.81581974029541,0.05156261473894119,0.15539363026618958,-89.99999237060547,0.0,0.005737358704209328,0.026372801512479782,0.001343517447821796
93,1.8600000143051147,94,walker.pedestrian.0004,vehicle.nissan.patrol_2021,37.780704,-1.8643264770507812,1.719970464706421,10.494639999294728,True,0.0017199704647064208,0.010494639999294729,-150.0,500,73.97095489501953,11.058980941772461,0.9514999985694885,75.88414001464844,7.815901756286621,0.051275596022605896,0.15539363026618958,-89.99999237060547,0.0,0.005771509371697903,0.025890281423926353,0.0013457541354000568
94,1.8600000143051147,95,walker.pedestrian.0004,vehicle.nissan.patrol_2021,37.346744,-2.0307083129882812,1.719970464706421,10.374095481666354,True,0.0017199704647064208,0.010374095481666354,-170.0,500,73.97095489501953,11.031460762023926,0.9514999985694885,76.0501480102539,7.815982341766357,0.05099017918109894,0.15539363026618958,-89.99999237060547,0.0,0.0058193206787109375,0.02541264146566391,0.0013478219043463469
95,1.8600000143051147,96,walker.pedestrian.0004,vehicle.nissan.patrol_2021,36.912845,-2.1951522827148438,1.719970464706421,10.253568137296757,True,0.0017199704647064208,0.010253568137296757,-180.0,500,73.97095489501953,11.003941535949707,0.9514999985694885,76.21421813964844,7.816054344177246,0.05070666968822479,0.15539363026618958,-89.99999237060547,0.0,0.0058534718118608,0.02493990585207939,0.001349861966446042
96,1.8600000143051147,97,walker.pedestrian.0004,vehicle.nissan.patrol_2021,36.478889,-2.357635498046875,1.719970464706421,10.133024593931996,True,0.0017199704647064208,0.010133024593931996,-200.0,500,73.97095489501953,10.976422309875488,0.9514999985694885,76.37632751464844,7.816126346588135,0.05042480304837227,0.15539363026618958,-89.99999237060547,0.0,0.005894452799111605,0.024472082033753395,0.0013516006292775273
97,1.8600000143051147,98,walker.pedestrian.0004,vehicle.nissan.patrol_2021,36.044963,-2.5182418823242188,1.719970464706421,10.012489643391286,True,0.0017199704647064208,0.010012489643391286,-210.0,500,73.97095489501953,10.948902130126953,0.9514999985694885,76.53655242919922,7.81619930267334,0.05014469102025032,0.15539363026618958,-89.99999237060547,0.0,0.005921773612499237,0.024009183049201965,0.0013529371935874224
98,1.8600000143051147,99,walker.pedestrian.0004,vehicle.nissan.patrol_2021,35.611037,-2.6769027709960938,1.719970464706421,9.891954709200101,True,0.0017199704647064208,0.009891954709200101,-230.0,500,73.97095489501953,10.921382904052734,0.9514999985694885,76.69483947753906,7.8162713050842285,0.04986633360385895,0.15539363026618958,-89.99999237060547,0.0,0.005955924745649099,0.023551223799586296,0.001354165724478662
99,1.8600000143051147,100,walker.pedestrian.0004,vehicle.nissan.patrol_2021,35.177108,-2.8336105346679688,1.719970464706421,9.771418829715168,True,0.0017199704647064208,0.009771418829715169,-250.0,500,73.97095489501953,10.893863677978516,0.9514999985694885,76.85116577148438,7.8163371086120605,0.0495896153151989,0.15539363026618958,-89.99999237060547,0.0,0.005983245559036732,0.023098213598132133,0.001355249434709549
100,1.8600000143051147,101,walker.pedestrian.0004,vehicle.nissan.patrol_2021,34.743144,-2.9884185791015625,1.719970464706421,9.650873425692888,True,0.0017199704647064208,0.009650873425692888,-260.0,500,73.97095489501953,10.86634349822998,0.9514999985694885,77.00559997558594,7.816398620605469,0.04931453615427017,0.15539363026618958,-89.99999237060547,0.0,0.006003736052662134,0.022650184109807014,0.0013561744708567858
101,1.8600000143051147,102,walker.pedestrian.0004,vehicle.nissan.patrol_2021,34.309219,-3.14129638671875,1.719970464706421,9.530338526957719,True,0.0017199704647064208,0.009530338526957718,-280.0,500,73.97095489501953,10.838824272155762,0.9514999985694885,77.15809631347656,7.816461086273193,0.0490410216152668,0.15539363026618958,-89.99999237060547,0.0,0.006024226546287537,0.022207139059901237,0.0013567093992605805
102,1.8600000143051147,103,walker.pedestrian.0004,vehicle.nissan.patrol_2021,33.87529,-3.2922210693359375,1.719970464706421,9.409802688288446,True,0.0017199704647064208,0.009409802688288445,-300.0,500,73.97095489501953,10.811305046081543,0.9514999985694885,77.30864715576172,7.81652307510376,0.048769187182188034,0.15539363026618958,-89.99999237060547,0.0,0.006051547359675169,0.021769093349575996,0.0013573168544098735
103,1.8600000143051147,104,walker.pedestrian.0004,vehicle.nissan.patrol_2021,33.441368,-3.4411849975585938,1.719970464706421,9.289268762462179,True,0.0017199704647064208,0.009289268762462178,-310.0,500,73.97095489501953,10.783784866333008,0.9514999985694885,77.45723724365234,7.816585540771484,0.048499107360839844,0.15539363026618958,-89.99999237060547,0.0,0.0060720378533005714,0.021336058154702187,0.001357884844765067
104,1.8600000143051147,105,walker.pedestrian.0004,vehicle.nissan.patrol_2021,33.007401,-3.588287353515625,1.719970464706421,9.168722452655345,True,0.0017199704647064208,0.009168722452655344,-330.0,500,73.97095489501953,10.756265640258789,0.9514999985694885,77.60395812988281,7.816641807556152,0.04823043569922447,0.15539363026618958,-89.99999237060547,0.0,0.006085698027163744,0.020908046513795853,0.0013582523679360747
105,1.8600000143051147,106,walker.pedestrian.0004,vehicle.nissan.patrol_2021,32.573479,-3.7334365844726562,1.719970464706421,9.048188554483541,True,0.0017199704647064208,0.009048188554483541,-350.0,500,73.97095489501953,10.72874641418457,0.9514999985694885,77.74872589111328,7.816694259643555,0.04796333238482475,0.15539363026618958,-89.99999237060547,0.0,0.006099358666688204,0.020485082641243935,0.0013585366541519761
106,1.8600000143051147,107,walker.pedestrian.0004,vehicle.nissan.patrol_2021,32.139553,-3.8766250610351562,1.719970464706421,8.927653719573541,True,0.0017199704647064208,0.008927653719573542,-360.0,500,73.97095489501953,10.701226234436035,0.9514999985694885,77.89153289794922,7.816746711730957,0.04769783094525337,0.15539363026618958,-89.99999237060547,0.0,0.006113018840551376,0.020067160949110985,0.001358692767098546
107,1.8600000143051147,108,walker.pedestrian.0004,vehicle.nissan.patrol_2021,31.705625,-4.0179443359375,1.719970464706421,8.80711793853224,True,0.0017199704647064208,0.00880711793853224,-380.0,500,73.97095489501953,10.673707008361816,0.9514999985694885,78.032470703125,7.816798686981201,0.04743373766541481,0.15539363026618958,-89.99999237060547,0.0,0.006119849160313606,0.01965431123971939,0.0013587616849690676
108,1.8600000143051147,109,walker.pedestrian.0004,vehicle.nissan.patrol_2021,31.271658,-4.157310485839844,1.719970464706421,8.686571685212556,True,0.0017199704647064208,0.008686571685212556,-400.0,500,73.97095489501953,10.646187782287598,0.9514999985694885,78.17145538330078,7.816850185394287,0.04717128723859787,0.15539363026618958,-89.99999237060547,0.0,0.006140339653939009,0.019246554002165794,0.0013586838031187654
109,1.8600000143051147,110,walker.pedestrian.0004,vehicle.nissan.patrol_2021,30.837733,-4.294715881347656,1.719970464706421,8.566036880318235,True,0.0017199704647064208,0.008566036880318234,-420.0,500,73.97095489501953,10.618667602539062,0.9514999985694885,78.30848693847656,7.816903114318848,0.04691028594970703,0.15539363026618958,-89.99999237060547,0.0,0.006147169973701239,0.018843891099095345,0.0013583690160885453
110,1.8600000143051147,111,walker.pedestrian.0004,vehicle.nissan.patrol_2021,30.403808,-4.4302520751953125,1.719970464706421,8.445502095790744,True,0.0017199704647064208,0.008445502095790744,-440.0,500,73.97095489501953,10.591148376464844,0.9514999985694885,78.44364166259766,7.816946983337402,0.04665077105164528,0.15539363026618958,-89.99999237060547,0.0,0.0061540002934634686,0.01844632998108864,0.0013580431696027517
111,1.8600000143051147,112,walker.pedestrian.0004,vehicle.nissan.patrol_2021,29.969851,-4.5638427734375,1.719970464706421,8.324958741068262,True,0.0017199704647064208,0.008324958741068261,-450.0,500,73.97095489501953,10.563629150390625,0.9514999985694885,78.57684326171875,7.816988945007324,0.04639274626970291,0.15539363026618958,-89.99999237060547,0.0,0.006167660467326641,0.018053902313113213,0.001357677043415606
112,1.8600000143051147,113,walker.pedestrian.0004,vehicle.nissan.patrol_2021,29.535919,-4.695472717285156,1.719970464706421,8.204422073069551,True,0.0017199704647064208,0.008204422073069552,-470.0,500,73.97095489501953,10.53610897064209,0.9514999985694885,78.70809173583984,7.817030906677246,0.046136245131492615,0.15539363026618958,-89.99999237060547,0.0,0.006181320641189814,0.01766662485897541,0.0013572092866525054
113,1.8600000143051147,114,walker.pedestrian.0004,vehicle.nissan.patrol_2021,29.101991,-4.825225830078125,1.719970464706421,8.083886373443537,True,0.0017199704647064208,0.008083886373443537,-490.0,500,73.97095489501953,10.508589744567871,0.9514999985694885,78.83746337890625,7.817073345184326,0.045881155878305435,0.15539363026618958,-89.99999237060547,0.0,0.0061881509609520435,0.017284506931900978,0.0013566598063334823
114,1.8600000143051147,115,walker.pedestrian.0004,vehicle.nissan.patrol_2021,28.668028,-4.953041076660156,1.719970464706421,7.963341153551849,True,0.0017199704647064208,0.007963341153551849,-510.0,500,73.97095489501953,10.481070518493652,0.9514999985694885,78.96488952636719,7.817115306854248,0.04562747851014137,0.15539363026618958,-89.99999237060547,0.0,0.0061949812807142735,0.01690755784511566,0.0013560953084379435
115,1.8600000143051147,116,walker.pedestrian.0004,vehicle.nissan.patrol_2021,28.234098,-5.078887939453125,1.719970464706421,7.842805009381496,True,0.0017199704647064208,0.007842805009381495,-530.0,500,73.97095489501953,10.453550338745117,0.9514999985694885,79.0903549194336,7.81715726852417,0.045375287532806396,0.15539363026618958,-89.99999237060547,0.0,0.006208641454577446,0.016535796225070953,0.001355386688373983
116,1.8600000143051147,117,walker.pedestrian.0004,vehicle.nissan.patrol_2021,27.800144,-5.202857971191406,1.719970464706421,7.722262200934547,True,0.0017199704647064208,0.007722262200934547,-550.0,500,73.97095489501953,10.426031112670898,0.9514999985694885,79.21393585205078,7.817197322845459,0.04512443393468857,0.15539363026618958,-89.99999237060547,0.0,0.006215471774339676,0.016169222071766853,0.0013545997207984328
117,1.8600000143051147,118,walker.pedestrian.0004,vehicle.nissan.patrol_2021,27.366216,-5.324882507324219,1.719970464706421,7.601726564592013,True,0.0017199704647064208,0.007601726564592013,-570.0,500,73.97095489501953,10.39851188659668,0.9514999985694885,79.33557891845703,7.817230224609375,0.04487502947449684,0.15539363026618958,-89.99999237060547,0.0,0.006215471774339676,0.015807874500751495,0.001353708328679204
118,1.8600000143051147,119,walker.pedestrian.0004,vehicle.nissan.patrol_2021,26.932284,-5.444953918457031,1.719970464706421,7.481189997927764,True,0.0017199704647064208,0.007481189997927764,-590.0,500,73.97095489501953,10.370992660522461,0.9514999985694885,79.45526885986328,7.817262172698975,0.044627074152231216,0.15539363026618958,-89.99999237060547,0.0,0.006229132413864136,0.015451760962605476,0.0013527077389881015
119,1.8600000143051147,120,walker.pedestrian.0004,vehicle.nissan.patrol_2021,26.498327,-5.563072204589844,1.719970464706421,7.360646284460519,True,0.0017199704647064208,0.00736064628446052,-610.0,500,73.97095489501953,10.343472480773926,0.9514999985694885,79.572998046875,7.817294120788574,0.044380493462085724,0.15539363026618958,-89.99999237060547,0.0,0.006242792587727308,0.015100878663361073,0.0013516322942450643
120,1.8600000143051147,121,walker.pedestrian.0004,vehicle.nissan.patrol_2021,26.0644,-5.679313659667969,1.719970464706421,7.240111174874321,True,0.0017199704647064208,0.007240111174874321,-630.0,500,73.97095489501953,10.315953254699707,0.9514999985694885,79.68885803222656,7.817326545715332,0.04413532093167305,0.15539363026618958,-89.99999237060547,0.0,0.006249622907489538,0.014755260199308395,0.001350422389805317
121,1.8600000143051147,122,walker.pedestrian.0004,vehicle.nissan.patrol_2021,25.630438,-5.793609619140625,1.719970464706421,7.119566075091579,True,0.0017199704647064208,0.007119566075091579,-660.0,500,73.97095489501953,10.288434028625488,0.9514999985694885,79.80276489257812,7.81735897064209,0.043891485780477524,0.15539363026618958,-89.99999237060547,0.0,0.006256452761590481,0.014414913021028042,0.0013491351855918765
122,1.8600000143051147,123,walker.pedestrian.0004,vehicle.nissan.patrol_2021,25.19652,-5.905952453613281,1.719970464706421,6.99903338981434,True,0.0017199704647064208,0.00699903338981434,-680.0,500,73.97095489501953,10.260913848876953,0.9514999985694885,79.91471862792969,7.817390441894531,0.04364902526140213,0.15539363026618958,-89.99999237060547,0.0,0.006270113401114941,0.014079858548939228,0.0013476673047989607
123,1.8600000143051147,124,walker.pedestrian.0004,vehicle.nissan.patrol_2021,24.762553,-6.01641845703125,1.7200086116790771,6.878486893154295,True,0.001720008611679077,0.006878486893154295,-700.0,500,73.97095489501953,10.233393669128418,0.9514999985694885,80.02479553222656,7.817422389984131,0.04340793564915657,0.15539363026618958,-89.99999237060547,0.0,0.0062769437208771706,0.013750096783041954,0.0013462052447721362
124,1.8600000143051147,125,walker.pedestrian.0004,vehicle.nissan.patrol_2021,24.328634,-6.124931335449219,1.7200086116790771,6.757953777685937,True,0.001720008611679077,0.006757953777685937,-720.0,500,73.97095489501953,10.205873489379883,0.9514999985694885,80.13291931152344,7.817452430725098,0.04316825792193413,0.15539363026618958,-89.99999237060547,0.0,0.006290603894740343,0.013425647281110287,0.0013446675147861242
125,1.8600000143051147,126,walker.pedestrian.0004,vehicle.nissan.patrol_2021,23.894701,-6.231483459472656,1.7200086116790771,6.637416859498932,True,0.001720008611679077,0.006637416859498931,-750.0,500,73.97095489501953,10.178353309631348,0.9514999985694885,80.23909759521484,7.81747579574585,0.042929839342832565,0.15539363026618958,-89.99999237060547,0.0,0.006297434214502573,0.013106528669595718,0.0013430051039904356
126,1.8600000143051147,127,walker.pedestrian.0004,vehicle.nissan.patrol_2021,23.460739,-6.3361663818359375,1.7200086116790771,6.516871866449608,True,0.001720008611679077,0.006516871866449608,-770.0,500,73.97095489501953,10.150833129882812,0.9514999985694885,80.34339141845703,7.817498207092285,0.04269275441765785,0.15539363026618958,-89.99999237060547,0.0,0.0063110943883657455,0.012792754918336868,0.0013412570115178823
127,1.8600000143051147,128,walker.pedestrian.0004,vehicle.nissan.patrol_2021,23.026818,-6.43890380859375,1.7200086116790771,6.396338334398901,True,0.001720008611679077,0.006396338334398901,-790.0,500,73.97095489501953,10.123312950134277,0.9514999985694885,80.44573211669922,7.8175201416015625,0.0424569696187973,0.15539363026618958,-89.99999237060547,0.0,0.006324755027890205,0.012484337203204632,0.001339405425824225
128,1.8600000143051147,129,walker.pedestrian.0004,vehicle.nissan.patrol_2021,22.592854,-6.539680480957031,1.7200086116790771,6.275792911927521,True,0.001720008611679077,0.006275792911927521,-820.0,500,73.97095489501953,10.095792770385742,0.9514999985694885,80.54612731933594,7.81754207611084,0.04222248122096062,0.15539363026618958,-89.99999237060547,0.0,0.006338415201753378,0.012181290425360203,0.0013374837581068277
129,1.8600000143051147,130,walker.pedestrian.0004,vehicle.nissan.patrol_2021,22.158936,-6.638587951660156,1.7200086116790771,6.155259912581493,True,0.001720008611679077,0.006155259912581493,-840.0,500,73.97095489501953,10.068273544311523,0.9514999985694885,80.64463806152344,7.817564010620117,0.041989363729953766,0.15539363026618958,-89.99999237060547,0.0,0.006345245521515608,0.011883632279932499,0.0013354349648579955
130,1.8600000143051147,131,walker.pedestrian.0004,vehicle.nissan.patrol_2021,21.724969,-6.735542297363281,1.7200086116790771,6.034713596158085,True,0.001720008611679077,0.006034713596158084,-870.0,500,73.97095489501953,10.040753364562988,0.9514999985694885,80.74120330810547,7.8175859451293945,0.04175762087106705,0.15539363026618958,-89.99999237060547,0.0,0.00635890569537878,0.01159137487411499,0.0013332037487998605
131,1.8600000143051147,132,walker.pedestrian.0004,vehicle.nissan.patrol_2021,21.29104,-6.830543518066406,1.7200086116790771,5.914177793045723,True,0.001720008611679077,0.0059141777930457225,-890.0,500,73.97095489501953,10.013233184814453,0.9514999985694885,80.8358154296875,7.817607879638672,0.04152705892920494,0.15539363026618958,-89.99999237060547,0.0,0.00637256633490324,0.01130453310906887,0.0013308775378391147
132,1.8600000143051147,133,walker.pedestrian.0004,vehicle.nissan.patrol_2021,20.857084,-6.923652648925781,1.7200086116790771,5.793634392844547,True,0.001720008611679077,0.0057936343928445475,-920.0,500,73.97095489501953,9.985713005065918,0.9514999985694885,80.92854309082031,7.817629814147949,0.04129775986075401,0.15539363026618958,-89.99999237060547,0.0,0.006386226508766413,0.011023120023310184,0.0013284117449074984
133,1.8600000143051147,134,walker.pedestrian.0004,vehicle.nissan.patrol_2021,20.423124,-7.01483154296875,1.7200086116790771,5.673090073965131,True,0.001720008611679077,0.005673090073965131,-950.0,500,73.97095489501953,9.958192825317383,0.9514999985694885,81.01932525634766,7.817651271820068,0.04106975346803665,0.15539363026618958,-89.99999237060547,0.0,0.006399886682629585,0.01074715331196785,0.0013258312828838825
134,1.8600000143051147,135,walker.pedestrian.0004,vehicle.nissan.patrol_2021,19.989206,-7.1040496826171875,1.7200086116790771,5.552557232744538,True,0.001720008611679077,0.005552557232744538,-980.0,500,73.97095489501953,9.930672645568848,0.9514999985694885,81.108154296875,7.817673206329346,0.04084300994873047,0.15539363026618958,-89.99999237060547,0.0,0.006406717002391815,0.010476644150912762,0.001323111355304718
135,1.8600000143051147,136,walker.pedestrian.0004,vehicle.nissan.patrol_2021,19.555238,-7.1913299560546875,1.7200086116790771,5.432010605751707,True,0.001720008611679077,0.005432010605751707,-1010.0,500,73.97095489501953,9.903152465820312,0.9514999985694885,81.19503784179688,7.817691326141357,0.0406174473464489,0.15539363026618958,-89.99999237060547,0.0,0.006427207496017218,0.01021156832575798,0.0013202645350247622
136,1.8600000143051147,137,walker.pedestrian.0004,vehicle.nissan.patrol_2021,19.121308,-7.2767181396484375,1.7200086116790771,5.311474508240764,True,0.001720008611679077,0.005311474508240764,-1030.0,500,73.97095489501953,9.875632286071777,0.9514999985694885,81.28003692626953,7.8177056312561035,0.04039325565099716,0.15539363026618958,-89.99999237060547,0.0,0.0064408681355416775,0.009951884858310223,0.0013172526378184557
137,1.8600000143051147,138,walker.pedestrian.0004,vehicle.nissan.patrol_2021,18.68736,-7.360160827636719,1.7200086116790771,5.190933203962239,True,0.001720008611679077,0.0051909332039622395,-1070.0,500,73.97095489501953,9.848112106323242,0.9514999985694885,81.36308288574219,7.817717552185059,0.04017021134495735,0.15539363026618958,-89.99999237060547,0.0,0.00645452830940485,0.009697561152279377,0.0013141395756974816
138,1.8600000143051147,139,walker.pedestrian.0004,vehicle.nissan.patrol_2021,18.253409,-7.441650390625,1.7200086116790771,5.070391473200691,True,0.001720008611679077,0.005070391473200691,-1100.0,500,73.97095489501953,9.820591926574707,0.9514999985694885,81.44417572021484,7.817729473114014,0.039948463439941406,0.15539363026618958,-89.99999237060547,0.0,0.00646818894892931,0.009448586963117123,0.0013108623679727316
139,1.8600000143051147,140,walker.pedestrian.0004,vehicle.nissan.patrol_2021,17.819468,-7.5212554931640625,1.7200086116790771,4.94985215994854,True,0.001720008611679077,0.00494985215994854,-1130.0,500,73.97095489501953,9.793071746826172,0.9514999985694885,81.52339935302734,7.8177409172058105,0.03972850739955902,0.15539363026618958,-89.99999237060547,0.0,0.006481849122792482,0.009204937145113945,0.0013074519811198115
140,1.8600000143051147,141,walker.pedestrian.0004,vehicle.nissan.patrol_2021,17.385521,-7.5989837646484375,1.7200086116790771,4.829311454931434,True,0.001720008611679077,0.004829311454931435,-1160.0,500,73.97095489501953,9.765551567077637,0.9514999985694885,81.6007308959961,7.817752361297607,0.03950824588537216,0.15539363026618958,-89.99999237060547,0.0,0.006495509762316942,0.0089665986597538,0.0013038722099736333
141,1.8600000143051147,142,walker.pedestrian.0004,vehicle.nissan.patrol_2021,16.95158,-7.674690246582031,1.7200086116790771,4.7087722648526835,True,0.001720008611679077,0.004708772264852683,-1190.0,500,73.97095489501953,9.738031387329102,0.9514999985694885,81.67604064941406,7.817764759063721,0.03928932175040245,0.15539363026618958,-89.99999237060547,0.0,0.006502339616417885,0.008733588270843029,0.0013001265469938517
142,1.8600000143051147,143,walker.pedestrian.0004,vehicle.nissan.patrol_2021,16.517631,-7.748527526855469,1.7200086116790771,4.588230752144683,True,0.001720008611679077,0.004588230752144683,-1230.0,500,73.97095489501953,9.710511207580566,0.9514999985694885,81.74948120117188,7.817776203155518,0.03907157853245735,0.15539363026618958,-89.99999237060547,0.0,0.006522830110043287,0.008505912497639656,0.001296200673095882
