frame,ped_height,sim_time,walker,ego,e_veloc,distance,walker_vel_ms,ego_vel_ms,ttc_less_than_200,walker_vel_mms,ego_vel_mms,TCC,TCC_threshold,w_location_x,w_location_y,w_location_z,e_location_x,e_location_y,e_location_z,w_rotation_pitch,w_rotation_yaw,w_rotation_roll,e_rotation_pitch,e_rotation_yaw,e_rotation_roll
0,1.8600000143051147,1,walker.pedestrian.0004,vehicle.nissan.patrol_2021,67.43415,38.29927062988281,0.0,18.73170826311477,False,0.0,0.01873170826311477,2040.0,500,92.15828704833984,13.049999237060547,1.1038999557495117,53.92890167236328,7.800017356872559,0.09767318516969681,0.08241988718509674,-90.0,3.3350566752687882e-09,-0.045133888721466064,0.0006612346624024212,-0.00027465817402116954
1,1.8600000143051147,2,walker.pedestrian.0004,vehicle.nissan.patrol_2021,66.862352,38.00232696533203,0.0786590501666069,18.572875625055588,False,7.86590501666069e-05,0.018572875625055586,2040.0,500,92.15828704833984,13.048741340637207,1.1038999557495117,54.225887298583984,7.800037860870361,0.09693831950426102,0.08241988718509674,-90.0,3.3350566752687882e-09,-0.05480543524026871,0.0027277907356619835,-0.0010681151179596782
2,1.8600000143051147,3,walker.pedestrian.0004,vehicle.nissan.patrol_2021,66.679096,37.7059211730957,0.1573181003332138,18.52197116602085,False,0.0001573181003332138,0.01852197116602085,2020.0,500,92.15828704833984,13.046223640441895,1.1038999557495117,54.52231979370117,7.800060749053955,0.0961465835571289,0.08241988718509674,-90.0,3.3350566752687882e-09,-0.06266015022993088,0.00617552362382412,-0.0023498532827943563
3,1.8600000143051147,4,walker.pedestrian.0004,vehicle.nissan.patrol_2021,66.646831,37.40959167480469,0.2359771430492401,18.51300864781888,False,0.0002359771430492401,0.01851300864781888,2000.0,500,92.15828704833984,13.042448043823242,1.1038999557495117,54.81866455078125,7.800093650817871,0.09531627595424652,0.08241988718509674,-90.0,3.3350566752687882e-09,-0.06976354867219925,0.010840853676199913,-0.003906249301508069
4,1.8600000143051147,5,walker.pedestrian.0004,vehicle.nissan.patrol_2021,66.642674,37.11324691772461,0.3146362006664276,18.51185398026789,False,0.0003146362006664276,0.01851185398026789,1970.0,500,92.15828704833984,13.03741455078125,1.1038999557495117,55.11499786376953,7.800143241882324,0.09445300698280334,0.08241988718509674,-90.0,3.3350566752687882e-09,-0.0763615071773529,0.016578303650021553,-0.005676269065588713
5,1.8600000143051147,6,walker.pedestrian.0004,vehicle.nissan.patrol_2021,66.642505,36.81687545776367,0.3932952284812927,18.511806984053074,False,0.00039329522848129274,0.018511806984053074,1950.0,500,92.15828704833984,13.031121253967285,1.1038999557495117,55.41134262084961,7.800215244293213,0.09355880320072174,0.08241988718509674,-90.0,3.3350566752687882e-09,-0.08241988718509674,0.023249613121151924,-0.007568360306322575
6,1.8600000143051147,7,walker.pedestrian.0004,vehicle.nissan.patrol_2021,66.642513,36.52048110961914,0.4719542860984802,18.51180917478224,False,0.0004719542860984802,0.01851180917478224,1920.0,500,92.15828704833984,13.02357006072998,1.1038999557495117,55.70768737792969,7.800313472747803,0.0926366001367569,0.08241988718509674,-90.0,3.3350566752687882e-09,-0.08791819214820862,0.030715983361005783,-0.009460448287427425
7,1.8600000143051147,8,walker.pedestrian.0004,vehicle.nissan.patrol_2021,66.642519,36.22406005859375,0.5506133437156677,18.511810874248663,False,0.0005506133437156677,0.018511810874248663,1900.0,500,92.15828704833984,13.01476001739502,1.1038999557495117,56.00404357910156,7.800443649291992,0.09168945252895355,0.08241988718509674,-90.0,3.3350566752687882e-09,-0.0928359255194664,0.03883908689022064,-0.011322020553052425
8,1.8600000143051147,9,walker.pedestrian.0004,vehicle.nissan.patrol_2021,66.642524,35.9276123046875,0.6292724013328552,18.511812186611404,False,0.0006292724013328552,0.018511812186611406,1880.0,500,92.15828704833984,13.004692077636719,1.1038999557495117,56.30039978027344,7.800609111785889,0.09072005748748779,0.08241988718509674,-90.0,3.3350566752687882e-09,-0.09722773730754852,0.04748248681426048,-0.013061522506177425
9,1.8600000143051147,10,walker.pedestrian.0004,vehicle.nissan.patrol_2021,66.642527,35.63114929199219,0.707931399345398,18.511813159083317,False,0.000707931399345398,0.018511813159083318,1850.0,500,92.15828704833984,12.993365287780762,1.1038999557495117,56.59675979614258,7.800812721252441,0.08973117917776108,0.08241988718509674,-90.0,3.3350566752687882e-09,-0.10103898495435715,0.05651303008198738,-0.01461791805922985
10,1.8600000143051147,11,walker.pedestrian.0004,vehicle.nissan.patrol_2021,66.657752,35.33462142944336,0.7865904569625854,18.51604233748678,False,0.0007865904569625855,0.01851604233748678,1830.0,500,92.15828704833984,12.980779647827148,1.1038999557495117,56.893157958984375,7.801056861877441,0.08872520178556442,0.08241988718509674,-90.0,3.3350566752687882e-09,-0.10424917191267014,0.06580212712287903,-0.0159912072122097
11,1.8600000143051147,12,walker.pedestrian.0004,vehicle.nissan.patrol_2021,66.705893,35.03797149658203,0.865249514579773,18.52941483857018,False,0.0008652495145797729,0.01852941483857018,1810.0,500,92.15828704833984,12.966936111450195,1.1038999557495117,57.189666748046875,7.80134391784668,0.08770149201154709,0.08241988718509674,-90.0,3.3350566752687882e-09,-0.10641434043645859,0.07522860914468765,-0.017150873318314552
12,1.8600000143051147,13,walker.pedestrian.0004,vehicle.nissan.patrol_2021,66.737538,34.74116897583008,0.9439085721969604,18.53820492485502,False,0.0009439085721969604,0.018538204924855018,1780.0,500,92.15828704833984,12.95183277130127,1.1038999557495117,57.48630142211914,7.801677227020264,0.08666179329156876,0.08241988718509674,-90.0,3.3350566752687882e-09,-0.1070563793182373,0.08467577397823334,-0.018035883083939552
13,1.8600000143051147,14,walker.pedestrian.0004,vehicle.nissan.patrol_2021,66.740145,34.4443359375,1.022567629814148,18.538929058852762,False,0.001022567629814148,0.018538929058852762,1760.0,500,92.15828704833984,12.93547248840332,1.1038999557495117,57.78295135498047,7.8020548820495605,0.08561309427022934,0.08241988718509674,-90.0,3.3350566752687882e-09,-0.10613430291414261,0.09403016418218613,-0.0186767540872097
14,1.8600000143051147,15,walker.pedestrian.0004,vehicle.nissan.patrol_2021,66.740239,34.14746856689453,1.1012266874313354,18.53895527126542,False,0.0011012266874313355,0.01853895527126542,1740.0,500,92.15828704833984,12.917852401733398,1.1038999557495117,58.07961654663086,7.802478313446045,0.08456478267908096,0.08241988718509674,-90.0,3.3350566752687882e-09,-0.10390765964984894,0.10318679362535477,-0.01904296875
15,1.8600000143051147,16,walker.pedestrian.0004,vehicle.nissan.patrol_2021,66.740246,33.8505744934082,1.179885745048523,18.53895719800876,False,0.001179885745048523,0.01853895719800876,1720.0,500,92.15828704833984,12.898974418640137,1.1038999557495117,58.37628936767578,7.802947998046875,0.08352451026439667,0.08241988718509674,-90.0,3.3350566752687882e-09,-0.10051988810300827,0.11205123364925385,-0.01916503719985485
16,1.8600000143051147,17,walker.pedestrian.0004,vehicle.nissan.patrol_2021,66.740228,33.55364990234375,1.2585448026657104,18.538952255732273,False,0.0012585448026657105,0.018538952255732273,1690.0,500,92.15828704833984,12.878837585449219,1.1038999557495117,58.6729736328125,7.803462505340576,0.08249957859516144,0.08241988718509674,-90.0,3.3350566752687882e-09,-0.09621687233448029,0.12054052948951721,-0.019012451171875
17,1.8600000143051147,18,walker.pedestrian.0004,vehicle.nissan.patrol_2021,66.740214,33.25669479370117,1.3372037410736084,18.538948411299113,False,0.0013372037410736084,0.018538948411299112,1670.0,500,92.15828704833984,12.857441902160645,1.1038999557495117,58.96966552734375,7.804018497467041,0.08149611949920654,0.08241988718509674,-90.0,3.3350566752687882e-09,-0.09112154692411423,0.12858271598815918,-0.0185852013528347
18,1.8600000143051147,19,walker.pedestrian.0004,vehicle.nissan.patrol_2021,66.740191,32.959712982177734,1.415862798690796,18.538941973662943,False,0.001415862798690796,0.018538941973662945,1650.0,500,92.15828704833984,12.83478832244873,1.1038999557495117,59.266361236572266,7.804615497589111,0.08051849156618118,0.08241988718509674,-90.0,3.3350566752687882e-09,-0.08544566482305527,0.13611796498298645,-0.0179443322122097
19,1.8600000143051147,20,walker.pedestrian.0004,vehicle.nissan.patrol_2021,66.740166,32.662715911865234,1.4945218563079834,18.538935133300022,False,0.0014945218563079835,0.018538935133300023,1630.0,500,92.15828704833984,12.81087589263916,1.1038999557495117,59.56306457519531,7.805253505706787,0.07957080751657486,0.08241988718509674,-90.0,3.3350566752687882e-09,-0.07931898534297943,0.14309747517108917,-0.01708984375
20,1.8600000143051147,21,walker.pedestrian.0004,vehicle.nissan.patrol_2021,66.740141,32.36568832397461,1.573180913925171,18.53892800313376,False,0.001573180913925171,0.018538928003133757,1610.0,500,92.15828704833984,12.78570556640625,1.1038999557495117,59.85976791381836,7.805933475494385,0.07865650206804276,0.08241988718509674,-90.0,3.3350566752687882e-09,-0.07287128269672394,0.1494835466146469,-0.01605224609375
21,1.8600000143051147,22,walker.pedestrian.0004,vehicle.nissan.patrol_2021,66.740115,32.06863784790039,1.6518399715423584,18.538920704008362,False,0.0016518399715423585,0.018538920704008362,1590.0,500,92.15828704833984,12.759275436401367,1.1038999557495117,60.15647506713867,7.806647300720215,0.07777736335992813,0.08241988718509674,-90.0,3.3350566752687882e-09,-0.06625965982675552,0.15524889528751373,-0.01483154110610485
22,1.8600000143051147,23,walker.pedestrian.0004,vehicle.nissan.patrol_2021,66.740095,31.771583557128906,1.730499029159546,18.53891525144683,False,0.0017304990291595458,0.01853891525144683,1570.0,500,92.15828704833984,12.731587409973145,1.1038999557495117,60.453182220458984,7.8073930740356445,0.07693534344434738,0.08241988718509674,-90.0,3.3350566752687882e-09,-0.05957290530204773,0.16037622094154358,-0.01351928897202015
23,1.8600000143051147,24,walker.pedestrian.0004,vehicle.nissan.patrol_2021,66.740075,31.474498748779297,1.8091580867767334,18.53890980813892,False,0.0018091580867767333,0.018538909808138923,1550.0,500,92.15828704833984,12.702641487121582,1.1038999557495117,60.74988555908203,7.808169841766357,0.07613097876310349,0.08241988718509674,-90.0,3.3350566752687882e-09,-0.052947621792554855,0.16485793888568878,-0.012054443359375
24,1.8600000143051147,25,walker.pedestrian.0004,vehicle.nissan.patrol_2021,66.74007,31.177391052246094,1.887817144393921,18.53890826352929,False,0.0018878171443939208,0.01853890826352929,1530.0,500,92.15828704833984,12.672436714172363,1.1038999557495117,61.04659652709961,7.80897331237793,0.07536479830741882,0.08241988718509674,-90.0,3.3350566752687882e-09,-0.0464179627597332,0.1686946153640747,-0.010528565384447575
25,1.8600000143051147,26,walker.pedestrian.0004,vehicle.nissan.patrol_2021,66.740044,30.880271911621094,1.9664762020111084,18.53890103782568,False,0.0019664762020111083,0.01853890103782568,1510.0,500,92.15828704833984,12.640973091125488,1.1038999557495117,61.34329605102539,7.809800148010254,0.07463698834180832,0.08241988718509674,-90.0,3.3350566752687882e-09,-0.040100038051605225,0.17189502716064453,-0.008941650390625
26,1.8600000143051147,27,walker.pedestrian.0004,vehicle.nissan.patrol_2021,66.740018,30.583133697509766,2.045135259628296,18.5388939277889,False,0.002045135259628296,0.018538893927788902,1490.0,500,92.15828704833984,12.608250617980957,1.1038999557495117,61.63999938964844,7.810647964477539,0.07394607365131378,0.08241988718509674,-90.0,3.3350566752687882e-09,-0.03402800112962723,0.17447493970394135,-0.007324219215661287
27,1.8600000143051147,28,walker.pedestrian.0004,vehicle.nissan.patrol_2021,66.74,30.285991668701172,2.1237943172454834,18.538888817921773,False,0.0021237943172454834,0.018538888817921772,1470.0,500,92.15828704833984,12.57426929473877,1.0952969789505005,61.93669128417969,7.8115129470825195,0.07329143583774567,0.08241988718509674,-90.0,3.3350566752687882e-09,-0.02829747274518013,0.17645631730556488,-0.005706786643713713
28,1.8600000143051147,29,walker.pedestrian.0004,vehicle.nissan.patrol_2021,66.739982,29.988826751708984,2.202453374862671,18.538883839741963,False,0.002202453374862671,0.018538883839741963,1450.0,500,92.15828704833984,12.539030075073242,1.0801366567611694,62.2333869934082,7.812392234802246,0.07267139106988907,0.08241988718509674,-90.0,3.3350566752687882e-09,-0.02292211353778839,0.17786654829978943,-0.004119873046875
29,1.8600000143051147,30,walker.pedestrian.0004,vehicle.nissan.patrol_2021,66.739964,29.691631317138672,2.2811124324798584,18.53887898546371,False,0.0022811124324798584,0.018538878985463712,1430.0,500,92.15828704833984,12.502532958984375,1.053571105003357,62.53008270263672,7.813283920288086,0.07208435237407684,0.08241988718509674,-90.0,3.3350566752687882e-09,-0.01791558600962162,0.17873769998550415,-0.0025939939077943563
30,1.8600000143051147,31,walker.pedestrian.0004,vehicle.nissan.patrol_2021,66.73994,29.39443588256836,2.359771490097046,18.53887231872055,False,0.002359771490097046,0.01853887231872055,1410.0,500,92.15828704833984,12.464776039123535,1.0018310546875,62.82676696777344,7.814185619354248,0.07152839750051498,0.08241988718509674,-90.0,3.3350566752687882e-09,-0.013339358381927013,0.17910535633563995,-0.0010986328125
31,1.8600000143051147,32,walker.pedestrian.0004,vehicle.nissan.patrol_2021,66.739931,29.09722900390625,2.4384305477142334,18.538869591496354,False,0.0024384305477142335,0.018538869591496355,1390.0,500,92.15828704833984,12.425761222839355,0.9514999389648438,63.12344741821289,7.815093994140625,0.0710013210773468,0.08241988718509674,-90.0,3.3350566752687882e-09,-0.00915928278118372,0.1790083348751068,0.0003152588615193963
32,1.8600000143051147,33,walker.pedestrian.0004,vehicle.nissan.patrol_2021,66.739914,28.800003051757812,2.517089605331421,18.53886505579179,False,0.002517089605331421,0.01853886505579179,1370.0,500,92.15828704833984,12.38548755645752,0.9514999389648438,63.42012405395508,7.816006183624268,0.07050132751464844,0.08241988718509674,-90.0,3.3350566752687882e-09,-0.005402679555118084,0.17848755419254303,0.001632902305573225
33,1.8600000143051147,34,walker.pedestrian.0004,vehicle.nissan.patrol_2021,66.739898,28.502761840820312,2.5957484245300293,18.538860635982196,False,0.0025957484245300293,0.018538860635982195,1350.0,500,92.15828704833984,12.343955993652344,0.9514999389648438,63.716800689697266,7.816918849945068,0.0700259730219841,0.08241988718509674,-90.0,3.3350566752687882e-09,-0.0020763773936778307,0.17758552730083466,0.002847245428711176
34,1.8600000143051147,35,walker.pedestrian.0004,vehicle.nissan.patrol_2021,66.739883,28.205490112304688,2.674407482147217,18.538856342324127,False,0.002674407482147217,0.018538856342324127,1330.0,500,92.15828704833984,12.301165580749512,0.9514999389648438,64.01347351074219,7.817831039428711,0.06957317143678665,0.08241988718509674,-90.0,3.3350566752687882e-09,0.0008401132072322071,0.1763458102941513,0.003948964178562164
35,1.8600000143051147,36,walker.pedestrian.0004,vehicle.nissan.patrol_2021,66.739875,27.908226013183594,2.7530665397644043,18.538854075875175,False,0.0027530665397644044,0.018538854075875175,1310.0,500,92.15828704833984,12.257116317749023,0.9514999389648438,64.31013488769531,7.818739891052246,0.06914050877094269,0.08241988718509674,-90.0,3.3350566752687882e-09,0.003339962335303426,0.1748124212026596,0.004931175149977207
36,1.8600000143051147,37,walker.pedestrian.0004,vehicle.nissan.patrol_2021,66.739867,27.610939025878906,2.831725597381592,18.538851959876443,False,0.002831725597381592,0.018538851959876444,1290.0,500,92.15828704833984,12.211809158325195,0.9514999389648438,64.60679626464844,7.819645881652832,0.06872551143169403,0.08241988718509674,-90.0,3.3350566752687882e-09,0.005457320716232061,0.17302900552749634,0.005789254792034626
37,1.8600000143051147,38,walker.pedestrian.0004,vehicle.nissan.patrol_2021,66.73986,27.313636779785156,2.9103846549987793,18.538849982415336,False,0.0029103846549987794,0.018538849982415336,1270.0,500,92.15828704833984,12.165242195129395,0.9514999389648438,64.90345764160156,7.820544719696045,0.06832657009363174,0.08241988718509674,-90.0,3.3350566752687882e-09,0.007199019193649292,0.17103815078735352,0.006520661525428295
38,1.8600000143051147,39,walker.pedestrian.0004,vehicle.nissan.patrol_2021,66.739847,27.016319274902344,2.989043712615967,18.538846260301852,False,0.002989043712615967,0.018538846260301854,1250.0,500,92.15828704833984,12.11741828918457,0.9514999389648438,65.20011138916016,7.821437358856201,0.06794139742851257,0.08241988718509674,-90.0,3.3350566752687882e-09,0.008592377416789532,0.1688818633556366,0.007124731317162514
39,1.8600000143051147,40,walker.pedestrian.0004,vehicle.nissan.patrol_2021,66.739847,26.718994140625,3.0677027702331543,18.53884651480335,False,0.0030677027702331544,0.01853884651480335,1240.0,500,92.15828704833984,12.068334579467773,0.9514999389648438,65.49675750732422,7.822320461273193,0.06756789982318878,0.08241988718509674,-90.0,3.3350566752687882e-09,0.009664717130362988,0.16660019755363464,0.0076029556803405285
40,1.8600000143051147,41,walker.pedestrian.0004,vehicle.nissan.patrol_2021,66.739842,26.421653747558594,3.146361827850342,18.538845037491896,False,0.003146361827850342,0.018538845037491897,1220.0,500,92.15828704833984,12.017992973327637,0.9514999389648438,65.79340362548828,7.823194980621338,0.06720424443483353,0.08241988718509674,-90.0,3.3350566752687882e-09,0.010443358682096004,0.1642313152551651,0.00795828178524971
41,1.8600000143051147,42,walker.pedestrian.0004,vehicle.nissan.patrol_2021,66.739831,26.124282836914062,3.2250208854675293,18.53884183561882,False,0.0032250208854675295,0.018538841835618818,1200.0,500,92.15828704833984,11.966392517089844,0.9514999389648438,66.09004974365234,7.82405948638916,0.06684902310371399,0.08241988718509674,-90.0,3.3350566752687882e-09,0.010941962711513042,0.16181114315986633,0.008194784633815289
42,1.8600000143051147,43,walker.pedestrian.0004,vehicle.nissan.patrol_2021,66.739827,25.826904296875,3.303679943084717,18.538840733461168,False,0.003303679943084717,0.018538840733461168,1180.0,500,92.15828704833984,11.913533210754395,0.9514999389648438,66.3866958618164,7.8249125480651855,0.06650039553642273,0.08241988718509674,-90.0,3.3350566752687882e-09,0.011201509274542332,0.1593734174966812,0.008318550884723663
43,1.8600000143051147,44,walker.pedestrian.0004,vehicle.nissan.patrol_2021,66.73983,25.529518127441406,3.3300013542175293,18.538841729120787,False,0.0033300013542175294,0.018538841729120785,1170.0,500,92.15828704833984,11.86025333404541,0.9514999389648438,66.68334197998047,7.825751781463623,0.06615699827671051,0.08241988718509674,-90.0,3.3350566752687882e-09,0.011242491193115711,0.15694883465766907,0.008335830643773079
44,1.8600000143051147,45,walker.pedestrian.0004,vehicle.nissan.patrol_2021,66.739821,25.232139587402344,3.3300013542175293,18.538839100288868,False,0.0033300013542175294,0.01853883910028887,1150.0,500,92.15828704833984,11.806973457336426,0.9514999389648438,66.97998046875,7.826582431793213,0.0658172219991684,0.08241988718509674,-90.0,3.3350566752687882e-09,0.011085396632552147,0.15456581115722656,0.00825455691665411
45,1.8600000143051147,46,walker.pedestrian.0004,vehicle.nissan.patrol_2021,66.739819,24.934768676757812,3.3300013542175293,18.538838587903985,False,0.0033300013542175294,0.018538838587903984,1140.0,500,92.15828704833984,11.753693580627441,0.9514999389648438,67.276611328125,7.827404022216797,0.06548046320676804,0.08241988718509674,-90.0,3.3350566752687882e-09,0.010771207511425018,0.15224942564964294,0.00808280985802412
46,1.8600000143051147,47,walker.pedestrian.0004,vehicle.nissan.patrol_2021,66.739818,24.63739013671875,3.3300013542175293,18.538838260171474,False,0.0033300013542175294,0.018538838260171473,1130.0,500,92.15828704833984,11.700413703918457,0.9514999389648438,67.57324981689453,7.828212261199951,0.06514545530080795,0.08241988718509674,-90.0,3.3350566752687882e-09,0.01031358540058136,0.15002183616161346,0.007829722948372364
47,1.8600000143051147,48,walker.pedestrian.0004,vehicle.nissan.patrol_2021,66.739817,24.340011596679688,3.3300013542175293,18.53883812712415,False,0.0033300013542175294,0.01853883812712415,1110.0,500,92.15828704833984,11.647133827209473,0.9514999389648438,67.86988830566406,7.829005718231201,0.0648113265633583,0.08241988718509674,-90.0,3.3350566752687882e-09,0.009739848785102367,0.14790211617946625,0.007504494860768318
48,1.8600000143051147,49,walker.pedestrian.0004,vehicle.nissan.patrol_2021,66.739811,24.042640686035156,3.3300013542175293,18.53883627187117,False,0.0033300013542175294,0.018538836271871167,1100.0,500,92.15828704833984,11.593853950500488,0.9514999389648438,68.16651916503906,7.829786777496338,0.06447704136371613,0.08241988718509674,-90.0,3.3350566752687882e-09,0.00907732080668211,0.14590705931186676,0.007116529159247875
49,1.8600000143051147,50,walker.pedestrian.0004,vehicle.nissan.patrol_2021,66.739805,23.745262145996094,3.3300013542175293,18.538834585943604,False,0.0033300013542175294,0.018538834585943603,1090.0,500,92.15828704833984,11.540573120117188,0.9514999389648438,68.46315002441406,7.8305583000183105,0.06414253264665604,0.08241988718509674,-90.0,3.3350566752687882e-09,0.008332829922437668,0.14405009150505066,0.0066752564162015915
50,1.8600000143051147,51,walker.pedestrian.0004,vehicle.nissan.patrol_2021,66.739799,23.447891235351562,3.3300013542175293,18.53883308452506,False,0.0033300013542175294,0.018538833084525058,1070.0,500,92.15828704833984,11.487293243408203,0.9514999389648438,68.75978088378906,7.8313188552856445,0.06380695104598999,0.08241988718509674,-90.0,3.3350566752687882e-09,0.007540528662502766,0.1423422396183014,0.006190164480358362
51,1.8600000143051147,52,walker.pedestrian.0004,vehicle.nissan.patrol_2021,66.739794,23.15052032470703,3.3300013542175293,18.538831738427483,False,0.0033300013542175294,0.018538831738427484,1060.0,500,92.15828704833984,11.434013366699219,0.9514999389648438,69.0564193725586,7.832068920135498,0.06346999853849411,0.08241988718509674,-90.0,3.3350566752687882e-09,0.006714075803756714,0.14079143106937408,0.005670521873980761
52,1.8600000143051147,53,walker.pedestrian.0004,vehicle.nissan.patrol_2021,66.73979,22.85314178466797,3.3300013542175293,18.538830542714916,False,0.0033300013542175294,0.018538830542714914,1050.0,500,92.15828704833984,11.380733489990234,0.9514999389648438,69.3530502319336,7.832818508148193,0.06313136965036392,0.08241988718509674,-90.0,3.3350566752687882e-09,0.005867131985723972,0.13940311968326569,0.005125357303768396
53,1.8600000143051147,54,walker.pedestrian.0004,vehicle.nissan.patrol_2021,66.739793,22.555770874023438,3.3300013542175293,18.538831390899077,False,0.0033300013542175294,0.018538831390899076,1030.0,500,92.15828704833984,11.32745361328125,0.9514999389648438,69.6496810913086,7.833556175231934,0.06279079616069794,0.08241988718509674,-90.0,3.3350566752687882e-09,0.0050065284594893456,0.1381799578666687,0.004563248250633478
54,1.8600000143051147,55,walker.pedestrian.0004,vehicle.nissan.patrol_2021,66.739797,22.258399963378906,3.3300013542175293,18.538832380097727,False,0.0033300013542175294,0.018538832380097726,1020.0,500,92.15828704833984,11.274173736572266,0.9514999389648438,69.9463119506836,7.834283351898193,0.06244819611310959,0.08241988718509674,-90.0,3.3350566752687882e-09,0.004166414961218834,0.13712243735790253,0.003992241807281971
55,1.8600000143051147,56,walker.pedestrian.0004,vehicle.nissan.patrol_2021,66.739794,21.961013793945312,3.3300013542175293,18.538831573850114,False,0.0033300013542175294,0.018538831573850115,1000.0,500,92.15828704833984,11.220892906188965,0.9514999389648438,70.24295043945312,7.8350090980529785,0.06210353597998619,0.08241988718509674,-90.0,3.3350566752687882e-09,0.003339962335303426,0.1362295299768448,0.0034200469963252544
56,1.8600000143051147,57,walker.pedestrian.0004,vehicle.nissan.patrol_2021,66.739791,21.663650512695312,3.3300013542175293,18.53883087254185,False,0.0033300013542175294,0.01853883087254185,990.0,500,92.15828704833984,11.16761302947998,0.9514999389648438,70.53958129882812,7.835723876953125,0.061756934970617294,0.08241988718509674,-90.0,3.3350566752687882e-09,0.0025339999701827765,0.1354978084564209,0.0028536280151456594
57,1.8600000143051147,58,walker.pedestrian.0004,vehicle.nissan.patrol_2021,66.739796,21.36627960205078,3.3300013542175293,18.538832192256095,False,0.0033300013542175294,0.018538832192256095,980.0,500,92.15828704833984,11.114333152770996,0.9514999389648438,70.83621215820312,7.836437225341797,0.061408232897520065,0.08241988718509674,-90.0,3.3350566752687882e-09,0.0017690189415588975,0.13492245972156525,0.0022994852624833584
58,1.8600000143051147,59,walker.pedestrian.0004,vehicle.nissan.patrol_2021,66.739794,21.06890106201172,3.3300013542175293,18.538831684716435,False,0.0033300013542175294,0.018538831684716435,960.0,500,92.15828704833984,11.061053276062012,0.9514999389648438,71.13284301757812,7.837148666381836,0.06105785071849823,0.08241988718509674,-90.0,3.3350566752687882e-09,0.0010450189001858234,0.13449706137180328,0.0017631229711696506
59,1.8600000143051147,60,walker.pedestrian.0004,vehicle.nissan.patrol_2021,66.739793,20.771530151367188,3.3300013542175293,18.538831254226164,False,0.0033300013542175294,0.018538831254226163,950.0,500,92.15828704833984,11.007773399353027,0.9514999389648438,71.42948150634766,7.83785343170166,0.06070571765303612,0.08241988718509674,-90.0,3.3350566752687882e-09,0.00036200002068653703,0.13421374559402466,0.001249586814083159
60,1.8600000143051147,61,walker.pedestrian.0004,vehicle.nissan.patrol_2021,66.739791,20.474159240722656,3.3300013542175293,18.53883090102388,False,0.0033300013542175294,0.01853883090102388,940.0,500,92.15828704833984,10.954493522644043,0.9514999389648438,71.72611236572266,7.838552474975586,0.06035182997584343,0.08241988718509674,-90.0,3.3350566752687882e-09,-0.00027320755179971457,0.13406376540660858,0.0007633724017068744
61,1.8600000143051147,62,walker.pedestrian.0004,vehicle.nissan.patrol_2021,66.73979,20.176780700683594,3.3300013542175293,18.538830613991518,False,0.0033300013542175294,0.018538830613991517,920.0,500,92.15828704833984,10.901212692260742,0.9514999389648438,72.02275085449219,7.8392510414123535,0.059997063130140305,0.08241988718509674,-90.0,3.3350566752687882e-09,-0.0008537736139260232,0.1340378373861313,0.0003078487061429769
62,1.8600000143051147,63,walker.pedestrian.0004,vehicle.nissan.patrol_2021,66.739789,19.87940216064453,3.3300013542175293,18.538830373851397,False,0.0033300013542175294,0.018538830373851397,910.0,500,92.15828704833984,10.847932815551758,0.9514999389648438,72.31938171386719,7.83994722366333,0.05964134261012077,0.08241988718509674,-90.0,3.3350566752687882e-09,-0.001372867962345481,0.13412588834762573,-0.0001220703125
63,1.8600000143051147,64,walker.pedestrian.0004,vehicle.nissan.patrol_2021,66.739789,19.58203125,3.3300013542175293,18.538830176550654,False,0.0033300013542175294,0.018538830176550655,900.0,500,92.15828704833984,10.794652938842773,0.9514999389648438,72.61602020263672,7.840642929077148,0.059285201132297516,0.08241988718509674,-90.0,3.3350566752687882e-09,-0.0018304905388504267,0.1343170702457428,-0.00048828116268850863
64,1.8600000143051147,65,walker.pedestrian.0004,vehicle.nissan.patrol_2021,66.739788,19.28466033935547,3.3300013542175293,18.53883001500725,False,0.0033300013542175294,0.018538830015007248,880.0,500,92.15828704833984,10.741373062133789,0.9514999389648438,72.91265106201172,7.841338157653809,0.058928411453962326,0.08241988718509674,-90.0,3.3350566752687882e-09,-0.0022607925347983837,0.13460054993629456,-0.0008544920710846782
65,1.8600000143051147,66,walker.pedestrian.0004,vehicle.nissan.patrol_2021,66.739788,18.987266540527344,3.3300013542175293,18.538829898397868,False,0.0033300013542175294,0.018538829898397866,870.0,500,92.15828704833984,10.688093185424805,0.9514999389648438,73.20929718017578,7.842037200927734,0.058571357280015945,0.08241988718509674,-90.0,3.3350566752687882e-09,-0.00262279249727726,0.13496510684490204,-0.0011596678523346782
66,1.8600000143051147,67,walker.pedestrian.0004,vehicle.nissan.patrol_2021,66.739787,18.689903259277344,3.3300013542175293,18.53882980212369,False,0.0033300013542175294,0.01853882980212369,850.0,500,92.15828704833984,10.63481330871582,0.9514999389648438,73.50592803955078,7.842739582061768,0.05821441486477852,0.08241988718509674,-90.0,3.3350566752687882e-09,-0.002930151065811515,0.13539931178092957,-0.0014343259390443563
67,1.8600000143051147,68,walker.pedestrian.0004,vehicle.nissan.patrol_2021,66.739787,18.39252471923828,3.3300013542175293,18.538829724125904,False,0.0033300013542175294,0.018538829724125905,840.0,500,92.15828704833984,10.581533432006836,0.9514999389648438,73.80256652832031,7.843441009521484,0.05785781890153885,0.08241988718509674,-90.0,3.3350566752687882e-09,-0.0031760376878082752,0.13589175045490265,-0.0016479491023346782
68,1.8600000143051147,69,walker.pedestrian.0004,vehicle.nissan.patrol_2021,66.73978,18.09514617919922,3.3300013542175293,18.538827740573936,False,0.0033300013542175294,0.018538827740573936,830.0,500,92.15828704833984,10.528252601623535,0.9514999389648438,74.09920501708984,7.844141483306885,0.057501982897520065,0.08241988718509674,-90.0,3.3350566752687882e-09,-0.0033877736423164606,0.13643135130405426,-0.001861572265625
69,1.8600000143051147,70,walker.pedestrian.0004,vehicle.nissan.patrol_2021,66.73978,17.797760009765625,3.3300013542175293,18.538827689445633,False,0.0033300013542175294,0.018538827689445633,810.0,500,92.15828704833984,10.47497272491455,0.9514999389648438,74.3958511352539,7.844844818115234,0.05714702606201172,0.08241988718509674,-90.0,3.3350566752687882e-09,-0.0035721887834370136,0.13700799643993378,-0.00201416015625
70,1.8600000143051147,71,walker.pedestrian.0004,vehicle.nissan.patrol_2021,66.73978,17.500389099121094,3.3300013542175293,18.53882764791942,False,0.0033300013542175294,0.01853882764791942,800.0,500,92.15828704833984,10.421692848205566,0.9514999389648438,74.6924819946289,7.845553874969482,0.056792981922626495,0.08241988718509674,-90.0,3.3350566752687882e-09,-0.0036951322108507156,0.13761170208454132,-0.00213623046875
71,1.8600000143051147,72,walker.pedestrian.0004,vehicle.nissan.patrol_2021,66.739779,17.2030029296875,3.3300013542175293,18.538827594669236,False,0.0033300013542175294,0.018538827594669235,790.0,500,92.15828704833984,10.368412971496582,0.9514999389648438,74.98912811279297,7.846262454986572,0.05644035339355469,0.08241988718509674,-90.0,3.3350566752687882e-09,-0.0037839245051145554,0.13823272287845612,-0.0021972653921693563
72,1.8600000143051147,73,walker.pedestrian.0004,vehicle.nissan.patrol_2021,66.739779,16.905616760253906,3.3300013542175293,18.538827546753957,False,0.0033300013542175294,0.01853882754675396,770.0,500,92.15828704833984,10.315133094787598,0.9514999389648438,75.2857666015625,7.846970558166504,0.056089360266923904,0.08241988718509674,-90.0,3.3350566752687882e-09,-0.0038453962188214064,0.13886214792728424,-0.0022583005484193563
73,1.8600000143051147,74,walker.pedestrian.0004,vehicle.nissan.patrol_2021,66.739772,16.608245849609375,3.3300013542175293,18.538825586723107,False,0.0033300013542175294,0.018538825586723106,760.0,500,92.15828704833984,10.261853218078613,0.9514999389648438,75.58240509033203,7.8476881980896,0.05573997274041176,0.08241988718509674,-90.0,3.3350566752687882e-09,-0.003879547119140625,0.13949213922023773,-0.0022583005484193563
74,1.8600000143051147,75,walker.pedestrian.0004,vehicle.nissan.patrol_2021,66.739772,16.310867309570312,3.3300013542175293,18.538825516939664,False,0.0033300013542175294,0.018538825516939663,750.0,500,92.15828704833984,10.208572387695312,0.9514999389648438,75.87904357910156,7.8484063148498535,0.055392492562532425,0.08241988718509674,-90.0,3.3350566752687882e-09,-0.003879547119140625,0.14011487364768982,-0.00225830078125
75,1.8600000143051147,76,walker.pedestrian.0004,vehicle.nissan.patrol_2021,66.739772,16.013473510742188,3.3300013542175293,18.53882543728235,False,0.0033300013542175294,0.01853882543728235,730.0,500,92.15828704833984,10.155292510986328,0.9514999389648438,76.17568969726562,7.849123477935791,0.055046919733285904,0.08241988718509674,-90.0,3.3350566752687882e-09,-0.0038453962188214064,0.1407235860824585,-0.0022277829702943563
76,1.8600000143051147,77,walker.pedestrian.0004,vehicle.nissan.patrol_2021,66.739764,15.716102600097656,3.3300013542175293,18.53882342999556,False,0.0033300013542175294,0.01853882342999556,720.0,500,92.15828704833984,10.102012634277344,0.9514999389648438,76.47232818603516,7.849851131439209,0.054703596979379654,0.08241988718509674,-90.0,3.3350566752687882e-09,-0.0038180756382644176,0.14131231606006622,-0.0021667478140443563
77,1.8600000143051147,78,walker.pedestrian.0004,vehicle.nissan.patrol_2021,66.739764,15.418724060058594,3.3300013542175293,18.538823319878514,False,0.0033300013542175294,0.018538823319878515,710.0,500,92.15828704833984,10.04873275756836,0.9514999389648438,76.76896667480469,7.8505778312683105,0.054362449795007706,0.08241988718509674,-90.0,3.3350566752687882e-09,-0.0037566039245575666,0.14187559485435486,-0.0020751948468387127
78,1.8600000143051147,79,walker.pedestrian.0004,vehicle.nissan.patrol_2021,66.739763,15.121345520019531,3.3300013542175293,18.53882318745262,False,0.0033300013542175294,0.018538823187452622,690.0,500,92.15828704833984,9.995452880859375,0.9514999389648438,77.06560516357422,7.851304531097412,0.05402366444468498,0.08241988718509674,-90.0,3.3350566752687882e-09,-0.0036609810777008533,0.1424088031053543,-0.0019836428109556437
79,1.8600000143051147,80,walker.pedestrian.0004,vehicle.nissan.patrol_2021,66.739763,14.823951721191406,3.3300013542175293,18.53882302365478,False,0.0033300013542175294,0.01853882302365478,680.0,500,92.15828704833984,9.94217300415039,0.9514999389648438,77.36225128173828,7.852042198181152,0.05368751287460327,0.08241988718509674,-90.0,3.3350566752687882e-09,-0.0035721887834370136,0.1429084837436676,-0.0018920896109193563
80,1.8600000143051147,81,walker.pedestrian.0004,vehicle.nissan.patrol_2021,66.739762,14.526573181152344,3.3300013542175293,18.538822835558445,False,0.0033300013542175294,0.018538822835558445,660.0,500,92.15828704833984,9.88889217376709,0.9514999389648438,77.65889739990234,7.852778911590576,0.05335380509495735,0.08241988718509674,-90.0,3.3350566752687882e-09,-0.0034833962563425303,0.14337120950222015,-0.0017395018367096782
81,1.8600000143051147,82,walker.pedestrian.0004,vehicle.nissan.patrol_2021,66.739755,14.229194641113281,3.3300013542175293,18.538820726682115,False,0.0033300013542175294,0.018538820726682115,650.0,500,92.15828704833984,9.835612297058105,0.9514999389648438,77.95553588867188,7.853516578674316,0.053022537380456924,0.08241988718509674,-90.0,3.3350566752687882e-09,-0.0033877736423164606,0.14379417896270752,-0.0016174315242096782
82,1.8600000143051147,83,walker.pedestrian.0004,vehicle.nissan.patrol_2021,66.739754,13.931808471679688,3.3300013542175293,18.538820504176062,False,0.0033300013542175294,0.018538820504176063,640.0,500,92.15828704833984,9.782332420349121,0.9514999389648438,78.2521743774414,7.854253768920898,0.052693746984004974,0.08241988718509674,-90.0,3.3350566752687882e-09,-0.0032648302149027586,0.14417588710784912,-0.0014648438664153218
83,1.8600000143051147,84,walker.pedestrian.0004,vehicle.nissan.patrol_2021,66.739753,13.634429931640625,3.3300013542175293,18.5388202440608,False,0.0033300013542175294,0.0185388202440608,620.0,500,92.15828704833984,9.729052543640137,0.9514999389648438,78.54881286621094,7.854991912841797,0.052367668598890305,0.08241988718509674,-90.0,3.3350566752687882e-09,-0.0031760376878082752,0.1445157825946808,-0.0013122557429596782
84,1.8600000143051147,85,walker.pedestrian.0004,vehicle.nissan.patrol_2021,66.739759,13.337043762207031,3.3300013542175293,18.538821883727234,False,0.0033300013542175294,0.018538821883727234,610.0,500,92.15828704833984,9.675772666931152,0.9514999389648438,78.845458984375,7.855740070343018,0.0520441047847271,0.08241988718509674,-90.0,3.3350566752687882e-09,-0.003053094493225217,0.14481380581855774,-0.0011596678523346782
85,1.8600000143051147,86,walker.pedestrian.0004,vehicle.nissan.patrol_2021,66.739751,13.039649963378906,3.3300013542175293,18.53881965915314,False,0.0033300013542175294,0.01853881965915314,600.0,500,92.15828704833984,9.622492790222168,0.9514999389648438,79.14210510253906,7.8564887046813965,0.051723137497901917,0.08241988718509674,-90.0,3.3350566752687882e-09,-0.0029643019661307335,0.14506937563419342,-0.0010070801945403218
86,1.8600000143051147,87,walker.pedestrian.0004,vehicle.nissan.patrol_2021,66.73975,12.742271423339844,3.3300013542175293,18.538819340687393,False,0.0033300013542175294,0.018538819340687393,580.0,500,92.15828704833984,9.569211959838867,0.9514999389648438,79.4387435913086,7.857237339019775,0.0514046847820282,0.08241988718509674,-90.0,3.3350566752687882e-09,-0.0028413585387170315,0.14528247714042664,-0.0008544921292923391
87,1.8600000143051147,88,walker.pedestrian.0004,vehicle.nissan.patrol_2021,66.739503,12.444900512695312,3.3300013542175293,18.538750913899253,False,0.0033300013542175294,0.018538750913899255,570.0,500,92.15828704833984,9.515932083129883,0.9514999389648438,79.73538208007812,7.858043193817139,0.0510890930891037,0.08241988718509674,-90.0,3.3350566752687882e-09,-0.002745735924690962,0.14758343994617462,-0.0015869138296693563
88,1.8600000143051147,89,walker.pedestrian.0004,vehicle.nissan.patrol_2021,66.739703,12.147506713867188,3.3300013542175293,18.538806491397974,False,0.0033300013542175294,0.018538806491397972,560.0,500,92.15828704833984,9.462652206420898,0.9514999389648438,80.03202819824219,7.858808517456055,0.05077560245990753,0.08241988718509674,-90.0,3.3350566752687882e-09,-0.0026569433975964785,0.1523711234331131,-0.0032348628155887127
89,1.8600000143051147,90,walker.pedestrian.0004,vehicle.nissan.patrol_2021,66.739735,11.850128173828125,3.3300013542175293,18.538815394506756,False,0.0033300013542175294,0.018538815394506757,540.0,500,92.15828704833984,9.409372329711914,0.9514999389648438,80.32866668701172,7.85959005355835,0.050464894622564316,0.08241988718509674,-90.0,3.3350566752687882e-09,-0.002568150870501995,0.1580757200717926,-0.005035399459302425
90,1.8600000143051147,91,walker.pedestrian.0004,vehicle.nissan.patrol_2021,66.739737,11.552742004394531,3.3300013542175293,18.5388159609317,False,0.0033300013542175294,0.0185388159609317,530.0,500,92.15828704833984,9.35609245300293,0.9514999389648438,80.62531280517578,7.8603949546813965,0.050156399607658386,0.08241988718509674,-90.0,3.3350566752687882e-09,-0.0024725282564759254,0.16454200446605682,-0.006927489768713713
91,1.8600000143051147,92,walker.pedestrian.0004,vehicle.nissan.patrol_2021,66.739736,11.255363464355469,3.3300013542175293,18.53881548677238,False,0.0033300013542175294,0.01853881548677238,510.0,500,92.15828704833984,9.302812576293945,0.9514999389648438,80.92195129394531,7.861226558685303,0.049850501120090485,0.08241988718509674,-90.0,3.3350566752687882e-09,-0.0024110565427690744,0.17163383960723877,-0.008819580078125
92,1.8600000143051147,93,walker.pedestrian.0004,vehicle.nissan.patrol_2021,66.739744,10.957977294921875,3.3300013542175293,18.53881774820041,False,0.0033300013542175294,0.01853881774820041,500.0,500,92.15828704833984,9.249532699584961,0.9514999389648438,81.21858978271484,7.862088680267334,0.04954700544476509,0.08241988718509674,-90.0,3.3350566752687882e-09,-0.0023495848290622234,0.1792195439338684,-0.01065063290297985
93,1.8600000143051147,94,walker.pedestrian.0004,vehicle.nissan.patrol_2021,66.374946,10.6622314453125,3.3300013542175293,18.43748490302299,False,0.0033300013542175294,0.01843748490302299,490.0,500,92.15828704833984,9.19625186920166,0.9514999389648438,81.51359558105469,7.862979412078857,0.04924514517188072,0.08241988718509674,-90.0,3.3350566752687882e-09,-0.0021993208210915327,0.18717224895954132,-0.0123291015625
94,1.8600000143051147,95,walker.pedestrian.0004,vehicle.nissan.patrol_2021,66.004384,10.368141174316406,3.3300013542175293,18.33455100196231,False,0.0033300013542175294,0.01833455100196231,480.0,500,92.15828704833984,9.142971992492676,0.9514999389648438,81.80694580078125,7.863902568817139,0.048945579677820206,0.08241988718509674,-90.0,3.3350566752687882e-09,-0.0020149056799709797,0.195418581366539,-0.013885498046875
95,1.8600000143051147,96,walker.pedestrian.0004,vehicle.nissan.patrol_2021,65.633542,10.075668334960938,3.3300013542175293,18.231539476211413,False,0.0033300013542175294,0.018231539476211412,470.0,500,92.15828704833984,9.089692115783691,0.9514999389648438,82.09867095947266,7.864858150482178,0.04864826053380966,0.08241988718509674,-90.0,3.3350566752687882e-09,-0.0017416981281712651,0.20393148064613342,-0.015289305709302425
96,1.8600000143051147,97,walker.pedestrian.0004,vehicle.nissan.patrol_2021,65.262758,9.784919738769531,3.3300013542175293,18.12854375578181,False,0.0033300013542175294,0.01812854375578181,460.0,500,92.15828704833984,9.036412239074707,0.9514999389648438,82.388671875,7.865848064422607,0.04835376515984535,0.08241988718509674,-90.0,3.3350566752687882e-09,-0.001434339676052332,0.2126857191324234,-0.01654052920639515
97,1.8600000143051147,98,walker.pedestrian.0004,vehicle.nissan.patrol_2021,64.891968,9.495735168457031,3.3300013542175293,18.02554670320927,False,0.0033300013542175294,0.01802554670320927,440.0,500,92.15828704833984,8.983132362365723,0.9514999389648438,82.67710876464844,7.866873741149902,0.04806255176663399,0.08241988718509674,-90.0,3.3350566752687882e-09,-0.0010996604105457664,0.22165781259536743,-0.01763916015625
98,1.8600000143051147,99,walker.pedestrian.0004,vehicle.nissan.patrol_2021,64.521112,9.208259582519531,3.3300013542175293,17.922531145015792,False,0.0033300013542175294,0.017922531145015793,430.0,500,92.15828704833984,8.929852485656738,0.9514999389648438,82.96383666992188,7.867935657501221,0.047774236649274826,0.08241988718509674,-90.0,3.3350566752687882e-09,-0.0007308301865123212,0.2308260202407837,-0.0186157189309597
99,1.8600000143051147,100,walker.pedestrian.0004,vehicle.nissan.patrol_2021,64.150341,8.922348022460938,3.3300013542175293,17.819539031029553,False,0.0033300013542175294,0.017819539031029553,420.0,500,92.15828704833984,8.876571655273438,0.9514999389648438,83.24899291992188,7.8690338134765625,0.04748931899666786,0.08241988718509674,-90.0,3.3350566752687882e-09,-0.00033467926550656557,0.240169957280159,-0.0194702111184597
100,1.8600000143051147,101,walker.pedestrian.0004,vehicle.nissan.patrol_2021,63.779482,8.638160705566406,3.3300013542175293,17.716522679299356,False,0.0033300013542175294,0.017716522679299355,410.0,500,92.15828704833984,8.823291778564453,0.9514999389648438,83.53244018554688,7.870168209075928,0.04720836505293846,0.08241988718509674,-90.0,3.3350566752687882e-09,6.830188794992864e-05,0.24967098236083984,-0.02020263485610485
101,1.8600000143051147,102,walker.pedestrian.0004,vehicle.nissan.patrol_2021,63.408707,8.355537414550781,3.3300013542175293,17.61352975781635,False,0.0033300013542175294,0.01761352975781635,400.0,500,92.15828704833984,8.770011901855469,0.9514999389648438,83.81431579589844,7.871342182159424,0.04693057760596275,0.08241988718509674,-90.0,3.3350566752687882e-09,0.00047128304140642285,0.259311705827713,-0.02081298828125
102,1.8600000143051147,103,walker.pedestrian.0004,vehicle.nissan.patrol_2021,63.037928,8.074615478515625,3.3300013542175293,17.51053547884947,False,0.0033300013542175294,0.017510535478849468,390.0,500,92.15828704833984,8.716732025146484,0.9514999389648438,84.094482421875,7.872552394866943,0.04665668308734894,0.08241988718509674,-90.0,3.3350566752687882e-09,0.0008810943691059947,0.26907598972320557,-0.02130126953125
103,1.8600000143051147,104,walker.pedestrian.0004,vehicle.nissan.patrol_2021,62.667075,7.795265197753906,3.3300013542175293,17.40752073866005,False,0.0033300013542175294,0.01740752073866005,380.0,500,92.15828704833984,8.6634521484375,0.9514999389648438,84.37307739257812,7.8738017082214355,0.046386297792196274,0.08241988718509674,-90.0,3.3350566752687882e-09,0.0012840754352509975,0.2789488732814789,-0.021728515625
104,1.8600000143051147,105,walker.pedestrian.0004,vehicle.nissan.patrol_2021,62.296285,7.51763916015625,3.3300013542175293,17.30452367631733,False,0.0033300013542175294,0.01730452367631733,360.0,500,92.15828704833984,8.610172271728516,0.9514999389648438,84.64995574951172,7.875089168548584,0.04611953720450401,0.08241988718509674,-90.0,3.3350566752687882e-09,0.0016665661241859198,0.288916677236557,-0.02206420712172985
105,1.8600000143051147,106,walker.pedestrian.0004,vehicle.nissan.patrol_2021,61.925436,7.2417144775390625,3.3300013542175293,17.201509960494793,False,0.0033300013542175294,0.01720150996049479,350.0,500,92.15828704833984,8.556891441345215,0.9514999389648438,84.92511749267578,7.876415252685547,0.04585598036646843,0.08241988718509674,-90.0,3.3350566752687882e-09,0.0020490565802901983,0.29896676540374756,-0.02233886532485485
106,1.8600000143051147,107,walker.pedestrian.0004,vehicle.nissan.patrol_2021,61.55465,6.967376708984375,3.3300013542175293,17.09851388484138,False,0.0033300013542175294,0.01709851388484138,340.0,500,92.15828704833984,8.50361156463623,0.9514999389648438,85.1987075805664,7.877779483795166,0.04559623450040817,0.08241988718509674,-90.0,3.3350566752687882e-09,0.002397396368905902,0.3090871572494507,-0.022552490234375
107,1.8600000143051147,108,walker.pedestrian.0004,vehicle.nissan.patrol_2021,61.183859,6.694732666015625,3.3300013542175293,16.995516375624245,False,0.0033300013542175294,0.016995516375624246,330.0,500,92.15828704833984,8.450331687927246,0.9514999389648438,85.47059631347656,7.879181861877441,0.04533977434039116,0.08241988718509674,-90.0,3.3350566752687882e-09,0.002738905604928732,0.3192667067050934,-0.0226745568215847
108,1.8600000143051147,109,walker.pedestrian.0004,vehicle.nissan.patrol_2021,60.813015,6.4236602783203125,3.3300013542175293,16.8925040493736,False,0.0033300013542175294,0.016892504049373598,320.0,500,92.15828704833984,8.397051811218262,0.9514999389648438,85.74090576171875,7.880622386932373,0.04508667066693306,0.08241988718509674,-90.0,3.3350566752687882e-09,0.003053094493225217,0.3294958174228668,-0.022796630859375
109,1.8600000143051147,110,walker.pedestrian.0004,vehicle.nissan.patrol_2021,60.44224,6.1543121337890625,3.3300013542175293,16.789511230552225,False,0.0033300013542175294,0.016789511230552227,310.0,500,92.15828704833984,8.343771934509277,0.9514999389648438,86.0094985961914,7.882102012634277,0.04483642429113388,0.08241988718509674,-90.0,3.3350566752687882e-09,0.003346792422235012,0.33976489305496216,-0.02285766787827015
110,1.8600000143051147,111,walker.pedestrian.0004,vehicle.nissan.patrol_2021,60.071385,5.886512756347656,3.3300013542175293,16.68649592719482,False,0.0033300013542175294,0.01668649592719482,290.0,500,92.15828704833984,8.290492057800293,0.9514999389648438,86.27654266357422,7.88361930847168,0.04458915442228317,0.08241988718509674,-90.0,3.3350566752687882e-09,0.0036063396837562323,0.35006558895111084,-0.02288818359375
111,1.8600000143051147,112,walker.pedestrian.0004,vehicle.nissan.patrol_2021,59.700593,5.6204376220703125,3.3300013542175293,16.5834981915308,False,0.0033300013542175294,0.0165834981915308,280.0,500,92.15828704833984,8.237212181091309,0.9514999389648438,86.54185485839844,7.885173320770264,0.044344712048769,0.08241988718509674,-90.0,3.3350566752687882e-09,0.0038522265385836363,0.3603898882865906,-0.02288818173110485
112,1.8600000143051147,113,walker.pedestrian.0004,vehicle.nissan.patrol_2021,59.329741,5.355926513671875,3.3300013542175293,16.48048365534941,False,0.0033300013542175294,0.01648048365534941,270.0,500,92.15828704833984,8.183931350708008,0.9514999389648438,86.80560302734375,7.8867645263671875,0.04410316422581673,0.08241988718509674,-90.0,3.3350566752687882e-09,0.004063962493091822,0.3707309365272522,-0.022857666015625
113,1.8600000143051147,114,walker.pedestrian.0004,vehicle.nissan.patrol_2021,58.958966,5.0931243896484375,3.3300013542175293,16.377490444845325,False,0.0033300013542175294,0.016377490444845325,260.0,500,92.15828704833984,8.130651473999023,0.9514999389648438,87.06764221191406,7.888392925262451,0.04386390745639801,0.08241988718509674,-90.0,3.3350566752687882e-09,0.004255207721143961,0.3810827136039734,-0.0228271447122097
114,1.8600000143051147,115,walker.pedestrian.0004,vehicle.nissan.patrol_2021,58.588129,4.831962585449219,3.3300013542175293,16.274480403617076,False,0.0033300013542175294,0.016274480403617075,250.0,500,92.15828704833984,8.077371597290039,0.9514999389648438,87.32804870605469,7.8900580406188965,0.04362728074193001,0.08241988718509674,-90.0,3.3350566752687882e-09,0.004419132135808468,0.39143869280815125,-0.02276611141860485
115,1.8600000143051147,116,walker.pedestrian.0004,vehicle.nissan.patrol_2021,58.217342,4.572456359863281,3.3300013542175293,16.171484011778947,False,0.0033300013542175294,0.016171484011778946,230.0,500,92.15828704833984,8.024091720581055,0.9514999389648438,87.5867919921875,7.891757488250732,0.0433925986289978,0.08241988718509674,-90.0,3.3350566752687882e-09,0.004562566056847572,0.40179404616355896,-0.02273559384047985
116,1.8600000143051147,117,walker.pedestrian.0004,vehicle.nissan.patrol_2021,57.846536,4.314659118652344,3.3300013542175293,16.068482190068,False,0.0033300013542175294,0.016068482190068,220.0,500,92.15828704833984,7.970811367034912,0.9514999389648438,87.84382629394531,7.893492698669434,0.043160323053598404,0.08241988718509674,-90.0,3.3350566752687882e-09,0.004685509484261274,0.41214340925216675,-0.02267455868422985
117,1.8600000143051147,118,walker.pedestrian.0004,vehicle.nissan.patrol_2021,57.475692,4.058418273925781,3.3300013542175293,15.965470137225028,False,0.0033300013542175294,0.01596547013722503,210.0,500,92.15828704833984,7.917531490325928,0.9514999389648438,88.09929656982422,7.895262718200684,0.04293014481663704,0.08241988718509674,-90.0,3.3350566752687882e-09,0.004781132098287344,0.42248213291168213,-0.022613525390625
118,1.8600000143051147,119,walker.pedestrian.0004,vehicle.nissan.patrol_2021,57.104908,3.8039093017578125,3.3300013542175293,15.862474543670873,False,0.0033300013542175294,0.015862474543670874,200.0,500,92.15828704833984,7.864251613616943,0.9514999389648438,88.35304260253906,7.897067546844482,0.04270179569721222,0.08241988718509674,-90.0,3.3350566752687882e-09,0.004863094538450241,0.43280652165412903,-0.0225219689309597
119,1.8600000143051147,120,walker.pedestrian.0004,vehicle.nissan.patrol_2021,56.734067,3.5509414672851562,3.3300013542175293,15.75946295356318,True,0.0033300013542175294,0.015759462953563178,190.0,500,92.15828704833984,7.810971736907959,0.9514999389648438,88.60523986816406,7.898904800415039,0.04247520491480827,0.08241988718509674,-90.0,3.3350566752687882e-09,0.0049245660193264484,0.44311195611953735,-0.02246093936264515
120,1.8600000143051147,121,walker.pedestrian.0004,vehicle.nissan.patrol_2021,56.36327,3.2997055053710938,3.3300013542175293,15.656463967293641,True,0.0033300013542175294,0.01565646396729364,170.0,500,92.15828704833984,7.757691383361816,0.9514999389648438,88.855712890625,7.90077543258667,0.04225021228194237,0.08241988718509674,-90.0,3.3350566752687882e-09,0.004965547472238541,0.4533955752849579,-0.02239990048110485
121,1.8600000143051147,122,walker.pedestrian.0004,vehicle.nissan.patrol_2021,55.99243,3.0500335693359375,3.3300013542175293,15.553452765714745,True,0.0033300013542175294,0.015553452765714746,160.0,500,92.15828704833984,7.704411506652832,0.9514999389648438,89.1046142578125,7.902679443359375,0.042026862502098083,0.08241988718509674,-90.0,3.3350566752687882e-09,0.004999698139727116,0.4636532664299011,-0.0223693810403347
122,1.8600000143051147,123,walker.pedestrian.0004,vehicle.nissan.patrol_2021,54.428539,2.963714599609375,16.40255134591417,15.119038608519574,True,0.01640255134591417,0.015119038608519575,90.0,500,92.31652069091797,7.644933223724365,0.9744638800621033,89.3482666015625,7.904911994934082,0.041478920727968216,-0.378167062997818,-100.35072326660156,-7.345832824707031,-0.016686150804162025,0.4658944308757782,-0.0325927697122097
123,1.8600000143051147,124,walker.pedestrian.0004,vehicle.nissan.patrol_2021,55.232343,2.9678421020507812,16.14719159523064,15.342317431273617,True,0.01614719159523064,0.015342317431273617,90.0,500,92.5667724609375,7.5823869705200195,1.0091112852096558,89.59342193603516,7.9070634841918945,0.041429441422224045,-3.7436468601226807,-116.39344024658203,-18.47174835205078,-0.047695208340883255,0.4643704891204834,-0.046234130859375
124,1.8600000143051147,125,walker.pedestrian.0004,vehicle.nissan.patrol_2021,54.879437,2.9699172973632812,15.896971622700603,15.244288146578889,True,0.015896971622700602,0.015244288146578888,100.0,500,92.81344604492188,7.520734786987305,1.0407733917236328,89.83706665039062,7.909156799316406,0.04121604934334755,-9.882655143737793,-131.4412384033203,-28.21101951599121,-0.07416219264268875,0.4640023112297058,-0.056823715567588806
125,1.8600000143051147,126,walker.pedestrian.0004,vehicle.nissan.patrol_2021,54.509079,2.9701461791992188,15.651842656972782,15.141410727643832,True,0.01565184265697278,0.015141410727643832,100.0,500,93.05658721923828,7.459965229034424,1.0694928169250488,90.07904052734375,7.911203384399414,0.040866125375032425,-18.135210037231445,-145.48402404785156,-36.1567268371582,-0.09621687233448029,0.46468132734298706,-0.0647582858800888
126,1.8600000143051147,127,walker.pedestrian.0004,vehicle.nissan.patrol_2021,54.138348,2.9684524536132812,15.41175963698512,15.038430015518161,True,0.015411759636985121,0.015038430015518162,100.0,500,93.29625701904297,7.400064468383789,1.0953117609024048,90.3194808959961,7.913208961486816,0.04040096327662468,-27.839685440063477,-158.90438842773438,-42.08183288574219,-0.11413928866386414,0.4663071930408478,-0.0703735277056694
127,1.8600000143051147,128,walker.pedestrian.0004,vehicle.nissan.patrol_2021,53.767517,2.964996337890625,15.176676542277384,14.935421269784998,True,0.015176676542277385,0.014935421269784997,100.0,500,93.53248596191406,7.341020107269287,1.1182719469070435,90.5582504272461,7.91518497467041,0.03984058275818825,-38.392818450927734,-172.45521545410156,-45.665767669677734,-0.12817531824111938,0.4687859117984772,-0.07403564453125
128,1.8600000143051147,129,walker.pedestrian.0004,vehicle.nissan.patrol_2021,53.392409,2.9597320556640625,14.946550515377798,14.831224761526185,True,0.014946550515377797,0.014831224761526185,100.0,500,93.76535034179688,7.282820701599121,1.1384140253067017,90.79548645019531,7.917121410369873,0.03920432925224304,-49.201622009277344,172.54605102539062,-46.09112548828125,-0.1386733204126358,0.471638023853302,-0.0757751390337944
129,1.8600000143051147,130,walker.pedestrian.0004,vehicle.nissan.patrol_2021,53.021552,2.9528121948242188,14.721337585984147,14.728208911541744,True,0.014721337585984146,0.014728208911541744,100.0,500,93.99488067626953,7.2254533767700195,1.155778169631958,91.03104400634766,7.919041156768799,0.03850925341248512,-59.487247467041016,153.51776123046875,-41.24555206298828,-0.14593380689620972,0.4744889438152313,-0.0757751315832138
130,1.8600000143051147,131,walker.pedestrian.0004,vehicle.nissan.patrol_2021,52.65075,2.9441680908203125,14.500994251647324,14.625208275726843,True,0.014500994251647324,0.014625208275726843,100.0,500,94.22112274169922,7.168906211853027,1.170404314994812,91.26506805419922,7.920936584472656,0.037771109491586685,-67.71539306640625,125.26274108886719,-26.34315299987793,-0.15023000538349152,0.47733867168426514,-0.074310302734375
131,1.8600000143051147,132,walker.pedestrian.0004,vehicle.nissan.patrol_2021,52.279886,2.9339828491210938,14.285479161257546,14.522190572513415,True,0.014285479161257546,0.014522190572513414,100.0,500,94.44412994384766,7.113168239593506,1.1823315620422363,91.49739074707031,7.922821044921875,0.03700423985719681,-70.70540618896484,84.12194061279297,1.9181278944015503,-0.15191705524921417,0.48018771409988403,-0.0716857761144638
132,1.8600000143051147,133,walker.pedestrian.0004,vehicle.nissan.patrol_2021,51.909089,2.9222412109375,14.074749390483895,14.419191394949522,True,0.014074749390483894,0.014419191394949522,100.0,500,94.6639404296875,7.058228015899658,1.1915985345840454,91.72809600830078,7.924696445465088,0.0362214669585228,-66.51936340332031,45.55202102661133,27.765113830566406,-0.15130917727947235,0.48303598165512085,-0.0681457370519638
133,1.8600000143051147,134,walker.pedestrian.0004,vehicle.nissan.patrol_2021,51.538212,2.9090194702148438,13.86876548028763,14.316170107903668,True,0.01386876548028763,0.014316170107903668,100.0,500,94.88062286376953,7.004072666168213,1.1982431411743164,91.9571762084961,7.926565170288086,0.035433579236269,-58.18452835083008,20.38378143310547,40.07535934448242,-0.14864540100097656,0.4858837425708771,-0.0639343187212944
134,1.8600000143051147,135,walker.pedestrian.0004,vehicle.nissan.patrol_2021,51.167412,2.8943710327148438,13.667482288223916,14.213169970414175,True,0.013667482288223915,0.014213169970414174,100.0,500,95.09420013427734,6.950693130493164,1.202303171157837,92.1845703125,7.928419589996338,0.034650687128305435,-48.52769470214844,3.2614715099334717,43.925960540771484,-0.14428773522377014,0.4887312650680542,-0.0592346116900444
135,1.8600000143051147,136,walker.pedestrian.0004,vehicle.nissan.patrol_2021,50.796535,2.87823486328125,13.47086355762484,14.11014848550224,True,0.01347086355762484,0.01411014848550224,100.0,500,95.30470275878906,6.89807653427124,1.2038154602050781,92.41040802001953,7.930270671844482,0.033880919218063354,-38.75188064575195,-10.24695873260498,43.47639465332031,-0.13846158981323242,0.4915792942047119,-0.0541992112994194
136,1.8600000143051147,137,walker.pedestrian.0004,vehicle.nissan.patrol_2021,50.425729,2.8608016967773438,13.278867465272254,14.007147015245508,True,0.013278867465272255,0.014007147015245507,100.0,500,95.51220703125,6.846212387084961,1.2028164863586426,92.63453674316406,7.932121276855469,0.03313148394227028,-29.420867919921875,-22.214305877685547,40.53575134277344,-0.1314401477575302,0.49442750215530396,-0.0490417443215847
137,1.8600000143051147,138,walker.pedestrian.0004,vehicle.nissan.patrol_2021,50.054857,2.84197998046875,13.091452635788077,13.90412680611745,True,0.013091452635788077,0.01390412680611745,110.0,500,95.71674346923828,6.795090198516846,1.199341893196106,92.85711669921875,7.933970928192139,0.03240825608372688,-20.898588180541992,-33.65363693237305,35.878971099853516,-0.12344200164079666,0.49727654457092285,-0.0438232347369194
138,1.8600000143051147,139,walker.pedestrian.0004,vehicle.nissan.patrol_2021,49.684051,2.8219528198242188,12.908581849423477,13.80112532430214,True,0.012908581849423477,0.01380112532430214,110.0,500,95.91836547851562,6.744699001312256,1.193427562713623,93.07798767089844,7.935811519622803,0.0317160040140152,-13.48781967163086,-45.1054801940918,29.872390747070312,-0.11477449536323547,0.5001266598701477,-0.0386962927877903
139,1.8600000143051147,140,walker.pedestrian.0004,vehicle.nissan.patrol_2021,49.313177,2.80059814453125,12.730212098219875,13.69810473880742,True,0.012730212098219874,0.013698104738807419,110.0,500,96.1170883178711,6.695027828216553,1.1851078271865845,93.29730224609375,7.9376540184021,0.031058158725500107,-7.468538284301758,-56.84827423095703,22.744741439819336,-0.10559471696615219,0.502977192401886,-0.0337524376809597
140,1.8600000143051147,141,walker.pedestrian.0004,vehicle.nissan.patrol_2021,48.942369,2.77813720703125,12.556304561384595,13.595102401448381,True,0.012556304561384594,0.013595102401448381,110.0,500,96.31297302246094,6.646068096160889,1.174417495727539,93.514892578125,7.9394989013671875,0.030437735840678215,-3.092251777648926,-68.96368408203125,14.725116729736328,-0.09606660902500153,0.5058289766311646,-0.028991693630814552
