frame,ped_height,sim_time,walker,ego,e_veloc,distance,walker_vel_ms,ego_vel_ms,ttc_less_than_200,walker_vel_mms,ego_vel_mms,TCC,TCC_threshold,w_location_x,w_location_y,w_location_z,e_location_x,e_location_y,e_location_z,w_rotation_pitch,w_rotation_yaw,w_rotation_roll,e_rotation_pitch,e_rotation_yaw,e_rotation_roll
0,1.8600000143051147,1,walker.pedestrian.0004,vehicle.nissan.patrol_2021,40.4226,49.542808532714844,0.0,11.228499976977956,False,0.0,0.011228499976977956,4410.0,500,108.44609832763672,13.049999237060547,1.1038998365402222,58.97066116333008,7.799999713897705,0.09752467274665833,-0.03139837831258774,-89.99999237060547,0.0,-0.007233169861137867,0.0,9.184964255837258e-07
1,1.8600000143051147,2,walker.pedestrian.0004,vehicle.nissan.patrol_2021,40.422589,49.363155364990234,0.0387573204934597,11.228497021947454,False,3.87573204934597e-05,0.011228497021947455,4380.0,500,108.44609832763672,13.049379348754883,1.1038998365402222,59.15034866333008,7.799999713897705,0.09690748900175095,-0.03139837831258774,-89.99999237060547,0.0,-0.007021434139460325,0.0,1.786865482245048e-06
2,1.8600000143051147,3,walker.pedestrian.0004,vehicle.nissan.patrol_2021,40.422578,49.183475494384766,0.0775146409869194,11.228493967328298,False,7.75146409869194e-05,0.011228493967328298,4350.0,500,108.44609832763672,13.048139572143555,1.1038998365402222,59.33004379272461,7.799999713897705,0.09629454463720322,-0.03139837831258774,-89.99999237060547,0.0,-0.006714075803756714,0.0,2.866479690055712e-06
3,1.8600000143051147,4,walker.pedestrian.0004,vehicle.nissan.patrol_2021,40.422567,49.00380325317383,0.1162719577550888,11.228490844679284,False,0.0001162719577550888,0.011228490844679284,4320.0,500,108.44609832763672,13.046278953552246,1.1038998365402222,59.509735107421875,7.799999713897705,0.09568572044372559,-0.03139837831258774,-89.99999237060547,0.0,-0.006345245521515608,0.0,4.175034973741276e-06
4,1.8600000143051147,5,walker.pedestrian.0004,vehicle.nissan.patrol_2021,40.422556,48.82411193847656,0.1550292819738388,11.228487704582559,False,0.0001550292819738388,0.01122848770458256,4290.0,500,108.44609832763672,13.043798446655273,1.1038998365402222,59.68942642211914,7.799999713897705,0.09508158266544342,-0.03139837831258774,-89.99999237060547,0.0,-0.005955924745649099,0.0,5.570586381509202e-06
5,1.8600000143051147,6,walker.pedestrian.0004,vehicle.nissan.patrol_2021,40.422545,48.6444206237793,0.1937865912914276,11.228484587189842,False,0.00019378659129142762,0.011228484587189842,4260.0,500,108.44609832763672,13.040698051452637,1.1038998365402222,59.86911392211914,7.799999713897705,0.09448236972093582,-0.03139837831258774,-89.99999237060547,0.0,-0.005491471849381924,0.0,7.100293260009494e-06
6,1.8600000143051147,7,walker.pedestrian.0004,vehicle.nissan.patrol_2021,40.422533,48.46470260620117,0.2325439155101776,11.228481426722112,False,0.0002325439155101776,0.011228481426722113,4230.0,500,108.44609832763672,13.03697681427002,1.1038998365402222,60.04880905151367,7.799999713897705,0.09388770163059235,-0.03139837831258774,-89.99999237060547,0.0,-0.005033849272876978,0.0,8.636443453724496e-06
7,1.8600000143051147,8,walker.pedestrian.0004,vehicle.nissan.patrol_2021,40.422522,48.28499221801758,0.2713012397289276,11.228478336094595,False,0.0002713012397289276,0.011228478336094595,4200.0,500,108.44609832763672,13.032636642456055,1.1038998365402222,60.22850036621094,7.799999713897705,0.09329824894666672,-0.03139837831258774,-89.99999237060547,0.0,-0.004576226696372032,0.0,1.0224696779914666e-05
8,1.8600000143051147,9,walker.pedestrian.0004,vehicle.nissan.patrol_2021,40.422511,48.105262756347656,0.3100585639476776,11.228475284077911,False,0.0003100585639476776,0.01122847528407791,4170.0,500,108.44609832763672,13.02767562866211,1.1038998365402222,60.4081916809082,7.799999713897705,0.09271391481161118,-0.03139837831258774,-89.99999237060547,0.0,-0.004118603654205799,0.0,1.1697877198457718e-05
9,1.8600000143051147,10,walker.pedestrian.0004,vehicle.nissan.patrol_2021,40.4225,47.92552947998047,0.3488158583641052,11.228472274761288,False,0.0003488158583641052,0.011228472274761288,4140.0,500,108.44609832763672,13.0220947265625,1.1038998365402222,60.58788299560547,7.799999713897705,0.09213442355394363,-0.03139837831258774,-89.99999237060547,0.0,-0.0036336604971438646,1.4022915641176414e-11,1.3180429050407838e-05
10,1.8600000143051147,11,walker.pedestrian.0004,vehicle.nissan.patrol_2021,40.422489,47.74578094482422,0.3875731825828552,11.228469282029298,False,0.00038757318258285524,0.011228469282029299,4110.0,500,108.44609832763672,13.01589298248291,1.1038998365402222,60.767578125,7.799999713897705,0.0915602371096611,-0.03139837831258774,-89.99999237060547,0.0,-0.0031760376878082752,7.300098026075119e-11,1.4590996215702035e-05
11,1.8600000143051147,12,walker.pedestrian.0004,vehicle.nissan.patrol_2021,40.422479,47.56603240966797,0.4263305068016052,11.228466363546044,False,0.00042633050680160523,0.011228466363546043,4080.0,500,108.44609832763672,13.009072303771973,1.1038998365402222,60.947269439697266,7.799999713897705,0.09099112451076508,-0.03139837831258774,-89.99999237060547,0.0,-0.0027184151113033295,1.433574786657843e-10,1.5952507965266705e-05
12,1.8600000143051147,13,walker.pedestrian.0004,vehicle.nissan.patrol_2021,40.422469,47.38626480102539,0.4650878310203552,11.22846349315426,False,0.0004650878310203552,0.01122846349315426,4050.0,500,108.44609832763672,13.001630783081055,1.1038998365402222,61.12696075439453,7.799999713897705,0.09042707830667496,-0.03139837831258774,-89.99999237060547,0.0,-0.002288113348186016,2.244772562276509e-10,1.7239324733964168e-05
13,1.8600000143051147,14,walker.pedestrian.0004,vehicle.nissan.patrol_2021,40.422458,47.20649337768555,0.5038451552391052,11.228460689086827,False,0.0005038451552391053,0.011228460689086827,4019.9999999999995,500,108.44609832763672,12.993569374084473,1.1038998365402222,61.3066520690918,7.799999713897705,0.08986803889274597,-0.03139837831258774,-89.99999237060547,0.0,-0.001857811352238059,3.158123762503351e-10,1.8298427676199935e-05
14,1.8600000143051147,15,walker.pedestrian.0004,vehicle.nissan.patrol_2021,40.422449,47.02671432495117,0.5426024794578552,11.228457934393221,False,0.0005426024794578552,0.011228457934393221,4000.0,500,108.44609832763672,12.98488712310791,1.1038998365402222,61.48634719848633,7.799999713897705,0.08931410312652588,-0.03139837831258774,-89.99999237060547,0.0,-0.001495811389759183,4.1434738973222807e-10,1.9239396351622418e-05
15,1.8600000143051147,16,walker.pedestrian.0004,vehicle.nissan.patrol_2021,40.422439,46.846923828125,0.5813598036766052,11.228455274124755,False,0.0005813598036766052,0.011228455274124756,3970.0,500,108.44609832763672,12.9755859375,1.1038998365402222,61.66603469848633,7.799999713897705,0.08876486867666245,-0.03139837831258774,-89.99999237060547,0.0,-0.001126981107518077,5.187758000957388e-10,2.00505273824092e-05
16,1.8600000143051147,17,walker.pedestrian.0004,vehicle.nissan.patrol_2021,40.42243,46.6671257019043,0.6201171278953552,11.228452652197545,False,0.0006201171278953552,0.011228452652197544,3940.0,500,108.44609832763672,12.96566390991211,1.1038998365402222,61.845726013183594,7.799999713897705,0.08822035789489746,-0.03139837831258774,-89.99999237060547,0.0,-0.0007923019002191722,6.275168717984059e-10,2.0764644432347268e-05
17,1.8600000143051147,18,walker.pedestrian.0004,vehicle.nissan.patrol_2021,40.42242,46.48731231689453,0.6588743925094604,11.228450099906699,False,0.0006588743925094604,0.011228450099906698,3910.0,500,108.44609832763672,12.955121994018555,1.1038998365402222,62.02541732788086,7.799999713897705,0.08768061548471451,-0.03139837831258774,-89.99999237060547,0.0,-0.0004917735932394862,7.396210310872675e-10,2.1445734091685154e-05
18,1.8600000143051147,19,walker.pedestrian.0004,vehicle.nissan.patrol_2021,40.422411,46.307498931884766,0.6976317167282104,11.228447617232638,False,0.0006976317167282104,0.011228447617232637,3880.0,500,108.44609832763672,12.94395923614502,1.1038998365402222,62.20510482788086,7.799999713897705,0.08714544773101807,-0.03139837831258774,-89.99999237060547,0.0,-0.0002458867966197431,8.542579976733577e-10,2.1980351448291913e-05
19,1.8600000143051147,20,walker.pedestrian.0004,vehicle.nissan.patrol_2021,40.422403,46.12767028808594,0.7363890409469604,11.228445224362464,False,0.0007363890409469605,0.011228445224362463,3860.0,500,108.44609832763672,12.932177543640137,1.1038998365402222,62.38479995727539,7.799999713897705,0.08661463856697083,-0.03139837831258774,-89.99999237060547,0.0,6.830188794992864e-06,9.704793635378905e-10,2.2437987354351208e-05
20,1.8600000143051147,21,walker.pedestrian.0004,vehicle.nissan.patrol_2021,40.422394,45.947837829589844,0.7751463651657104,11.228442854623124,False,0.0007751463651657105,0.011228442854623124,3830.0,500,108.44609832763672,12.919775009155273,1.1038998365402222,62.56448745727539,7.799999713897705,0.08608812838792801,-0.03139837831258774,-89.99999237060547,0.0,0.00021856604143977165,1.0876800571324452e-09,2.2846417778055184e-05
21,1.8600000143051147,22,walker.pedestrian.0004,vehicle.nissan.patrol_2021,40.422386,45.76799392700195,0.8139036893844604,11.22844055497929,False,0.0008139036893844605,0.01122844055497929,3800.0,500,108.44609832763672,12.906752586364746,1.1038998365402222,62.74417495727539,7.799999713897705,0.08556559681892395,-0.03139837831258774,-89.99999237060547,0.0,0.0003961509501095861,1.2054800491156925e-09,2.3207738195196725e-05
22,1.8600000143051147,23,walker.pedestrian.0004,vehicle.nissan.patrol_2021,40.422378,45.58814239501953,0.8526610136032104,11.228438325367717,False,0.0008526610136032105,0.011228438325367717,3770.0,500,108.44609832763672,12.893110275268555,1.1038998365402222,62.923866271972656,7.799999713897705,0.08504732698202133,-0.03139837831258774,-89.99999237060547,0.0,0.0005532453069463372,1.3235319507032273e-09,2.3540893380413763e-05
23,1.8600000143051147,24,walker.pedestrian.0004,vehicle.nissan.patrol_2021,40.42237,45.40827941894531,0.8914183378219604,11.228436149706626,False,0.0008914183378219605,0.011228436149706627,3750.0,500,108.44609832763672,12.878847122192383,1.1038998365402222,63.103553771972656,7.799999713897705,0.08453314751386642,-0.03139837831258774,-89.99999237060547,0.0,0.0006761886761523783,1.4412978588396186e-09,2.3734686692478135e-05
24,1.8600000143051147,25,walker.pedestrian.0004,vehicle.nissan.patrol_2021,40.422362,45.228416442871094,0.9301756620407104,11.22843402370097,False,0.0009301756620407104,0.01122843402370097,3720.0,500,108.44609832763672,12.863964080810547,1.1038998365402222,63.283241271972656,7.799999713897705,0.0840226262807846,-0.03139837831258774,-89.99999237060547,0.0,0.000778641551733017,1.5586404389367203e-09,2.3878657884779386e-05
25,1.8600000143051147,26,walker.pedestrian.0004,vehicle.nissan.patrol_2021,40.422355,45.04853057861328,0.9689329862594604,11.22843194629205,False,0.0009689329862594604,0.01122843194629205,3690.0,500,108.44609832763672,12.848461151123047,1.1038998365402222,63.462928771972656,7.799999713897705,0.08351584523916245,-0.03139837831258774,-89.99999237060547,0.0,0.000778641551733017,1.5586404389367203e-09,2.3878657884779386e-05
26,1.8600000143051147,27,walker.pedestrian.0004,vehicle.nissan.patrol_2021,40.422348,44.868648529052734,1.0076903104782104,11.228429991038658,False,0.0010076903104782105,0.011228429991038657,3670.0,500,108.44609832763672,12.832338333129883,1.0992763042449951,63.642616271972656,7.799999713897705,0.08301237970590591,-0.03139837831258774,-89.99999237060547,0.0,0.0009084151242859662,1.7919212780270755e-09,2.4091701561701484e-05
27,1.8600000143051147,28,walker.pedestrian.0004,vehicle.nissan.patrol_2021,40.422341,44.688743591308594,1.0464476346969604,11.228427939889574,False,0.0010464476346969604,0.011228427939889573,3640.0,500,108.44609832763672,12.815595626831055,1.0946661233901978,63.82230758666992,7.799999713897705,0.08251261711120605,-0.03139837831258774,-89.99999237060547,0.0,0.0009084151242859662,1.7919212780270755e-09,2.4091701561701484e-05
28,1.8600000143051147,29,walker.pedestrian.0004,vehicle.nissan.patrol_2021,40.422334,44.508827209472656,1.0852049589157104,11.228426042435888,False,0.0010852049589157105,0.011228426042435888,3610.0,500,108.44609832763672,12.798232078552246,1.08804190158844,64.00199890136719,7.799999713897705,0.08201628178358078,-0.03139837831258774,-89.99999237060547,0.0,0.0009084151242859662,1.7919212780270755e-09,2.4091701561701484e-05
29,1.8600000143051147,30,walker.pedestrian.0004,vehicle.nissan.patrol_2021,40.422327,44.32891082763672,1.1239622831344604,11.228424165386514,False,0.0011239622831344604,0.011228424165386514,3590.0,500,108.44609832763672,12.780248641967773,1.0789591073989868,64.18168640136719,7.799999713897705,0.0815233513712883,-0.03139837831258774,-89.99999237060547,0.0,0.0009084151242859662,1.7919212780270755e-09,2.4091701561701484e-05
30,1.8600000143051147,31,walker.pedestrian.0004,vehicle.nissan.patrol_2021,40.42232,44.14898681640625,1.1627196073532104,11.22842230568368,False,0.0011627196073532105,0.01122842230568368,3560.0,500,108.44609832763672,12.761645317077637,1.0667524337768555,64.36137390136719,7.799999713897705,0.08103346824645996,-0.03139837831258774,-89.99999237060547,0.0,0.0009084151242859662,1.7919212780270755e-09,2.4091701561701484e-05
31,1.8600000143051147,32,walker.pedestrian.0004,vehicle.nissan.patrol_2021,40.422314,43.96905517578125,1.2014769315719604,11.228420478221523,False,0.0012014769315719603,0.011228420478221523,3540.0,500,108.44609832763672,12.74242115020752,1.0503151416778564,64.54106140136719,7.799999713897705,0.08054697513580322,-0.03139837831258774,-89.99999237060547,0.0,0.0009084151242859662,1.7919212780270755e-09,2.4091701561701484e-05
32,1.8600000143051147,33,walker.pedestrian.0004,vehicle.nissan.patrol_2021,40.422307,43.78911590576172,1.2402342557907104,11.228418666285814,False,0.0012402342557907104,0.011228418666285813,3510.0,500,108.44609832763672,12.722578048706055,1.018890142440796,64.72074127197266,7.799999713897705,0.08006342500448227,-0.03139837831258774,-89.99999237060547,0.0,0.0009084151242859662,1.7919212780270755e-09,2.4091701561701484e-05
33,1.8600000143051147,34,walker.pedestrian.0004,vehicle.nissan.patrol_2021,40.422301,43.609161376953125,1.2789915800094604,11.228416881525488,False,0.0012789915800094605,0.011228416881525488,3490.0,500,108.44609832763672,12.70211410522461,0.9900721311569214,64.90042877197266,7.799999713897705,0.07958319783210754,-0.03139837831258774,-89.99999237060547,0.0,0.0009084151242859662,1.7919212780270755e-09,2.4091701561701484e-05
34,1.8600000143051147,35,walker.pedestrian.0004,vehicle.nissan.patrol_2021,40.422294,43.42919921875,1.317748785018921,11.228415118711819,False,0.0013177487850189208,0.011228415118711818,3460.0,500,108.44609832763672,12.6810302734375,0.9514999985694885,65.08011627197266,7.799999713897705,0.07910605520009995,-0.03139837831258774,-89.99999237060547,0.0,0.0009084151242859662,1.7919212780270755e-09,2.4091701561701484e-05
35,1.8600000143051147,36,walker.pedestrian.0004,vehicle.nissan.patrol_2021,40.422288,43.249229431152344,1.356506109237671,11.228413373862516,False,0.001356506109237671,0.011228413373862515,3440.0,500,108.44609832763672,12.65932559967041,0.9514999985694885,65.25980377197266,7.799999713897705,0.07863184809684753,-0.03139837831258774,-89.99999237060547,0.0,0.0007649811450392008,2.819606992332524e-09,2.3680617232457735e-05
36,1.8600000143051147,37,walker.pedestrian.0004,vehicle.nissan.patrol_2021,40.422282,43.069244384765625,1.395263433456421,11.228411771750341,False,0.0013952634334564208,0.011228411771750341,3410.0,500,108.44609832763672,12.637001991271973,0.9514999985694885,65.43949127197266,7.799999713897705,0.0781601220369339,-0.03139837831258774,-89.99999237060547,0.0,0.0007649811450392008,2.819606992332524e-09,2.3680617232457735e-05
37,1.8600000143051147,38,walker.pedestrian.0004,vehicle.nissan.patrol_2021,40.422276,42.889259338378906,1.434020757675171,11.228410079096788,False,0.001434020757675171,0.011228410079096788,3390.0,500,108.44609832763672,12.614057540893555,0.9514999985694885,65.61917877197266,7.799999713897705,0.07769167423248291,-0.03139837831258774,-89.99999237060547,0.0,0.0006488679209724069,3.046159990915953e-09,2.351843795622699e-05
38,1.8600000143051147,39,walker.pedestrian.0004,vehicle.nissan.patrol_2021,40.422271,42.709259033203125,1.472778081893921,11.228408499389717,False,0.001472778081893921,0.011228408499389718,3360.0,500,108.44609832763672,12.590493202209473,0.9514999985694885,65.79886627197266,7.799999713897705,0.07722586393356323,-0.03139837831258774,-89.99999237060547,0.0,0.0006488679209724069,3.046159990915953e-09,2.351843795622699e-05
39,1.8600000143051147,40,walker.pedestrian.0004,vehicle.nissan.patrol_2021,40.422265,42.52925109863281,1.511535406112671,11.228406836799236,False,0.0015115354061126709,0.011228406836799236,3340.0,500,108.44609832763672,12.56630802154541,0.9514999985694885,65.97855377197266,7.799999713897705,0.07676295191049576,-0.03139837831258774,-89.99999237060547,0.0,0.0005327546969056129,3.272974558043984e-09,2.337584191991482e-05
40,1.8600000143051147,41,walker.pedestrian.0004,vehicle.nissan.patrol_2021,40.422259,42.34923553466797,1.550292730331421,11.228405299887408,False,0.001550292730331421,0.011228405299887407,3310.0,500,108.44609832763672,12.54150390625,0.9514999985694885,66.15824127197266,7.799999713897705,0.07630270719528198,-0.03139837831258774,-89.99999237060547,0.0,0.0005327546969056129,3.272974558043984e-09,2.337584191991482e-05
41,1.8600000143051147,42,walker.pedestrian.0004,vehicle.nissan.patrol_2021,40.422253,42.169212341308594,1.589050054550171,11.228403679526862,False,0.0015890500545501709,0.011228403679526862,3290.0,500,108.44609832763672,12.51607894897461,0.9514999985694885,66.33792114257812,7.799999713897705,0.07584532350301743,-0.03139837831258774,-89.99999237060547,0.0,0.00040981132769957185,3.500046474869123e-09,2.3175794922281057e-05
42,1.8600000143051147,43,walker.pedestrian.0004,vehicle.nissan.patrol_2021,40.422248,41.98918151855469,1.627807378768921,11.22840218382379,False,0.001627807378768921,0.011228402183823791,3270.0,500,108.44609832763672,12.490034103393555,0.9514999985694885,66.51760864257812,7.799999713897705,0.07539061456918716,-0.03139837831258774,-89.99999237060547,0.0,0.00040981132769957185,3.500046474869123e-09,2.3175794922281057e-05
43,1.8600000143051147,44,walker.pedestrian.0004,vehicle.nissan.patrol_2021,40.422242,41.80914306640625,1.640014410018921,11.22840059966768,False,0.001640014410018921,0.01122840059966768,3250.0,500,108.44609832763672,12.463793754577637,0.9514999985694885,66.69729614257812,7.799999713897705,0.0749385729432106,-0.03139837831258774,-89.99999237060547,0.0,0.000300528306979686,3.727905095729511e-09,2.3225335098686628e-05
44,1.8600000143051147,45,walker.pedestrian.0004,vehicle.nissan.patrol_2021,40.422237,41.62910461425781,1.640014410018921,11.228399133696232,False,0.001640014410018921,0.011228399133696233,3230.0,500,108.44609832763672,12.437553405761719,0.9514999985694885,66.87698364257812,7.799999713897705,0.07448923587799072,-0.03139837831258774,-89.99999237060547,0.0,0.000300528306979686,3.727905095729511e-09,2.3225335098686628e-05
45,1.8600000143051147,46,walker.pedestrian.0004,vehicle.nissan.patrol_2021,40.422231,41.449066162109375,1.640014410018921,11.228397585611743,False,0.001640014410018921,0.011228397585611742,3220.0,500,108.44609832763672,12.4113130569458,0.9514999985694885,67.05667114257812,7.799999713897705,0.07404261082410812,-0.03139837831258774,-89.99999237060547,0.0,0.000300528306979686,3.727905095729511e-09,2.3225335098686628e-05
46,1.8600000143051147,47,walker.pedestrian.0004,vehicle.nissan.patrol_2021,40.422226,41.269020080566406,1.640014410018921,11.228396067591886,False,0.001640014410018921,0.011228396067591885,3210.0,500,108.44609832763672,12.385072708129883,0.9514999985694885,67.23635864257812,7.799999713897705,0.07359889149665833,-0.03139837831258774,-89.99999237060547,0.0,0.00015709434228483588,4.070068726491627e-09,2.3209744540508837e-05
47,1.8600000143051147,48,walker.pedestrian.0004,vehicle.nissan.patrol_2021,40.422221,41.08898162841797,1.640014410018921,11.228394677145184,False,0.001640014410018921,0.011228394677145185,3190.0,500,108.44609832763672,12.358832359313965,0.9514999985694885,67.41604614257812,7.799999713897705,0.07315745204687119,-0.03139837831258774,-89.99999237060547,0.0,0.00015709434228483588,4.070068726491627e-09,2.3209744540508837e-05
48,1.8600000143051147,49,walker.pedestrian.0004,vehicle.nissan.patrol_2021,40.422215,40.908935546875,1.640014410018921,11.228393190688443,False,0.001640014410018921,0.011228393190688444,3180.0,500,108.44609832763672,12.332592964172363,0.9514999985694885,67.59573364257812,7.799999713897705,0.07271876186132431,-0.03139837831258774,-89.99999237060547,0.0,0.00015709434228483588,4.070068726491627e-09,2.3209744540508837e-05
49,1.8600000143051147,50,walker.pedestrian.0004,vehicle.nissan.patrol_2021,40.42221,40.728904724121094,1.640014410018921,11.228391719281904,False,0.001640014410018921,0.011228391719281904,3170.0,500,108.44609832763672,12.306352615356445,0.9514999985694885,67.77542114257812,7.799999713897705,0.07228278368711472,-0.03139837831258774,-89.99999237060547,0.0,4.0981132769957185e-05,4.413104548461888e-09,2.305020097992383e-05
50,1.8600000143051147,51,walker.pedestrian.0004,vehicle.nissan.patrol_2021,40.422205,40.548866271972656,1.640014410018921,11.228390364933077,False,0.001640014410018921,0.011228390364933076,3150.0,500,108.44609832763672,12.280112266540527,0.9514999985694885,67.95510864257812,7.799999713897705,0.07184931635856628,-0.03139837831258774,-89.99999237060547,0.0,4.0981132769957185e-05,4.413104548461888e-09,2.305020097992383e-05
51,1.8600000143051147,52,walker.pedestrian.0004,vehicle.nissan.patrol_2021,40.4222,40.36882019042969,1.640014410018921,11.22838893014718,False,0.001640014410018921,0.01122838893014718,3140.0,500,108.44609832763672,12.25387191772461,0.9514999985694885,68.13479614257812,7.799999713897705,0.07141852378845215,-0.03139837831258774,-89.99999237060547,0.0,4.0981132769957185e-05,4.413104548461888e-09,2.305020097992383e-05
52,1.8600000143051147,53,walker.pedestrian.0004,vehicle.nissan.patrol_2021,40.422195,40.18878936767578,1.640014410018921,11.22838751833638,False,0.001640014410018921,0.01122838751833638,3120.0,500,108.44609832763672,12.227631568908691,0.9514999985694885,68.31448364257812,7.799999713897705,0.07099051028490067,-0.03139837831258774,-89.99999237060547,0.0,4.0981132769957185e-05,4.413104548461888e-09,2.305020097992383e-05
53,1.8600000143051147,54,walker.pedestrian.0004,vehicle.nissan.patrol_2021,40.42219,40.008750915527344,1.640014410018921,11.228386121557042,False,0.001640014410018921,0.011228386121557042,3110.0,500,108.44609832763672,12.201391220092773,0.9514999985694885,68.49417114257812,7.799999713897705,0.07056517153978348,-0.03139837831258774,-89.99999237060547,0.0,4.0981132769957185e-05,4.413104548461888e-09,2.305020097992383e-05
54,1.8600000143051147,55,walker.pedestrian.0004,vehicle.nissan.patrol_2021,40.422185,39.828704833984375,1.640014410018921,11.228384743834257,False,0.001640014410018921,0.011228384743834257,3100.0,500,108.44609832763672,12.175150871276855,0.9514999985694885,68.67385864257812,7.799999713897705,0.07014250755310059,-0.03139837831258774,-89.99999237060547,0.0,-6.147169915493578e-05,4.987166679626398e-09,2.289622170792427e-05
55,1.8600000143051147,56,walker.pedestrian.0004,vehicle.nissan.patrol_2021,40.42218,39.64866638183594,1.640014410018921,11.228383457030203,False,0.001640014410018921,0.011228383457030203,3080.0,500,108.44609832763672,12.148910522460938,0.9514999985694885,68.85354614257812,7.799999713897705,0.06972216814756393,-0.03139837831258774,-89.99999237060547,0.0,-6.147169915493578e-05,4.987166679626398e-09,2.289622170792427e-05
56,1.8600000143051147,57,walker.pedestrian.0004,vehicle.nissan.patrol_2021,40.422176,39.4686279296875,1.640014410018921,11.228382111921478,False,0.001640014410018921,0.011228382111921478,3070.0,500,108.44609832763672,12.12267017364502,0.9514999985694885,69.03323364257812,7.799999713897705,0.06930441409349442,-0.03139837831258774,-89.99999237060547,0.0,-6.147169915493578e-05,4.987166679626398e-09,2.289622170792427e-05
57,1.8600000143051147,58,walker.pedestrian.0004,vehicle.nissan.patrol_2021,40.422171,39.28858947753906,1.640014410018921,11.228380783589706,False,0.001640014410018921,0.011228380783589707,3050.0,500,108.44609832763672,12.096430778503418,0.9514999985694885,69.21292114257812,7.799999713897705,0.06888934224843979,-0.03139837831258774,-89.99999237060547,0.0,-6.147169915493578e-05,4.987166679626398e-09,2.289622170792427e-05
58,1.8600000143051147,59,walker.pedestrian.0004,vehicle.nissan.patrol_2021,40.422166,39.108551025390625,1.640014410018921,11.22837947178209,False,0.001640014410018921,0.01122837947178209,3040.0,500,108.44609832763672,12.0701904296875,0.9514999985694885,69.39260864257812,7.799999713897705,0.0684768557548523,-0.03139837831258774,-89.99999237060547,0.0,-6.147169915493578e-05,4.987166679626398e-09,2.289622170792427e-05
59,1.8600000143051147,60,walker.pedestrian.0004,vehicle.nissan.patrol_2021,40.422161,38.92851257324219,1.640014410018921,11.228378177971264,False,0.001640014410018921,0.011228378177971263,3030.0,500,108.44609832763672,12.043950080871582,0.9514999985694885,69.57229614257812,7.799999713897705,0.06806700676679611,-0.03139837831258774,-89.99999237060547,0.0,-6.147169915493578e-05,4.987166679626398e-09,2.289622170792427e-05
60,1.8600000143051147,61,walker.pedestrian.0004,vehicle.nissan.patrol_2021,40.422157,38.74847412109375,1.640014410018921,11.228376900418464,False,0.001640014410018921,0.011228376900418464,3010.0,500,108.44609832763672,12.017709732055664,0.9514999985694885,69.75198364257812,7.799999713897705,0.06765978783369064,-0.03139837831258774,-89.99999237060547,0.0,-6.147169915493578e-05,4.987166679626398e-09,2.289622170792427e-05
61,1.8600000143051147,62,walker.pedestrian.0004,vehicle.nissan.patrol_2021,40.422152,38.56843566894531,1.640014410018921,11.228375636505431,False,0.001640014410018921,0.01122837563650543,3000.0,500,108.44609832763672,11.991469383239746,0.9514999985694885,69.93167114257812,7.799999713897705,0.0672551617026329,-0.03139837831258774,-89.99999237060547,0.0,-6.147169915493578e-05,4.987166679626398e-09,2.289622170792427e-05
62,1.8600000143051147,63,walker.pedestrian.0004,vehicle.nissan.patrol_2021,40.422148,38.388397216796875,1.640014410018921,11.228374390342225,False,0.001640014410018921,0.011228374390342225,2980.0,500,108.44609832763672,11.965229034423828,0.9514999985694885,70.11135864257812,7.799999713897705,0.06685297936201096,-0.03139837831258774,-89.99999237060547,0.0,-6.147169915493578e-05,4.987166679626398e-09,2.289622170792427e-05
63,1.8600000143051147,64,walker.pedestrian.0004,vehicle.nissan.patrol_2021,40.422143,38.208351135253906,1.640014410018921,11.228373158062304,False,0.001640014410018921,0.011228373158062304,2970.0,500,108.44609832763672,11.93898868560791,0.9514999985694885,70.29104614257812,7.799999713897705,0.06645335257053375,-0.03139837831258774,-89.99999237060547,0.0,-6.147169915493578e-05,4.987166679626398e-09,2.289622170792427e-05
64,1.8600000143051147,65,walker.pedestrian.0004,vehicle.nissan.patrol_2021,40.422139,38.0283203125,1.640014410018921,11.228371943071163,False,0.001640014410018921,0.011228371943071164,2960.0,500,108.44609832763672,11.912748336791992,0.9514999985694885,70.47073364257812,7.799999713897705,0.0660562813282013,-0.03139837831258774,-89.99999237060547,0.0,-6.147169915493578e-05,4.987166679626398e-09,2.289622170792427e-05
65,1.8600000143051147,66,walker.pedestrian.0004,vehicle.nissan.patrol_2021,40.422135,37.84828186035156,1.640014410018921,11.228370742162095,False,0.001640014410018921,0.011228370742162095,2940.0,500,108.44609832763672,11.88650894165039,0.9514999985694885,70.65042114257812,7.799999713897705,0.06566168367862701,-0.03139837831258774,-89.99999237060547,0.0,-6.147169915493578e-05,4.987166679626398e-09,2.289622170792427e-05
66,1.8600000143051147,67,walker.pedestrian.0004,vehicle.nissan.patrol_2021,40.42213,37.668235778808594,1.640014410018921,11.228369559443905,False,0.001640014410018921,0.011228369559443905,2930.0,500,108.44609832763672,11.860268592834473,0.9514999985694885,70.83010864257812,7.799999713897705,0.06526961177587509,-0.03139837831258774,-89.99999237060547,0.0,-6.147169915493578e-05,4.987166679626398e-09,2.289622170792427e-05
67,1.8600000143051147,68,walker.pedestrian.0004,vehicle.nissan.patrol_2021,40.422126,37.488197326660156,1.640014410018921,11.228368389235056,False,0.001640014410018921,0.011228368389235056,2910.0,500,108.44609832763672,11.834028244018555,0.9514999985694885,71.00979614257812,7.799999713897705,0.06488001346588135,-0.03139837831258774,-89.99999237060547,0.0,-6.147169915493578e-05,4.987166679626398e-09,2.289622170792427e-05
68,1.8600000143051147,69,walker.pedestrian.0004,vehicle.nissan.patrol_2021,40.422122,37.30815887451172,1.640014410018921,11.228367235736208,False,0.001640014410018921,0.011228367235736208,2900.0,500,108.44609832763672,11.807787895202637,0.9514999985694885,71.18948364257812,7.799999713897705,0.06449290364980698,-0.03139837831258774,-89.99999237060547,0.0,-6.147169915493578e-05,4.987166679626398e-09,2.289622170792427e-05
69,1.8600000143051147,70,walker.pedestrian.0004,vehicle.nissan.patrol_2021,40.422118,37.12812042236328,1.640014410018921,11.228366092203528,False,0.001640014410018921,0.011228366092203528,2890.0,500,108.44609832763672,11.781547546386719,0.9514999985694885,71.36917114257812,7.799999713897705,0.0641082301735878,-0.03139837831258774,-89.99999237060547,0.0,-6.147169915493578e-05,4.987166679626398e-09,2.289622170792427e-05
70,1.8600000143051147,71,walker.pedestrian.0004,vehicle.nissan.patrol_2021,40.422114,36.94807434082031,1.640014410018921,11.228364969220515,False,0.001640014410018921,0.011228364969220514,2870.0,500,108.44609832763672,11.7553071975708,0.9514999985694885,71.54885864257812,7.799999713897705,0.06372599303722382,-0.03139837831258774,-89.99999237060547,0.0,-6.147169915493578e-05,4.987166679626398e-09,2.289622170792427e-05
71,1.8600000143051147,72,walker.pedestrian.0004,vehicle.nissan.patrol_2021,40.42211,36.768035888671875,1.640014410018921,11.228363858074369,False,0.001640014410018921,0.011228363858074368,2860.0,500,108.44609832763672,11.729066848754883,0.9514999985694885,71.72854614257812,7.799999713897705,0.06334628164768219,-0.03139837831258774,-89.99999237060547,0.0,-6.147169915493578e-05,4.987166679626398e-09,2.289622170792427e-05
72,1.8600000143051147,73,walker.pedestrian.0004,vehicle.nissan.patrol_2021,40.422106,36.58800506591797,1.640014410018921,11.228362761074509,False,0.001640014410018921,0.01122836276107451,2840.0,500,108.44609832763672,11.702826499938965,0.9514999985694885,71.90823364257812,7.799999713897705,0.06296893209218979,-0.03139837831258774,-89.99999237060547,0.0,-6.147169915493578e-05,4.987166679626398e-09,2.289622170792427e-05
73,1.8600000143051147,74,walker.pedestrian.0004,vehicle.nissan.patrol_2021,40.422102,36.407958984375,1.640014410018921,11.228361677623031,False,0.001640014410018921,0.011228361677623032,2830.0,500,108.44609832763672,11.676587104797363,0.9514999985694885,72.08792114257812,7.799999713897705,0.06259394437074661,-0.03139837831258774,-89.99999237060547,0.0,-6.147169915493578e-05,4.987166679626398e-09,2.289622170792427e-05
74,1.8600000143051147,75,walker.pedestrian.0004,vehicle.nissan.patrol_2021,40.422098,36.22792053222656,1.640014410018921,11.22836060707723,False,0.001640014410018921,0.01122836060707723,2820.0,500,108.44609832763672,11.650346755981445,0.9514999985694885,72.26760864257812,7.799999713897705,0.06222140043973923,-0.03139837831258774,-89.99999237060547,0.0,-6.147169915493578e-05,4.987166679626398e-09,2.289622170792427e-05
75,1.8600000143051147,76,walker.pedestrian.0004,vehicle.nissan.patrol_2021,40.422094,36.047882080078125,1.640014410018921,11.228359552417858,False,0.001640014410018921,0.011228359552417858,2800.0,500,108.44609832763672,11.624106407165527,0.9514999985694885,72.44729614257812,7.799999713897705,0.06185126304626465,-0.03139837831258774,-89.99999237060547,0.0,-6.147169915493578e-05,4.987166679626398e-09,2.289622170792427e-05
76,1.8600000143051147,77,walker.pedestrian.0004,vehicle.nissan.patrol_2021,40.422091,35.86784362792969,1.640014410018921,11.228358507559781,False,0.001640014410018921,0.011228358507559781,2790.0,500,108.44609832763672,11.59786605834961,0.9514999985694885,72.62698364257812,7.799999713897705,0.06148337200284004,-0.03139837831258774,-89.99999237060547,0.0,-6.147169915493578e-05,4.987166679626398e-09,2.289622170792427e-05
77,1.8600000143051147,78,walker.pedestrian.0004,vehicle.nissan.patrol_2021,40.422087,35.68780517578125,1.640014410018921,11.228357482022254,False,0.001640014410018921,0.011228357482022253,2770.0,500,108.44609832763672,11.571625709533691,0.9514999985694885,72.80667114257812,7.799999713897705,0.06111792474985123,-0.03139837831258774,-89.99999237060547,0.0,-6.147169915493578e-05,4.987166679626398e-09,2.289622170792427e-05
78,1.8600000143051147,79,walker.pedestrian.0004,vehicle.nissan.patrol_2021,40.422083,35.50776672363281,1.640014410018921,11.228356462000093,False,0.001640014410018921,0.011228356462000093,2760.0,500,108.44609832763672,11.545385360717773,0.9514999985694885,72.98635864257812,7.799999713897705,0.06075472757220268,-0.03139837831258774,-89.99999237060547,0.0,-6.147169915493578e-05,4.987166679626398e-09,2.289622170792427e-05
79,1.8600000143051147,80,walker.pedestrian.0004,vehicle.nissan.patrol_2021,40.42208,35.327728271484375,1.640014410018921,11.228355459208654,False,0.001640014410018921,0.011228355459208654,2750.0,500,108.44609832763672,11.519145011901855,0.9514999985694885,73.16604614257812,7.799999713897705,0.06039385497570038,-0.03139837831258774,-89.99999237060547,0.0,-6.147169915493578e-05,4.987166679626398e-09,2.289622170792427e-05
80,1.8600000143051147,81,walker.pedestrian.0004,vehicle.nissan.patrol_2021,40.422076,35.14768981933594,1.640014410018921,11.228354466878299,False,0.001640014410018921,0.0112283544668783,2730.0,500,108.44609832763672,11.492904663085938,0.9514999985694885,73.34573364257812,7.799999713897705,0.060035236179828644,-0.03139837831258774,-89.99999237060547,0.0,-6.147169915493578e-05,4.987166679626398e-09,2.289622170792427e-05
81,1.8600000143051147,82,walker.pedestrian.0004,vehicle.nissan.patrol_2021,40.422073,34.9676513671875,1.640014410018921,11.228353487896769,False,0.001640014410018921,0.011228353487896768,2720.0,500,108.44609832763672,11.46666431427002,0.9514999985694885,73.52542114257812,7.799999713897705,0.059678904712200165,-0.03139837831258774,-89.99999237060547,0.0,-6.147169915493578e-05,4.987166679626398e-09,2.289622170792427e-05
82,1.8600000143051147,83,walker.pedestrian.0004,vehicle.nissan.patrol_2021,40.422069,34.78760528564453,1.640014410018921,11.228352525854424,False,0.001640014410018921,0.011228352525854425,2700.0,500,108.44609832763672,11.440424919128418,0.9514999985694885,73.70510864257812,7.799999713897705,0.05932497978210449,-0.03139837831258774,-89.99999237060547,0.0,-6.147169915493578e-05,4.987166679626398e-09,2.289622170792427e-05
83,1.8600000143051147,84,walker.pedestrian.0004,vehicle.nissan.patrol_2021,40.422066,34.607566833496094,1.640014410018921,11.228351568059654,False,0.001640014410018921,0.011228351568059654,2690.0,500,108.44609832763672,11.4141845703125,0.9514999985694885,73.88479614257812,7.799999713897705,0.058973148465156555,-0.03139837831258774,-89.99999237060547,0.0,2.7320755179971457e-05,8.335516277213628e-09,2.294578189321328e-05
84,1.8600000143051147,85,walker.pedestrian.0004,vehicle.nissan.patrol_2021,40.422062,34.42753601074219,1.640014410018921,11.228350571960222,False,0.001640014410018921,0.011228350571960222,2680.0,500,108.44609832763672,11.387944221496582,0.9514999985694885,74.06448364257812,7.799999713897705,0.05862387642264366,-0.03139837831258774,-89.99999237060547,0.0,2.7320755179971457e-05,8.335516277213628e-09,2.294578189321328e-05
85,1.8600000143051147,86,walker.pedestrian.0004,vehicle.nissan.patrol_2021,40.422059,34.24748992919922,1.640014410018921,11.228349643101325,False,0.001640014410018921,0.011228349643101324,2660.0,500,108.44609832763672,11.361703872680664,0.9514999985694885,74.24417114257812,7.799999713897705,0.05827677622437477,-0.03139837831258774,-89.99999237060547,0.0,2.7320755179971457e-05,8.335516277213628e-09,2.294578189321328e-05
86,1.8600000143051147,87,walker.pedestrian.0004,vehicle.nissan.patrol_2021,40.422055,34.06744384765625,1.640014410018921,11.228348726488784,False,0.001640014410018921,0.011228348726488785,2650.0,500,108.44609832763672,11.335463523864746,0.9514999985694885,74.42385864257812,7.799999713897705,0.05793192610144615,-0.03139837831258774,-89.99999237060547,0.0,2.7320755179971457e-05,8.335516277213628e-09,2.294578189321328e-05
87,1.8600000143051147,88,walker.pedestrian.0004,vehicle.nissan.patrol_2021,40.422052,33.88740539550781,1.640014410018921,11.228347820680131,False,0.001640014410018921,0.011228347820680131,2630.0,500,108.44609832763672,11.309223175048828,0.9514999985694885,74.60354614257812,7.799999713897705,0.05758929252624512,-0.03139837831258774,-89.99999237060547,0.0,2.7320755179971457e-05,8.335516277213628e-09,2.294578189321328e-05
88,1.8600000143051147,89,walker.pedestrian.0004,vehicle.nissan.patrol_2021,40.422049,33.707374572753906,1.640014410018921,11.228346928875212,False,0.001640014410018921,0.011228346928875211,2620.0,500,108.44609832763672,11.28298282623291,0.9514999985694885,74.78323364257812,7.799999713897705,0.05724886804819107,-0.03139837831258774,-89.99999237060547,0.0,2.7320755179971457e-05,8.335516277213628e-09,2.294578189321328e-05
89,1.8600000143051147,90,walker.pedestrian.0004,vehicle.nissan.patrol_2021,40.422046,33.52732849121094,1.640014410018921,11.228346044446326,False,0.001640014410018921,0.011228346044446325,2610.0,500,108.44609832763672,11.256742477416992,0.9514999985694885,74.96292114257812,7.799999713897705,0.05691050365567207,-0.03139837831258774,-89.99999237060547,0.0,2.7320755179971457e-05,8.335516277213628e-09,2.294578189321328e-05
90,1.8600000143051147,91,walker.pedestrian.0004,vehicle.nissan.patrol_2021,40.422043,33.3472900390625,1.640014410018921,11.228345172078619,False,0.001640014410018921,0.01122834517207862,2590.0,500,108.44609832763672,11.23050308227539,0.9514999985694885,75.14260864257812,7.799999713897705,0.05657431483268738,-0.03139837831258774,-89.99999237060547,0.0,2.7320755179971457e-05,8.335516277213628e-09,2.294578189321328e-05
91,1.8600000143051147,92,walker.pedestrian.0004,vehicle.nissan.patrol_2021,40.42204,33.167259216308594,1.640014410018921,11.228344314946122,False,0.001640014410018921,0.011228344314946122,2580.0,500,108.44609832763672,11.204262733459473,0.9514999985694885,75.32229614257812,7.799999713897705,0.05624033883213997,-0.03139837831258774,-89.99999237060547,0.0,2.7320755179971457e-05,8.335516277213628e-09,2.294578189321328e-05
92,1.8600000143051147,93,walker.pedestrian.0004,vehicle.nissan.patrol_2021,40.422036,32.987213134765625,1.640014410018921,11.228343463124709,False,0.001640014410018921,0.011228343463124709,2560.0,500,108.44609832763672,11.178022384643555,0.9514999985694885,75.50198364257812,7.799999713897705,0.055908460170030594,-0.03139837831258774,-89.99999237060547,0.0,2.7320755179971457e-05,8.335516277213628e-09,2.294578189321328e-05
93,1.8600000143051147,94,walker.pedestrian.0004,vehicle.nissan.patrol_2021,40.422033,32.80717468261719,1.640014410018921,11.228342624907725,False,0.001640014410018921,0.011228342624907725,2550.0,500,108.44609832763672,11.151782035827637,0.9514999985694885,75.68167114257812,7.799999713897705,0.05557867884635925,-0.03139837831258774,-89.99999237060547,0.0,2.7320755179971457e-05,8.335516277213628e-09,2.294578189321328e-05
94,1.8600000143051147,95,walker.pedestrian.0004,vehicle.nissan.patrol_2021,40.42203,32.62713623046875,1.640014410018921,11.228341797257775,False,0.001640014410018921,0.011228341797257775,2540.0,500,108.44609832763672,11.125541687011719,0.9514999985694885,75.86135864257812,7.799999713897705,0.05525103583931923,-0.03139837831258774,-89.99999237060547,0.0,2.7320755179971457e-05,8.335516277213628e-09,2.294578189321328e-05
95,1.8600000143051147,96,walker.pedestrian.0004,vehicle.nissan.patrol_2021,40.422028,32.44709014892578,1.640014410018921,11.22834097880652,False,0.001640014410018921,0.01122834097880652,2520.0,500,108.44609832763672,11.0993013381958,0.9514999985694885,76.04104614257812,7.799999713897705,0.05492541193962097,-0.03139837831258774,-89.99999237060547,0.0,2.7320755179971457e-05,8.335516277213628e-09,2.294578189321328e-05
96,1.8600000143051147,97,walker.pedestrian.0004,vehicle.nissan.patrol_2021,40.422025,32.267059326171875,1.640014410018921,11.228340171898832,False,0.001640014410018921,0.011228340171898832,2510.0,500,108.44609832763672,11.073060989379883,0.9514999985694885,76.22073364257812,7.799999713897705,0.054601848125457764,-0.03139837831258774,-89.99999237060547,0.0,2.7320755179971457e-05,8.335516277213628e-09,2.294578189321328e-05
97,1.8600000143051147,98,walker.pedestrian.0004,vehicle.nissan.patrol_2021,40.422022,32.08702087402344,1.640014410018921,11.228339373624278,False,0.001640014410018921,0.011228339373624278,2490.0,500,108.44609832763672,11.046820640563965,0.9514999985694885,76.40042114257812,7.799999713897705,0.05428030714392662,-0.03139837831258774,-89.99999237060547,0.0,2.7320755179971457e-05,8.335516277213628e-09,2.294578189321328e-05
98,1.8600000143051147,99,walker.pedestrian.0004,vehicle.nissan.patrol_2021,40.422019,31.90697479248047,1.640014410018921,11.22833858818998,False,0.001640014410018921,0.011228338588189979,2480.0,500,108.44609832763672,11.020581245422363,0.9514999985694885,76.58010864257812,7.799999713897705,0.05396086722612381,-0.03139837831258774,-89.99999237060547,0.0,2.7320755179971457e-05,8.335516277213628e-09,2.294578189321328e-05
99,1.8600000143051147,100,walker.pedestrian.0004,vehicle.nissan.patrol_2021,40.422016,31.726943969726562,1.640014410018921,11.228337811359568,False,0.001640014410018921,0.011228337811359568,2470.0,500,108.44609832763672,10.994340896606445,0.9514999985694885,76.75979614257812,7.799999713897705,0.053643520921468735,-0.03139837831258774,-89.99999237060547,0.0,2.7320755179971457e-05,8.335516277213628e-09,2.294578189321328e-05
100,1.8600000143051147,101,walker.pedestrian.0004,vehicle.nissan.patrol_2021,40.422013,31.546905517578125,1.640014410018921,11.228337043453022,False,0.001640014410018921,0.011228337043453022,2450.0,500,108.44609832763672,10.968100547790527,0.9514999985694885,76.93948364257812,7.799999713897705,0.053328122943639755,-0.03139837831258774,-89.99999237060547,0.0,2.7320755179971457e-05,8.335516277213628e-09,2.294578189321328e-05
101,1.8600000143051147,102,walker.pedestrian.0004,vehicle.nissan.patrol_2021,40.422011,31.366859436035156,1.640014410018921,11.228336285928776,False,0.001640014410018921,0.011228336285928776,2440.0,500,108.44609832763672,10.94186019897461,0.9514999985694885,77.11917114257812,7.799999713897705,0.05301466956734657,-0.03139837831258774,-89.99999237060547,0.0,2.7320755179971457e-05,8.335516277213628e-09,2.294578189321328e-05
102,1.8600000143051147,103,walker.pedestrian.0004,vehicle.nissan.patrol_2021,40.422008,31.18682098388672,1.640014410018921,11.228335537288729,False,0.001640014410018921,0.011228335537288728,2420.0,500,108.44609832763672,10.915619850158691,0.9514999985694885,77.29885864257812,7.799999713897705,0.05270323529839516,-0.03139837831258774,-89.99999237060547,0.0,2.7320755179971457e-05,8.335516277213628e-09,2.294578189321328e-05
103,1.8600000143051147,104,walker.pedestrian.0004,vehicle.nissan.patrol_2021,40.422005,31.00678253173828,1.640014410018921,11.22833480024699,False,0.001640014410018921,0.011228334800246991,2410.0,500,108.44609832763672,10.889379501342773,0.9514999985694885,77.47854614257812,7.799999713897705,0.052393827587366104,-0.03139837831258774,-89.99999237060547,0.0,2.7320755179971457e-05,8.335516277213628e-09,2.294578189321328e-05
104,1.8600000143051147,105,walker.pedestrian.0004,vehicle.nissan.patrol_2021,40.422003,30.826744079589844,1.640014410018921,11.228334071602212,False,0.001640014410018921,0.011228334071602213,2400.0,500,108.44609832763672,10.863139152526855,0.9514999985694885,77.65823364257812,7.799999713897705,0.052086398005485535,-0.03139837831258774,-89.99999237060547,0.0,2.7320755179971457e-05,8.335516277213628e-09,2.294578189321328e-05
105,1.8600000143051147,106,walker.pedestrian.0004,vehicle.nissan.patrol_2021,40.422,30.646705627441406,1.640014410018921,11.228333350706043,False,0.001640014410018921,0.011228333350706042,2380.0,500,108.44609832763672,10.836898803710938,0.9514999985694885,77.83792114257812,7.799999713897705,0.051780879497528076,-0.03139837831258774,-89.99999237060547,0.0,2.7320755179971457e-05,8.335516277213628e-09,2.294578189321328e-05
106,1.8600000143051147,107,walker.pedestrian.0004,vehicle.nissan.patrol_2021,40.421998,30.46666717529297,1.640014410018921,11.228332639699447,False,0.001640014410018921,0.011228332639699447,2370.0,500,108.44609832763672,10.810659408569336,0.9514999985694885,78.01760864257812,7.799999713897705,0.05147726833820343,-0.03139837831258774,-89.99999237060547,0.0,2.7320755179971457e-05,8.335516277213628e-09,2.294578189321328e-05
107,1.8600000143051147,108,walker.pedestrian.0004,vehicle.nissan.patrol_2021,40.421995,30.28662109375,1.640014410018921,11.228331938027326,False,0.001640014410018921,0.011228331938027325,2350.0,500,108.44609832763672,10.784419059753418,0.9514999985694885,78.19729614257812,7.799999713897705,0.051175639033317566,-0.03139837831258774,-89.99999237060547,0.0,2.7320755179971457e-05,8.335516277213628e-09,2.294578189321328e-05
108,1.8600000143051147,109,walker.pedestrian.0004,vehicle.nissan.patrol_2021,40.421992,30.106590270996094,1.640014410018921,11.228331247331262,False,0.001640014410018921,0.011228331247331262,2340.0,500,108.44609832763672,10.7581787109375,0.9514999985694885,78.37698364257812,7.799999713897705,0.0508759580552578,-0.03139837831258774,-89.99999237060547,0.0,2.7320755179971457e-05,8.335516277213628e-09,2.294578189321328e-05
109,1.8600000143051147,110,walker.pedestrian.0004,vehicle.nissan.patrol_2021,40.42199,29.926544189453125,1.640014410018921,11.228330561721615,False,0.001640014410018921,0.011228330561721615,2330.0,500,108.44609832763672,10.731938362121582,0.9514999985694885,78.55667114257812,7.799999713897705,0.05057814344763756,-0.03139837831258774,-89.99999237060547,0.0,2.7320755179971457e-05,8.335516277213628e-09,2.294578189321328e-05
110,1.8600000143051147,111,walker.pedestrian.0004,vehicle.nissan.patrol_2021,40.421988,29.746505737304688,1.640014410018921,11.228329885532549,False,0.001640014410018921,0.011228329885532549,2310.0,500,108.44609832763672,10.705698013305664,0.9514999985694885,78.73635864257812,7.799999713897705,0.05028216168284416,-0.03139837831258774,-89.99999237060547,0.0,2.7320755179971457e-05,8.335516277213628e-09,2.294578189321328e-05
111,1.8600000143051147,112,walker.pedestrian.0004,vehicle.nissan.patrol_2021,40.421985,29.56645965576172,1.640014410018921,11.228329220152668,False,0.001640014410018921,0.011228329220152667,2300.0,500,108.44609832763672,10.679457664489746,0.9514999985694885,78.91604614257812,7.799999713897705,0.049988165497779846,-0.03139837831258774,-89.99999237060547,0.0,2.7320755179971457e-05,8.335516277213628e-09,2.294578189321328e-05
112,1.8600000143051147,113,walker.pedestrian.0004,vehicle.nissan.patrol_2021,40.421983,29.38642120361328,1.640014410018921,11.228328562043716,False,0.001640014410018921,0.011228328562043716,2280.0,500,108.44609832763672,10.653217315673828,0.9514999985694885,79.09573364257812,7.799999713897705,0.04969603568315506,-0.03139837831258774,-89.99999237060547,0.0,2.7320755179971457e-05,8.335516277213628e-09,2.294578189321328e-05
113,1.8600000143051147,114,walker.pedestrian.0004,vehicle.nissan.patrol_2021,40.42198,29.206390380859375,1.640014410018921,11.2283279104197,False,0.001640014410018921,0.011228327910419701,2270.0,500,108.44609832763672,10.62697696685791,0.9514999985694885,79.27542114257812,7.799999713897705,0.04940566048026085,-0.03139837831258774,-89.99999237060547,0.0,2.7320755179971457e-05,8.335516277213628e-09,2.294578189321328e-05
114,1.8600000143051147,115,walker.pedestrian.0004,vehicle.nissan.patrol_2021,40.421978,29.026344299316406,1.640014410018921,11.228327268273398,False,0.001640014410018921,0.011228327268273398,2260.0,500,108.44609832763672,10.600736618041992,0.9514999985694885,79.45510864257812,7.799999713897705,0.04911711439490318,-0.03139837831258774,-89.99999237060547,0.0,2.7320755179971457e-05,8.335516277213628e-09,2.294578189321328e-05
115,1.8600000143051147,116,walker.pedestrian.0004,vehicle.nissan.patrol_2021,40.421976,28.84630584716797,1.640014410018921,11.228326635569147,False,0.001640014410018921,0.011228326635569146,2240.0,500,108.44609832763672,10.57449722290039,0.9514999985694885,79.63479614257812,7.799999713897705,0.04883047938346863,-0.03139837831258774,-89.99999237060547,0.0,2.7320755179971457e-05,8.335516277213628e-09,2.294578189321328e-05
116,1.8600000143051147,117,walker.pedestrian.0004,vehicle.nissan.patrol_2021,40.421974,28.66626739501953,1.640014410018921,11.228326009118152,False,0.001640014410018921,0.011228326009118153,2230.0,500,108.44609832763672,10.548256874084473,0.9514999985694885,79.81448364257812,7.799999713897705,0.04854559898376465,-0.03139837831258774,-89.99999237060547,0.0,2.7320755179971457e-05,8.335516277213628e-09,2.294578189321328e-05
117,1.8600000143051147,118,walker.pedestrian.0004,vehicle.nissan.patrol_2021,40.421971,28.486228942871094,1.640014410018921,11.22832539220628,False,0.001640014410018921,0.01122832539220628,2210.0,500,108.44609832763672,10.522016525268555,0.9514999985694885,79.99417114257812,7.799999713897705,0.0482625849545002,-0.03139837831258774,-89.99999237060547,0.0,2.7320755179971457e-05,8.335516277213628e-09,2.294578189321328e-05
118,1.8600000143051147,119,walker.pedestrian.0004,vehicle.nissan.patrol_2021,40.421969,28.306190490722656,1.640014410018921,11.228324781246277,False,0.001640014410018921,0.011228324781246277,2200.0,500,108.44609832763672,10.495776176452637,0.9514999985694885,80.17385864257812,7.799999713897705,0.04798132926225662,-0.03139837831258774,-89.99999237060547,0.0,2.7320755179971457e-05,8.335516277213628e-09,2.294578189321328e-05
119,1.8600000143051147,120,walker.pedestrian.0004,vehicle.nissan.patrol_2021,40.421967,28.12615203857422,1.640014410018921,11.228324179216319,False,0.001640014410018921,0.011228324179216318,2190.0,500,108.44609832763672,10.469535827636719,0.9514999985694885,80.35354614257812,7.799999713897705,0.04770186170935631,-0.03139837831258774,-89.99999237060547,0.0,2.7320755179971457e-05,8.335516277213628e-09,2.294578189321328e-05
120,1.8600000143051147,121,walker.pedestrian.0004,vehicle.nissan.patrol_2021,40.421965,27.94610595703125,1.640014410018921,11.228323585741583,False,0.001640014410018921,0.011228323585741582,2170.0,500,108.44609832763672,10.4432954788208,0.9514999985694885,80.53323364257812,7.799999713897705,0.04742418974637985,-0.03139837831258774,-89.99999237060547,0.0,2.7320755179971457e-05,8.335516277213628e-09,2.294578189321328e-05
121,1.8600000143051147,122,walker.pedestrian.0004,vehicle.nissan.patrol_2021,40.421963,27.766075134277344,1.640014410018921,11.228322997039875,False,0.001640014410018921,0.011228322997039875,2160.0,500,108.44609832763672,10.417055130004883,0.9514999985694885,80.71292114257812,7.799999713897705,0.04714823514223099,-0.03139837831258774,-89.99999237060547,0.0,2.7320755179971457e-05,8.335516277213628e-09,2.294578189321328e-05
122,1.8600000143051147,123,walker.pedestrian.0004,vehicle.nissan.patrol_2021,40.421961,27.586036682128906,1.640014410018921,11.228322418874528,False,0.001640014410018921,0.011228322418874528,2140.0,500,108.44609832763672,10.390814781188965,0.9514999985694885,80.89260864257812,7.799999713897705,0.046874113380908966,-0.03139837831258774,-89.99999237060547,0.0,2.7320755179971457e-05,8.335516277213628e-09,2.294578189321328e-05
123,1.8600000143051147,124,walker.pedestrian.0004,vehicle.nissan.patrol_2021,40.421959,27.405990600585938,1.640014410018921,11.228321847082086,False,0.001640014410018921,0.011228321847082086,2130.0,500,108.44609832763672,10.364575386047363,0.9514999985694885,81.07229614257812,7.799999713897705,0.04660174250602722,-0.03139837831258774,-89.99999237060547,0.0,2.7320755179971457e-05,8.335516277213628e-09,2.294578189321328e-05
124,1.8600000143051147,125,walker.pedestrian.0004,vehicle.nissan.patrol_2021,40.421957,27.22595977783203,1.640014410018921,11.22832128084888,False,0.001640014410018921,0.01122832128084888,2120.0,500,108.44609832763672,10.338335037231445,0.9514999985694885,81.25198364257812,7.799999713897705,0.046331051737070084,-0.03139837831258774,-89.99999237060547,0.0,2.7320755179971457e-05,8.335516277213628e-09,2.294578189321328e-05
125,1.8600000143051147,126,walker.pedestrian.0004,vehicle.nissan.patrol_2021,40.421955,27.045921325683594,1.640014410018921,11.228320722647892,False,0.001640014410018921,0.011228320722647891,2100.0,500,108.44609832763672,10.312094688415527,0.9514999985694885,81.43167114257812,7.799999713897705,0.046062078326940536,-0.03139837831258774,-89.99999237060547,0.0,2.7320755179971457e-05,8.335516277213628e-09,2.294578189321328e-05
126,1.8600000143051147,127,walker.pedestrian.0004,vehicle.nissan.patrol_2021,40.421953,26.865875244140625,1.640014410018921,11.228320174130916,False,0.001640014410018921,0.011228320174130916,2090.0,500,108.44609832763672,10.28585433959961,0.9514999985694885,81.61135864257812,7.799999713897705,0.04579489678144455,-0.03139837831258774,-89.99999237060547,0.0,2.7320755179971457e-05,8.335516277213628e-09,2.294578189321328e-05
127,1.8600000143051147,128,walker.pedestrian.0004,vehicle.nissan.patrol_2021,40.421951,26.685836791992188,1.640014410018921,11.22831962820197,False,0.001640014410018921,0.01122831962820197,2070.0,500,108.44609832763672,10.259613990783691,0.9514999985694885,81.79104614257812,7.799999713897705,0.0455293171107769,-0.03139837831258774,-89.99999237060547,0.0,2.7320755179971457e-05,8.335516277213628e-09,2.294578189321328e-05
128,1.8600000143051147,129,walker.pedestrian.0004,vehicle.nissan.patrol_2021,40.421949,26.50579833984375,1.640014410018921,11.228319090326812,False,0.001640014410018921,0.011228319090326812,2060.0,500,108.44609832763672,10.233373641967773,0.9514999985694885,81.97073364257812,7.799999713897705,0.045265376567840576,-0.03139837831258774,-89.99999237060547,0.0,2.7320755179971457e-05,8.335516277213628e-09,2.294578189321328e-05
129,1.8600000143051147,130,walker.pedestrian.0004,vehicle.nissan.patrol_2021,40.421947,26.325759887695312,1.640014410018921,11.228318561469322,False,0.001640014410018921,0.011228318561469322,2050.0,500,108.44609832763672,10.207133293151855,0.9514999985694885,82.15042114257812,7.799999713897705,0.045003194361925125,-0.03139837831258774,-89.99999237060547,0.0,2.7320755179971457e-05,8.335516277213628e-09,2.294578189321328e-05
130,1.8600000143051147,131,walker.pedestrian.0004,vehicle.nissan.patrol_2021,40.421945,26.145721435546875,1.640014410018921,11.228318037971167,False,0.001640014410018921,0.011228318037971167,2029.9999999999998,500,108.44609832763672,10.180892944335938,0.9514999985694885,82.33010864257812,7.799999713897705,0.044742651283741,-0.03139837831258774,-89.99999237060547,0.0,2.7320755179971457e-05,8.335516277213628e-09,2.294578189321328e-05
131,1.8600000143051147,132,walker.pedestrian.0004,vehicle.nissan.patrol_2021,40.421943,25.965682983398438,1.640014410018921,11.228317519434652,False,0.001640014410018921,0.011228317519434653,2020.0,500,108.44609832763672,10.154653549194336,0.9514999985694885,82.50979614257812,7.799999713897705,0.04448371008038521,-0.03139837831258774,-89.99999237060547,0.0,2.7320755179971457e-05,8.335516277213628e-09,2.294578189321328e-05
132,1.8600000143051147,133,walker.pedestrian.0004,vehicle.nissan.patrol_2021,40.421941,25.78564453125,1.640014410018921,11.228317011760097,False,0.001640014410018921,0.011228317011760098,2000.0,500,108.44609832763672,10.128413200378418,0.9514999985694885,82.68948364257812,7.799999713897705,0.044226519763469696,-0.03139837831258774,-89.99999237060547,0.0,2.7320755179971457e-05,8.335516277213628e-09,2.294578189321328e-05
133,1.8600000143051147,134,walker.pedestrian.0004,vehicle.nissan.patrol_2021,40.421939,25.60559844970703,1.640014410018921,11.228316506770224,False,0.001640014410018921,0.011228316506770223,1990.0,500,108.44609832763672,10.1021728515625,0.9514999985694885,82.86917114257812,7.799999713897705,0.04397093504667282,-0.03139837831258774,-89.99999237060547,0.0,2.7320755179971457e-05,8.335516277213628e-09,2.294578189321328e-05
134,1.8600000143051147,135,walker.pedestrian.0004,vehicle.nissan.patrol_2021,40.421938,25.425559997558594,1.640014410018921,11.2283160079568,False,0.001640014410018921,0.011228316007956799,1980.0,500,108.44609832763672,10.075932502746582,0.9514999985694885,83.04885864257812,7.799999713897705,0.043716877698898315,-0.03139837831258774,-89.99999237060547,0.0,2.7320755179971457e-05,8.335516277213628e-09,2.294578189321328e-05
135,1.8600000143051147,136,walker.pedestrian.0004,vehicle.nissan.patrol_2021,40.421936,25.245521545410156,1.640014410018921,11.22831551627512,False,0.001640014410018921,0.01122831551627512,1960.0,500,108.44609832763672,10.049692153930664,0.9514999985694885,83.22854614257812,7.799999713897705,0.04346445947885513,-0.03139837831258774,-89.99999237060547,0.0,2.7320755179971457e-05,8.335516277213628e-09,2.294578189321328e-05
136,1.8600000143051147,137,walker.pedestrian.0004,vehicle.nissan.patrol_2021,40.421934,25.06548309326172,1.640014410018921,11.228315031780003,False,0.001640014410018921,0.011228315031780003,1950.0,500,108.44609832763672,10.023451805114746,0.9514999985694885,83.40823364257812,7.799999713897705,0.04321364313364029,-0.03139837831258774,-89.99999237060547,0.0,2.7320755179971457e-05,8.335516277213628e-09,2.294578189321328e-05
137,1.8600000143051147,138,walker.pedestrian.0004,vehicle.nissan.patrol_2021,40.421932,24.88544464111328,1.640014410018921,11.228314553591554,False,0.001640014410018921,0.011228314553591554,1930.0,500,108.44609832763672,9.997211456298828,0.9514999985694885,83.58792114257812,7.799999713897705,0.042964428663253784,-0.03139837831258774,-89.99999237060547,0.0,2.7320755179971457e-05,8.335516277213628e-09,2.294578189321328e-05
138,1.8600000143051147,139,walker.pedestrian.0004,vehicle.nissan.patrol_2021,40.421931,24.705406188964844,1.640014410018921,11.228314080535798,False,0.001640014410018921,0.011228314080535798,1920.0,500,108.44609832763672,9.97097110748291,0.9514999985694885,83.76760864257812,7.799999713897705,0.04271681606769562,-0.03139837831258774,-89.99999237060547,0.0,2.7320755179971457e-05,8.335516277213628e-09,2.294578189321328e-05
139,1.8600000143051147,140,walker.pedestrian.0004,vehicle.nissan.patrol_2021,40.421929,24.525360107421875,1.640014410018921,11.228313614726089,False,0.001640014410018921,0.011228313614726088,1910.0,500,108.44609832763672,9.944730758666992,0.9514999985694885,83.94729614257812,7.799999713897705,0.04247080534696579,-0.03139837831258774,-89.99999237060547,0.0,2.7320755179971457e-05,8.335516277213628e-09,2.294578189321328e-05
140,1.8600000143051147,141,walker.pedestrian.0004,vehicle.nissan.patrol_2021,40.421927,24.34532928466797,1.640014410018921,11.228313152791603,False,0.001640014410018921,0.011228313152791604,1890.0,500,108.44609832763672,9.91849136352539,0.9514999985694885,84.12698364257812,7.799999713897705,0.04222628474235535,-0.03139837831258774,-89.99999237060547,0.0,2.7320755179971457e-05,8.335516277213628e-09,2.294578189321328e-05
