frame,ped_height,sim_time,walker,ego,e_veloc,distance,walker_vel_ms,ego_vel_ms,ttc_less_than_200,walker_vel_mms,ego_vel_mms,TCC,TCC_threshold,w_location_x,w_location_y,w_location_z,e_location_x,e_location_y,e_location_z,w_rotation_pitch,w_rotation_yaw,w_rotation_roll,e_rotation_pitch,e_rotation_yaw,e_rotation_roll
0,1.8600000143051147,1,walker.pedestrian.0004,vehicle.nissan.patrol_2021,49.886233,61.61090850830078,0.0,13.857286936660884,False,0.0,0.013857286936660884,4450.0,500,138.06063842773438,13.049999237060547,0.9514999389648438,76.514404296875,7.800065517425537,0.09663470834493637,-0.15539363026618958,-89.99999237060547,0.0,-0.018646415323019028,0.0024780896492302418,-0.00103759765625
1,1.8600000143051147,2,walker.pedestrian.0004,vehicle.nissan.patrol_2021,49.682879,61.390113830566406,0.0694274827837944,13.80079976418474,False,6.94274827837944e-05,0.01380079976418474,4430.0,500,138.06063842773438,13.04888916015625,0.9514999389648438,76.7352294921875,7.800149440765381,0.09605339169502258,-0.15539363026618958,-89.99999237060547,0.0,-0.027860339730978012,0.011340515688061714,-0.004547119606286287
2,1.8600000143051147,3,walker.pedestrian.0004,vehicle.nissan.patrol_2021,49.645983,61.169403076171875,0.1388549655675888,13.790550773653683,False,0.0001388549655675888,0.013790550773653683,4390.0,500,138.06063842773438,13.046667098999023,0.9514999389648438,76.95596313476562,7.800233364105225,0.09543681889772415,-0.15539363026618958,-89.99999237060547,0.0,-0.03628196194767952,0.026024898514151573,-0.010009764693677425
3,1.8600000143051147,4,walker.pedestrian.0004,vehicle.nissan.patrol_2021,49.63485,60.948692321777344,0.2082824409008026,13.78745824389491,False,0.0002082824409008026,0.01378745824389491,4350.0,500,138.06063842773438,13.0433349609375,0.9514999389648438,77.1766586303711,7.8003435134887695,0.09479064494371414,-0.15539363026618958,-89.99999237060547,0.0,-0.04431426525115967,0.04579396918416023,-0.01684570498764515
4,1.8600000143051147,5,walker.pedestrian.0004,vehicle.nissan.patrol_2021,49.640389,60.72796630859375,0.2777099311351776,13.788996945865948,False,0.0002777099311351776,0.013788996945865948,4320.0,500,138.06063842773438,13.038890838623047,0.9514999389648438,77.39736938476562,7.800498008728027,0.09411559998989105,-0.15539363026618958,-89.99999237060547,0.0,-0.05179332196712494,0.06997962296009064,-0.02459716796875
5,1.8600000143051147,6,walker.pedestrian.0004,vehicle.nissan.patrol_2021,49.640112,60.50721740722656,0.3471373915672302,13.788919884291778,False,0.0003471373915672302,0.013788919884291777,4280.0,500,138.06063842773438,13.033336639404297,0.9514999389648438,77.61808776855469,7.80071496963501,0.09341346472501755,-0.15539363026618958,-89.99999237060547,0.0,-0.05868498235940933,0.09792551398277283,-0.0328369177877903
6,1.8600000143051147,7,walker.pedestrian.0004,vehicle.nissan.patrol_2021,49.639942,60.28643035888672,0.4165648818016052,13.788872880122572,False,0.0004165648818016052,0.013788872880122571,4240.0,500,138.06063842773438,13.02667236328125,0.9514999389648438,77.83881378173828,7.801010608673096,0.09268631041049957,-0.15539363026618958,-89.99999237060547,0.0,-0.06500290334224701,0.1289857178926468,-0.0411682091653347
7,1.8600000143051147,8,walker.pedestrian.0004,vehicle.nissan.patrol_2021,49.640152,60.06562805175781,0.4859923720359802,13.788930992069437,False,0.00048599237203598023,0.013788930992069437,4210.0,500,138.06063842773438,13.018896102905273,0.9514999389648438,78.05953979492188,7.801401138305664,0.0919361487030983,-0.15539363026618958,-89.99999237060547,0.0,-0.07067879289388657,0.16253817081451416,-0.0493469163775444
8,1.8600000143051147,9,walker.pedestrian.0004,vehicle.nissan.patrol_2021,49.640264,59.844810485839844,0.5554198622703552,13.788962170216356,False,0.0005554198622703552,0.013788962170216357,4170.0,500,138.06063842773438,13.010009765625,0.9514999389648438,78.2802734375,7.8018927574157715,0.09116542339324951,-0.15539363026618958,-89.99999237060547,0.0,-0.07571947574615479,0.19798831641674042,-0.0570373460650444
9,1.8600000143051147,10,walker.pedestrian.0004,vehicle.nissan.patrol_2021,49.640363,59.62395477294922,0.6248473525047302,13.788989620597583,False,0.0006248473525047303,0.013788989620597583,4140.0,500,138.06063842773438,13.000011444091797,0.9514999389648438,78.50102233886719,7.802496910095215,0.0903763547539711,-0.15539363026618958,-89.99999237060547,0.0,-0.08016592264175415,0.23477277159690857,-0.0640563890337944
10,1.8600000143051147,11,walker.pedestrian.0004,vehicle.nissan.patrol_2021,49.657939,59.403053283691406,0.6942747831344604,13.793871810344896,False,0.0006942747831344604,0.013793871810344896,4100.0,500,138.06063842773438,12.988903045654297,0.9514999389648438,78.72178649902344,7.803221225738525,0.08957107365131378,-0.15539363026618958,-89.99999237060547,0.0,-0.08392252773046494,0.27236229181289673,-0.07025146484375
11,1.8600000143051147,12,walker.pedestrian.0004,vehicle.nissan.patrol_2021,49.704493,59.18199157714844,0.7637022733688354,13.80680347414417,False,0.0007637022733688355,0.01380680347414417,4059.9999999999995,500,138.06063842773438,12.9766845703125,0.9514999389648438,78.94270324707031,7.804074764251709,0.08874797821044922,-0.15539363026618958,-89.99999237060547,0.0,-0.0865248292684555,0.3102727234363556,-0.0755004808306694
12,1.8600000143051147,13,walker.pedestrian.0004,vehicle.nissan.patrol_2021,49.717815,58.96089172363281,0.8331297636032104,13.81050424314621,False,0.0008331297636032104,0.013810504243146211,4030.0000000000005,500,138.06063842773438,12.963354110717773,0.9514999389648438,79.16364288330078,7.80505895614624,0.08790912479162216,-0.15539363026618958,-89.99999237060547,0.0,-0.08764497935771942,0.3480508625507355,-0.079742431640625
13,1.8600000143051147,14,walker.pedestrian.0004,vehicle.nissan.patrol_2021,49.718171,58.73976135253906,0.9025572538375854,13.81060309773929,False,0.0009025572538375854,0.01381060309773929,3990.0,500,138.06063842773438,12.94891357421875,0.9514999389648438,79.38459014892578,7.806177139282227,0.08706100285053253,-0.15539363026618958,-89.99999237060547,0.0,-0.08743324875831604,0.3852706849575043,-0.0828857272863388
14,1.8600000143051147,15,walker.pedestrian.0004,vehicle.nissan.patrol_2021,49.718217,58.51860046386719,0.9719847440719604,13.810615830102858,False,0.0009719847440719605,0.013810615830102858,3960.0,500,138.06063842773438,12.933361053466797,0.9514999389648438,79.60555267333984,7.807428359985352,0.08620952069759369,-0.15539363026618958,-89.99999237060547,0.0,-0.08608769625425339,0.4215511679649353,-0.08493039757013321
15,1.8600000143051147,16,walker.pedestrian.0004,vehicle.nissan.patrol_2021,49.718236,58.29740905761719,1.0414122343063354,13.810621071439595,False,0.0010414122343063354,0.013810621071439594,3930.0,500,138.06063842773438,12.916698455810547,0.9514999389648438,79.8265151977539,7.808813095092773,0.08535987883806229,-0.15539363026618958,-89.99999237060547,0.0,-0.08368347585201263,0.45656102895736694,-0.0858764499425888
16,1.8600000143051147,17,walker.pedestrian.0004,vehicle.nissan.patrol_2021,49.718232,58.076202392578125,1.1108397245407104,13.810619914566043,False,0.0011108397245407104,0.013810619914566044,3890.0,500,138.06063842773438,12.89892578125,0.9514999389648438,80.0474853515625,7.810330867767334,0.08451751619577408,-0.15539363026618958,-89.99999237060547,0.0,-0.08047328144311905,0.49001544713974,-0.0857238620519638
17,1.8600000143051147,18,walker.pedestrian.0004,vehicle.nissan.patrol_2021,49.718212,57.85497283935547,1.1802672147750854,13.810614579820633,False,0.0011802672147750856,0.013810614579820633,3860.0,500,138.06063842773438,12.880041122436523,0.9514999389648438,80.26846313476562,7.811975479125977,0.08368648588657379,-0.15539363026618958,-89.99999237060547,0.0,-0.0765664130449295,0.5216787457466125,-0.08456417918205261
18,1.8600000143051147,19,walker.pedestrian.0004,vehicle.nissan.patrol_2021,49.71822,57.633705139160156,1.2496947050094604,13.810616584794868,False,0.0012496947050094605,0.013810616584794868,3830.0,500,138.06063842773438,12.86004638671875,0.9514999389648438,80.48944854736328,7.8137431144714355,0.08287002146244049,-0.15539363026618958,-89.99999237060547,0.0,-0.07211313396692276,0.5513613224029541,-0.0824585035443306
19,1.8600000143051147,20,walker.pedestrian.0004,vehicle.nissan.patrol_2021,49.718189,57.41242218017578,1.319122076034546,13.8106079953368,False,0.001319122076034546,0.0138106079953368,3790.0,500,138.06063842773438,12.838939666748047,0.9514999389648438,80.71043395996094,7.815629482269287,0.082071453332901,-0.15539363026618958,-89.99999237060547,0.0,-0.06722954660654068,0.5789167284965515,-0.079498291015625
20,1.8600000143051147,21,walker.pedestrian.0004,vehicle.nissan.patrol_2021,49.718165,57.191131591796875,1.388549566268921,13.81060135846106,False,0.0013885495662689208,0.01381060135846106,3760.0,500,138.06063842773438,12.816722869873047,0.9514999389648438,80.93142700195312,7.817627906799316,0.08129291236400604,-0.15539363026618958,-89.99999237060547,0.0,-0.062038604170084,0.6042413115501404,-0.075775146484375
21,1.8600000143051147,22,walker.pedestrian.0004,vehicle.nissan.patrol_2021,49.718159,56.96979522705078,1.457977056503296,13.810599775183752,False,0.0014579770565032958,0.013810599775183752,3730.0,500,138.06063842773438,12.79339599609375,0.9514999389648438,81.15242767333984,7.819732666015625,0.08053653687238693,-0.15539363026618958,-89.99999237060547,0.0,-0.05667007714509964,0.6272697448730469,-0.0713500902056694
22,1.8600000143051147,23,walker.pedestrian.0004,vehicle.nissan.patrol_2021,49.718128,56.74845886230469,1.527404546737671,13.810591204449668,False,0.001527404546737671,0.013810591204449668,3700.0,500,138.06063842773438,12.768957138061523,0.9514999389648438,81.3734130859375,7.821938991546631,0.07980327308177948,-0.15539363026618958,-89.99999237060547,0.0,-0.05117860436439514,0.6479710340499878,-0.0664062425494194
23,1.8600000143051147,24,walker.pedestrian.0004,vehicle.nissan.patrol_2021,49.718094,56.52709197998047,1.596832036972046,13.810581722542596,False,0.001596832036972046,0.013810581722542596,3670.0,500,138.06063842773438,12.743408203125,0.9514999389648438,81.59441375732422,7.82423210144043,0.07909423857927322,-0.15539363026618958,-89.99999237060547,0.0,-0.04571445286273956,0.666347324848175,-0.0610046312212944
24,1.8600000143051147,25,walker.pedestrian.0004,vehicle.nissan.patrol_2021,49.718059,56.30571746826172,1.666259527206421,13.810571937986397,False,0.001666259527206421,0.013810571937986398,3640.0,500,138.06063842773438,12.716748237609863,0.9514999389648438,81.8154067993164,7.826609134674072,0.07840999215841293,-0.15539363026618958,-89.99999237060547,0.0,-0.040318604558706284,0.6824278831481934,-0.0552673265337944
25,1.8600000143051147,26,walker.pedestrian.0004,vehicle.nissan.patrol_2021,49.718056,56.084320068359375,1.735687017440796,13.810571009285944,False,0.0017356870174407958,0.013810571009285944,3610.0,500,138.06063842773438,12.688977241516113,0.9514999389648438,82.03640747070312,7.829061031341553,0.07775058597326279,-0.15539363026618958,-89.99999237060547,0.0,-0.03506619110703468,0.69626784324646,-0.049285873770713806
26,1.8600000143051147,27,walker.pedestrian.0004,vehicle.nissan.patrol_2021,49.718032,55.86289978027344,1.805114507675171,13.810564452979015,False,0.0018051145076751708,0.013810564452979016,3580.0,500,138.06063842773438,12.66009521484375,0.9514999389648438,82.25739288330078,7.831581115722656,0.07711566984653473,-0.15539363026618958,-89.99999237060547,0.0,-0.029998188838362694,0.7079434394836426,-0.043182373046875
27,1.8600000143051147,28,walker.pedestrian.0004,vehicle.nissan.patrol_2021,49.718012,55.64148712158203,1.874541997909546,13.810558833901787,False,0.001874541997909546,0.013810558833901787,3550.0,500,138.06063842773438,12.630102157592773,0.9514999389648438,82.47837829589844,7.834159851074219,0.0765048936009407,-0.15539363026618958,-89.99999237060547,0.0,-0.025176076218485832,0.7175482511520386,-0.037017822265625
28,1.8600000143051147,29,walker.pedestrian.0004,vehicle.nissan.patrol_2021,49.717985,55.42005157470703,1.943969488143921,13.810551307619273,False,0.001943969488143921,0.013810551307619273,3520.0,500,138.06063842773438,12.5989990234375,0.9514999389648438,82.6993637084961,7.836792469024658,0.075917549431324,-0.15539363026618958,-89.99999237060547,0.0,-0.02063400112092495,0.725191056728363,-0.03091430477797985
29,1.8600000143051147,30,walker.pedestrian.0004,vehicle.nissan.patrol_2021,49.717961,55.19859313964844,2.013396978378296,13.810544818483582,False,0.002013396978378296,0.013810544818483582,3490.0,500,138.06063842773438,12.566784858703613,0.9514999389648438,82.92034149169922,7.839468002319336,0.07535281777381897,-0.15539363026618958,-89.99999237060547,0.0,-0.016358302906155586,0.7309930324554443,-0.024932861328125
30,1.8600000143051147,31,walker.pedestrian.0004,vehicle.nissan.patrol_2021,49.717939,54.977134704589844,2.082824468612671,13.810538547630399,False,0.002082824468612671,0.013810538547630398,3460.0,500,138.06063842773438,12.533459663391113,0.9514999389648438,83.14131927490234,7.84218168258667,0.07480934262275696,-0.15539363026618958,-89.99999237060547,0.0,-0.012451434507966042,0.7350848317146301,-0.01913451962172985
31,1.8600000143051147,32,walker.pedestrian.0004,vehicle.nissan.patrol_2021,49.717925,54.755653381347656,2.152251958847046,13.81053475739679,False,0.002152251958847046,0.013810534757396789,3430.0,500,138.06063842773438,12.4990234375,0.9514999389648438,83.36228942871094,7.8449249267578125,0.07428596168756485,-0.15539363026618958,-89.99999237060547,0.0,-0.00887924525886774,0.7376013994216919,-0.013610838912427425
32,1.8600000143051147,33,walker.pedestrian.0004,vehicle.nissan.patrol_2021,49.717904,54.534156799316406,2.221679449081421,13.810528907027484,False,0.0022216794490814208,0.013810528907027483,3400.0,500,138.06063842773438,12.463476181030273,0.9514999389648438,83.58325958251953,7.847691535949707,0.07378150522708893,-0.15539363026618958,-89.99999237060547,0.0,-0.005648565944284201,0.7386847734451294,-0.008361815474927425
33,1.8600000143051147,34,walker.pedestrian.0004,vehicle.nissan.patrol_2021,49.71789,54.312644958496094,2.291106939315796,13.810525129721873,False,0.002291106939315796,0.013810525129721873,3370.0,500,138.06063842773438,12.42681884765625,0.9514999389648438,83.80422973632812,7.8504767417907715,0.07329467684030533,-0.15539363026618958,-89.99999237060547,0.0,-0.0027798868250101805,0.7384767532348633,-0.00347900390625
34,1.8600000143051147,35,walker.pedestrian.0004,vehicle.nissan.patrol_2021,49.717875,54.09112548828125,2.360534429550171,13.810520970966346,False,0.002360534429550171,0.013810520970966345,3340.0,500,138.06063842773438,12.389050483703613,0.9514999389648438,84.02519226074219,7.853273868560791,0.07282397896051407,-0.15539363026618958,-89.99999237060547,0.0,-0.00021856604143977165,0.7371195554733276,0.0010433060815557837
35,1.8600000143051147,36,walker.pedestrian.0004,vehicle.nissan.patrol_2021,49.717867,53.869598388671875,2.429961919784546,13.810518671532536,False,0.002429961919784546,0.013810518671532537,3320.0,500,138.06063842773438,12.350171089172363,0.9514999389648438,84.24614715576172,7.856078147888184,0.07236827909946442,-0.15539363026618958,-89.99999237060547,0.0,0.001980754779651761,0.7347545623779297,0.005154270213097334
36,1.8600000143051147,37,walker.pedestrian.0004,vehicle.nissan.patrol_2021,49.71786,53.648048400878906,2.499389410018921,13.810516768369435,False,0.002499389410018921,0.013810516768369436,3290.0,500,138.06063842773438,12.3101806640625,0.9514999389648438,84.46710968017578,7.858885288238525,0.0719260424375534,-0.15539363026618958,-89.99999237060547,0.0,0.0038522265385836363,0.7315182089805603,0.008846084587275982
37,1.8600000143051147,38,walker.pedestrian.0004,vehicle.nissan.patrol_2021,49.717853,53.426490783691406,2.568816661834717,13.810514659838374,False,0.0025688166618347166,0.013810514659838374,3260.0,500,138.06063842773438,12.269079208374023,0.9514999389648438,84.68806457519531,7.861690998077393,0.07149570435285568,-0.15539363026618958,-89.99999237060547,0.0,0.005423170048743486,0.7275441288948059,0.012109375558793545
38,1.8600000143051147,39,walker.pedestrian.0004,vehicle.nissan.patrol_2021,49.717849,53.20491027832031,2.638244152069092,13.810513681231086,False,0.002638244152069092,0.013810513681231085,3230.0,500,138.06063842773438,12.22686767578125,0.9514999389648438,84.90901184082031,7.8644914627075195,0.07107601314783096,-0.15539363026618958,-89.99999237060547,0.0,0.006693584844470024,0.7229596972465515,0.01494169794023037
39,1.8600000143051147,40,walker.pedestrian.0004,vehicle.nissan.patrol_2021,49.717841,52.98332977294922,2.707671642303467,13.810511329797638,False,0.002707671642303467,0.013810511329797638,3210.0,500,138.06063842773438,12.183545112609863,0.9514999389648438,85.12995910644531,7.867281913757324,0.0706653967499733,-0.15539363026618958,-89.99999237060547,0.0,0.007690792437642813,0.7178852558135986,0.017346659675240517
40,1.8600000143051147,41,walker.pedestrian.0004,vehicle.nissan.patrol_2021,49.717842,52.76173400878906,2.777099132537842,13.810511777509054,False,0.0027770991325378417,0.013810511777509055,3180.0,500,138.06063842773438,12.139111518859863,0.9514999389648438,85.35090637207031,7.87006139755249,0.07026348263025284,-0.15539363026618958,-89.99999237060547,0.0,0.008435282856225967,0.7124342322349548,0.019333310425281525
41,1.8600000143051147,42,walker.pedestrian.0004,vehicle.nissan.patrol_2021,49.717838,52.54011535644531,2.846526622772217,13.810510534632861,False,0.002846526622772217,0.013810510534632862,3150.0,500,138.06063842773438,12.09356689453125,0.9514999389648438,85.57184600830078,7.872827053070068,0.06986843049526215,-0.15539363026618958,-89.99999237060547,0.0,0.008947547525167465,0.7067123651504517,0.020915601402521133
42,1.8600000143051147,43,walker.pedestrian.0004,vehicle.nissan.patrol_2021,49.717839,52.31847381591797,2.915954113006592,13.810510779564453,False,0.0029159541130065916,0.013810510779564453,3130.0,500,138.06063842773438,12.046911239624023,0.9514999389648438,85.79279327392578,7.875577449798584,0.06947967410087585,-0.15539363026618958,-89.99999237060547,0.0,0.009241245687007904,0.700817346572876,0.022111451253294945
43,1.8600000143051147,44,walker.pedestrian.0004,vehicle.nissan.patrol_2021,49.717832,52.09685516357422,2.9399867057800293,13.810508930071675,False,0.0029399867057800294,0.013810508930071675,3110.0,500,138.06063842773438,11.999871253967285,0.9514999389648438,86.01372528076172,7.878309726715088,0.06909564882516861,-0.15539363026618958,-89.99999237060547,0.0,0.009357358328998089,0.694837749004364,0.022942250594496727
44,1.8600000143051147,45,walker.pedestrian.0004,vehicle.nissan.patrol_2021,49.717836,51.87522888183594,2.9399867057800293,13.810510004138754,False,0.0029399867057800294,0.013810510004138753,3100.0,500,138.06063842773438,11.952832221984863,0.9514999389648438,86.23465728759766,7.88102388381958,0.06871581822633743,-0.15539363026618958,-89.99999237060547,0.0,0.009302716702222824,0.68885338306427,0.023432068526744843
45,1.8600000143051147,46,walker.pedestrian.0004,vehicle.nissan.patrol_2021,49.71783,51.653594970703125,2.9399867057800293,13.810508447587072,False,0.0029399867057800294,0.013810508447587072,3080.0,500,138.06063842773438,11.905792236328125,0.9514999389648438,86.45559692382812,7.883718490600586,0.06833965331315994,-0.15539363026618958,-89.99999237060547,0.0,0.00910464208573103,0.6829364895820618,0.023607108741998672
46,1.8600000143051147,47,walker.pedestrian.0004,vehicle.nissan.patrol_2021,49.717833,51.431968688964844,2.9399867057800293,13.81050923050249,False,0.0029399867057800294,0.013810509230502489,3070.0,500,138.06063842773438,11.858752250671387,0.9514999389648438,86.67652893066406,7.886392593383789,0.06796588748693466,-0.15539363026618958,-89.99999237060547,0.0,0.008783622644841671,0.6771497130393982,0.023495277389883995
47,1.8600000143051147,48,walker.pedestrian.0004,vehicle.nissan.patrol_2021,49.717831,51.21034240722656,2.9399867057800293,13.8105086641445,False,0.0029399867057800294,0.0138105086641445,3060.0,500,138.06063842773438,11.811712265014648,0.9514999389648438,86.8974609375,7.889045715332031,0.06759445369243622,-0.15539363026618958,-89.99999237060547,0.0,0.008360151201486588,0.6715477108955383,0.02312527783215046
48,1.8600000143051147,49,walker.pedestrian.0004,vehicle.nissan.patrol_2021,49.717818,50.98872375488281,2.9399867057800293,13.810504964706347,False,0.0029399867057800294,0.013810504964706347,3040.0,500,138.06063842773438,11.76467227935791,0.9514999389648438,87.11839294433594,7.891679286956787,0.06722453981637955,-0.15539363026618958,-89.99999237060547,0.0,0.007841057144105434,0.6661766171455383,0.022526511922478676
49,1.8600000143051147,50,walker.pedestrian.0004,vehicle.nissan.patrol_2021,49.717811,50.76709747314453,2.9399867057800293,13.810502990094038,False,0.0029399867057800294,0.013810502990094039,3030.0,500,138.06063842773438,11.717633247375488,0.9514999389648438,87.33932495117188,7.894292831420898,0.06685527414083481,-0.15539363026618958,-89.99999237060547,0.0,0.007267320994287729,0.6610758900642395,0.021728357300162315
50,1.8600000143051147,51,walker.pedestrian.0004,vehicle.nissan.patrol_2021,49.717793,50.54547882080078,2.9399867057800293,13.810498030641176,False,0.0029399867057800294,0.013810498030641176,3020.0,500,138.06063842773438,11.67059326171875,0.9514999389648438,87.56024932861328,7.89688777923584,0.06648700684309006,-0.15539363026618958,-89.99999237060547,0.0,0.006632113363593817,0.6562755703926086,0.020759982988238335
51,1.8600000143051147,52,walker.pedestrian.0004,vehicle.nissan.patrol_2021,49.717796,50.3238525390625,2.9399867057800293,13.810498755721378,False,0.0029399867057800294,0.013810498755721377,3000.0,500,138.06063842773438,11.623553276062012,0.9514999389648438,87.78118896484375,7.899464130401611,0.06611903756856918,-0.15539363026618958,-89.99999237060547,0.0,0.005969584919512272,0.6518005132675171,0.01964956894516945
52,1.8600000143051147,53,walker.pedestrian.0004,vehicle.nissan.patrol_2021,49.717798,50.10222625732422,2.9399867057800293,13.810499429101561,False,0.0029399867057800294,0.013810499429101562,2990.0,500,138.06063842773438,11.576513290405273,0.9514999389648438,88.00212097167969,7.902019500732422,0.06575141847133636,-0.15539363026618958,-89.99999237060547,0.0,0.005279736127704382,0.6476675868034363,0.018424492329359055
53,1.8600000143051147,54,walker.pedestrian.0004,vehicle.nissan.patrol_2021,49.7178,49.880615234375,2.9399867057800293,13.81050011707367,False,0.0029399867057800294,0.01381050011707367,2980.0,500,138.06063842773438,11.529473304748535,0.9514999389648438,88.2230453491211,7.9045610427856445,0.06538344919681549,-0.15539363026618958,-89.99999237060547,0.0,0.004583056550472975,0.6438887715339661,0.017110630869865417
54,1.8600000143051147,55,walker.pedestrian.0004,vehicle.nissan.patrol_2021,49.717799,49.65899658203125,2.9399867057800293,13.810499835116124,False,0.0029399867057800294,0.013810499835116124,2960.0,500,138.06063842773438,11.482434272766113,0.9514999389648438,88.4439697265625,7.907083034515381,0.06501559913158417,-0.15539363026618958,-89.99999237060547,0.0,0.003886377438902855,0.6404700875282288,0.015732750296592712
55,1.8600000143051147,56,walker.pedestrian.0004,vehicle.nissan.patrol_2021,49.717798,49.43737030029297,2.9399867057800293,13.810499555724586,False,0.0029399867057800294,0.013810499555724587,2950.0,500,138.06063842773438,11.435394287109375,0.9514999389648438,88.66490936279297,7.909592151641846,0.06464717537164688,-0.15539363026618958,-89.99999237060547,0.0,0.0032033585011959076,0.6374123692512512,0.014313454739749432
56,1.8600000143051147,57,walker.pedestrian.0004,vehicle.nissan.patrol_2021,49.717801,49.21574401855469,2.9399867057800293,13.810500186116105,False,0.0029399867057800294,0.013810500186116105,2940.0,500,138.06063842773438,11.388354301452637,0.9514999389648438,88.8858413696289,7.912088871002197,0.06427871435880661,-0.15539363026618958,-89.99999237060547,0.0,0.0025339999701827765,0.6347124576568604,0.012873928993940353
57,1.8600000143051147,58,walker.pedestrian.0004,vehicle.nissan.patrol_2021,49.717799,48.99413299560547,2.9399867057800293,13.810499809237596,False,0.0029399867057800294,0.013810499809237596,2920.0,500,138.06063842773438,11.341314315795898,0.9514999389648438,89.10676574707031,7.9145731925964355,0.06391021609306335,-0.15539363026618958,-89.99999237060547,0.0,0.0018919622525572777,0.6323625445365906,0.01143344584852457
58,1.8600000143051147,59,walker.pedestrian.0004,vehicle.nissan.patrol_2021,49.717801,48.772499084472656,2.9399867057800293,13.810500310825542,False,0.0029399867057800294,0.013810500310825542,2910.0,500,138.06063842773438,11.29427433013916,0.9514999389648438,89.32770538330078,7.9170451164245605,0.06354110687971115,-0.15539363026618958,-89.99999237060547,0.0,0.0012840754352509975,0.6303514242172241,0.010009294375777245
59,1.8600000143051147,60,walker.pedestrian.0004,vehicle.nissan.patrol_2021,49.717799,48.55088806152344,2.9399867057800293,13.810499725424185,False,0.0029399867057800294,0.013810499725424185,2900.0,500,138.06063842773438,11.247235298156738,0.9514999389648438,89.54862976074219,7.919504165649414,0.06317184120416641,-0.15539363026618958,-89.99999237060547,0.0,0.0007103396346792579,0.6286659836769104,0.0086167361587286
60,1.8600000143051147,61,walker.pedestrian.0004,vehicle.nissan.patrol_2021,49.7178,48.329254150390625,2.9399867057800293,13.810499932058844,False,0.0029399867057800294,0.013810499932058844,2890.0,500,138.06063842773438,11.2001953125,0.9514999389648438,89.76956176757812,7.921952724456787,0.06280258297920227,-0.15539363026618958,-89.99999237060547,0.0,0.0001707547198748216,0.6272904872894287,0.007269029039889574
61,1.8600000143051147,62,walker.pedestrian.0004,vehicle.nissan.patrol_2021,49.717796,48.107627868652344,2.9399867057800293,13.8104989810597,False,0.0029399867057800294,0.0138104989810597,2870.0,500,138.06063842773438,11.153155326843262,0.9514999389648438,89.99049377441406,7.92439603805542,0.062433548271656036,-0.15539363026618958,-89.99999237060547,0.0,-0.00033467926550656557,0.6262062191963196,0.005977478343993425
62,1.8600000143051147,63,walker.pedestrian.0004,vehicle.nissan.patrol_2021,49.717788,47.886009216308594,2.9399867057800293,13.810496802215043,False,0.0029399867057800294,0.013810496802215043,2860.0,500,138.06063842773438,11.106115341186523,0.9514999389648438,90.21142578125,7.926832675933838,0.062064703553915024,-0.15539363026618958,-89.99999237060547,0.0,-0.0007649811450392008,0.6253945231437683,0.004751516040414572
63,1.8600000143051147,64,walker.pedestrian.0004,vehicle.nissan.patrol_2021,49.71779,47.664390563964844,2.9399867057800293,13.810497141894414,False,0.0029399867057800294,0.013810497141894414,2850.0,500,138.06063842773438,11.059075355529785,0.9514999389648438,90.43235778808594,7.929260730743408,0.06169605255126953,-0.15539363026618958,-89.99999237060547,0.0,-0.0011611321242526174,0.6248347163200378,0.0035990504547953606
64,1.8600000143051147,65,walker.pedestrian.0004,vehicle.nissan.patrol_2021,49.717786,47.44276428222656,2.9399867057800293,13.810496193129639,False,0.0029399867057800294,0.01381049619312964,2830.0,500,138.06063842773438,11.012036323547363,0.9514999389648438,90.6532974243164,7.9316864013671875,0.06132819876074791,-0.15539363026618958,-89.99999237060547,0.0,-0.0015299622900784016,0.6245048642158508,0.0025258674286305904
65,1.8600000143051147,66,walker.pedestrian.0004,vehicle.nissan.patrol_2021,49.719453,47.22113800048828,2.9399867057800293,13.810959133185413,False,0.0029399867057800294,0.013810959133185413,2820.0,500,138.06063842773438,10.964996337890625,0.9514999389648438,90.87422943115234,7.934109210968018,0.06096092239022255,-0.15539363026618958,-89.99999237060547,0.0,-0.0018304905388504267,0.6242769360542297,0.0015683200908824801
66,1.8600000143051147,67,walker.pedestrian.0004,vehicle.nissan.patrol_2021,49.719448,46.99951934814453,2.9399867057800293,13.810957893793054,False,0.0029399867057800294,0.013810957893793054,2810.0,500,138.06063842773438,10.917956352233887,0.9514999389648438,91.09516143798828,7.936532020568848,0.06059436500072479,-0.15539363026618958,-89.99999237060547,0.0,-0.0020763773936778307,0.6240488886833191,0.0007495625177398324
67,1.8600000143051147,68,walker.pedestrian.0004,vehicle.nissan.patrol_2021,49.719447,46.77789306640625,2.9399867057800293,13.81095757630053,False,0.0029399867057800294,0.013810957576300529,2790.0,500,138.06063842773438,10.870916366577148,0.9514999389648438,91.31610107421875,7.938942909240723,0.06022880598902702,-0.15539363026618958,-89.99999237060547,0.0,-0.0022607925347983837,0.6238209009170532,6.0972255596425384e-05
68,1.8600000143051147,69,walker.pedestrian.0004,vehicle.nissan.patrol_2021,49.719443,46.55625915527344,2.9399867057800293,13.810956271322,False,0.0029399867057800294,0.013810956271322,2780.0,500,138.06063842773438,10.82387638092041,0.9514999389648438,91.53704071044922,7.941352367401123,0.05986446142196655,-0.15539363026618958,-89.99999237060547,0.0,-0.0023837359622120857,0.6235929131507874,-0.000518798828125
69,1.8600000143051147,70,walker.pedestrian.0004,vehicle.nissan.patrol_2021,49.719445,46.33464050292969,2.9399867057800293,13.810956842447947,False,0.0029399867057800294,0.013810956842447947,2770.0,500,138.06063842773438,10.776837348937988,0.9514999389648438,91.75797271728516,7.943760871887207,0.05950160697102547,-0.15539363026618958,-89.99999237060547,0.0,-0.0024725282564759254,0.6233649253845215,-0.0009765623253770173
70,1.8600000143051147,71,walker.pedestrian.0004,vehicle.nissan.patrol_2021,49.71944,46.113014221191406,2.9399867057800293,13.810955496945294,False,0.0029399867057800294,0.013810955496945294,2750.0,500,138.06063842773438,10.72979736328125,0.9514999389648438,91.97891235351562,7.946168422698975,0.05914043262600899,-0.15539363026618958,-89.99999237060547,0.0,-0.0025066793896257877,0.6231370568275452,-0.0013122557429596782
71,1.8600000143051147,72,walker.pedestrian.0004,vehicle.nissan.patrol_2021,49.719438,45.891387939453125,2.9399867057800293,13.810955069773001,False,0.0029399867057800294,0.013810955069773001,2740.0,500,138.06063842773438,10.682757377624512,0.9514999389648438,92.1998519897461,7.948575973510742,0.05878105014562607,-0.15539363026618958,-89.99999237060547,0.0,-0.0024725282564759254,0.6229090690612793,-0.0015869139460846782
72,1.8600000143051147,73,walker.pedestrian.0004,vehicle.nissan.patrol_2021,49.719433,45.66975402832031,2.9399867057800293,13.81095366554734,False,0.0029399867057800294,0.01381095366554734,2730.0,500,138.06063842773438,10.635717391967773,0.9514999389648438,92.42079162597656,7.950982093811035,0.05842353776097298,-0.15539363026618958,-89.99999237060547,0.0,-0.0024452076759189367,0.622681200504303,-0.0017700189491733909
73,1.8600000143051147,74,walker.pedestrian.0004,vehicle.nissan.patrol_2021,49.719432,45.44813537597656,2.9399867057800293,13.810953223977176,False,0.0029399867057800294,0.013810953223977176,2710.0,500,138.06063842773438,10.588677406311035,0.9514999389648438,92.6417236328125,7.953387260437012,0.05806842818856239,-0.15539363026618958,-89.99999237060547,0.0,-0.0023837359622120857,0.6224531531333923,-0.0018920896109193563
74,1.8600000143051147,75,walker.pedestrian.0004,vehicle.nissan.patrol_2021,49.719427,45.22650909423828,2.9399867057800293,13.81095181238393,False,0.0029399867057800294,0.01381095181238393,2700.0,500,138.06063842773438,10.541638374328613,0.9514999389648438,92.86266326904297,7.95579195022583,0.05771556869149208,-0.15539363026618958,-89.99999237060547,0.0,-0.002288113348186016,0.6222252249717712,-0.0019836428109556437
75,1.8600000143051147,76,walker.pedestrian.0004,vehicle.nissan.patrol_2021,49.719425,45.0048828125,2.9399867057800293,13.810951359993014,False,0.0029399867057800294,0.013810951359993015,2690.0,500,138.06063842773438,10.494598388671875,0.9514999389648438,93.08360290527344,7.95819616317749,0.057365112006664276,-0.15539363026618958,-89.99999237060547,0.0,-0.002165169920772314,0.6219973564147949,-0.0019836428109556437
76,1.8600000143051147,77,walker.pedestrian.0004,vehicle.nissan.patrol_2021,49.71942,44.78324890136719,2.9399867057800293,13.81094993880643,False,0.0029399867057800294,0.013810949938806431,2670.0,500,138.06063842773438,10.447558403015137,0.9514999389648438,93.3045425415039,7.96060037612915,0.05701713263988495,-0.15539363026618958,-89.99999237060547,0.0,-0.0020490565802901983,0.621769368648529,-0.0019531248835846782
77,1.8600000143051147,78,walker.pedestrian.0004,vehicle.nissan.patrol_2021,49.719422,44.56163024902344,2.9399867057800293,13.810950440277232,False,0.0029399867057800294,0.013810950440277232,2660.0,500,138.06063842773438,10.400518417358398,0.9514999389648438,93.52547454833984,7.963004112243652,0.05667182803153992,-0.15539363026618958,-89.99999237060547,0.0,-0.0018919622525572777,0.6215415000915527,-0.0018920894945040345
78,1.8600000143051147,79,walker.pedestrian.0004,vehicle.nissan.patrol_2021,49.719416,44.340003967285156,2.9399867057800293,13.810949027130647,False,0.0029399867057800294,0.013810949027130646,2650.0,500,138.06063842773438,10.35347843170166,0.9514999389648438,93.74641418457031,7.965397357940674,0.05632923170924187,-0.15539363026618958,-89.99999237060547,0.0,-0.0017416981281712651,0.6213133931159973,-0.0018005367601290345
79,1.8600000143051147,80,walker.pedestrian.0004,vehicle.nissan.patrol_2021,49.719415,44.118377685546875,2.9399867057800293,13.810948575705916,False,0.0029399867057800294,0.013810948575705917,2630.0,500,138.06063842773438,10.306439399719238,0.9514999389648438,93.96735382080078,7.9677910804748535,0.055989187210798264,-0.15539363026618958,-89.99999237060547,0.0,-0.0015914340037852526,0.621085524559021,-0.0017089844914153218
80,1.8600000143051147,81,walker.pedestrian.0004,vehicle.nissan.patrol_2021,49.71941,43.89674377441406,2.9399867057800293,13.81094718455452,False,0.0029399867057800294,0.01381094718455452,2620.0,500,138.06063842773438,10.2593994140625,0.9514999389648438,94.18830108642578,7.970184326171875,0.05565185472369194,-0.15539363026618958,-89.99999237060547,0.0,-0.001434339676052332,0.6208574175834656,-0.0015869139460846782
81,1.8600000143051147,82,walker.pedestrian.0004,vehicle.nissan.patrol_2021,49.719408,43.67512512207031,2.9399867057800293,13.810946761260714,False,0.0029399867057800294,0.013810946761260715,2610.0,500,138.06063842773438,10.212359428405762,0.9514999389648438,94.40923309326172,7.9725775718688965,0.055317189544439316,-0.15539363026618958,-89.99999237060547,0.0,-0.0012840754352509975,0.6206293702125549,-0.00146484375
82,1.8600000143051147,83,walker.pedestrian.0004,vehicle.nissan.patrol_2021,49.719403,43.4534912109375,2.9399867057800293,13.810945391366847,False,0.0029399867057800294,0.013810945391366847,2590.0,500,138.06063842773438,10.165319442749023,0.9514999389648438,94.63017272949219,7.97497034072876,0.05498523637652397,-0.15539363026618958,-89.99999237060547,0.0,-0.0010996604105457664,0.6204014420509338,-0.0013122557429596782
83,1.8600000143051147,84,walker.pedestrian.0004,vehicle.nissan.patrol_2021,49.719405,43.23186492919922,2.9399867057800293,13.810945925898748,False,0.0029399867057800294,0.013810945925898748,2580.0,500,138.06063842773438,10.118279457092285,0.9514999389648438,94.85111236572266,7.977363109588623,0.05465591326355934,-0.15539363026618958,-89.99999237060547,0.0,-0.0009767169831320643,0.6201737523078918,-0.001190185546875
84,1.8600000143051147,85,walker.pedestrian.0004,vehicle.nissan.patrol_2021,49.719401,43.01023864746094,2.9399867057800293,13.81094459807144,False,0.0029399867057800294,0.01381094459807144,2570.0,500,138.06063842773438,10.071240425109863,0.9514999389648438,95.07205200195312,7.9797563552856445,0.05432933568954468,-0.15539363026618958,-89.99999237060547,0.0,-0.0008264528587460518,0.6199455261230469,-0.0010375975398346782
85,1.8600000143051147,86,walker.pedestrian.0004,vehicle.nissan.patrol_2021,49.719399,42.78861999511719,2.9399867057800293,13.810944208181297,False,0.0029399867057800294,0.013810944208181297,2550.0,500,138.06063842773438,10.024200439453125,0.9514999389648438,95.29298400878906,7.982149600982666,0.05400535464286804,-0.15539363026618958,-89.99999237060547,0.0,-0.0006761886761523783,0.6197176575660706,-0.0009155274019576609
86,1.8600000143051147,87,walker.pedestrian.0004,vehicle.nissan.patrol_2021,49.719394,42.566986083984375,2.9399867057800293,13.810942891473083,False,0.0029399867057800294,0.013810942891473083,2540.0,500,138.06063842773438,9.977160453796387,0.9514999389648438,95.51393127441406,7.9845428466796875,0.05368408188223839,-0.15539363026618958,-89.99999237060547,0.0,-0.0005532453069463372,0.6194896101951599,-0.00079345703125
87,1.8600000143051147,88,walker.pedestrian.0004,vehicle.nissan.patrol_2021,49.719393,42.34535217285156,2.9399867057800293,13.810942547988985,False,0.0029399867057800294,0.013810942547988985,2530.0,500,138.06063842773438,9.930120468139648,0.9514999389648438,95.73487091064453,7.986936092376709,0.053365401923656464,-0.15539363026618958,-89.99999237060547,0.0,-0.0004234717052895576,0.6192619204521179,-0.00067138671875
88,1.8600000143051147,89,walker.pedestrian.0004,vehicle.nissan.patrol_2021,49.719389,42.12371063232422,2.9399867057800293,13.810941262841105,False,0.0029399867057800294,0.013810941262841105,2510.0,500,138.06063842773438,9.88308048248291,0.9514999389648438,95.955810546875,7.989328861236572,0.053049277514219284,-0.15539363026618958,-89.99999237060547,0.0,-0.0003073585103265941,0.619033694267273,-0.0005493164644576609
89,1.8600000143051147,90,walker.pedestrian.0004,vehicle.nissan.patrol_2021,49.719387,41.90208435058594,2.9399867057800293,13.810940939469182,False,0.0029399867057800294,0.013810940939469182,2500.0,500,138.06063842773438,9.836041450500488,0.9514999389648438,96.17674255371094,7.991713047027588,0.052735671401023865,-0.15539363026618958,-89.99999237060547,0.0,-0.00018441509746480733,0.6188057661056519,-0.000457763671875
90,1.8600000143051147,91,walker.pedestrian.0004,vehicle.nissan.patrol_2021,49.719383,41.68046569824219,2.9399867057800293,13.810939673811886,False,0.0029399867057800294,0.013810939673811886,2490.0,500,138.06063842773438,9.78900146484375,0.9514999389648438,96.3976821899414,7.994096279144287,0.05242454260587692,-0.15539363026618958,-89.99999237060547,0.0,-9.56226431299001e-05,0.6185778379440308,-0.000335693359375
91,1.8600000143051147,92,walker.pedestrian.0004,vehicle.nissan.patrol_2021,49.719385,41.458831787109375,2.9399867057800293,13.810940342100105,False,0.0029399867057800294,0.013810940342100106,2480.0,500,138.06063842773438,9.741961479187012,0.9514999389648438,96.61862182617188,7.996480464935303,0.05211585760116577,-0.15539363026618958,-89.99999237060547,0.0,-3.415094397496432e-05,0.6183500289916992,-0.00027465823222883046
92,1.8600000143051147,93,walker.pedestrian.0004,vehicle.nissan.patrol_2021,49.719381,41.237205505371094,2.9399867057800293,13.8109391284874,False,0.0029399867057800294,0.013810939128487399,2460.0,500,138.06063842773438,9.694921493530273,0.9514999389648438,96.83956146240234,7.998864650726318,0.05180934816598892,-0.15539363026618958,-89.99999237060547,0.0,5.464151035994291e-05,0.6181220412254333,-0.00018310548330191523
93,1.8600000143051147,94,walker.pedestrian.0004,vehicle.nissan.patrol_2021,49.71938,41.015586853027344,2.9399867057800293,13.810938860518123,False,0.0029399867057800294,0.013810938860518122,2450.0,500,138.06063842773438,9.647881507873535,0.9514999389648438,97.06049346923828,8.001248359680176,0.05150516331195831,-0.15539363026618958,-89.99999237060547,0.0,0.00012294339830987155,0.6178942322731018,-0.00012207030522404239
94,1.8600000143051147,95,walker.pedestrian.0004,vehicle.nissan.patrol_2021,49.719376,40.79396057128906,2.9399867057800293,13.810937662412917,False,0.0029399867057800294,0.013810937662412917,2440.0,500,138.06063842773438,9.600842475891113,0.9514999389648438,97.28143310546875,8.003632545471191,0.0512029267847538,-0.15539363026618958,-89.99999237060547,0.0,0.0001707547198748216,0.6176662445068359,-6.103515261202119e-05
95,1.8600000143051147,96,walker.pedestrian.0004,vehicle.nissan.patrol_2021,49.719375,40.57232666015625,2.9399867057800293,13.810937434380323,False,0.0029399867057800294,0.013810937434380322,2420.0,500,138.06063842773438,9.553802490234375,0.9514999389648438,97.50237274169922,8.006016731262207,0.05090316757559776,-0.15539363026618958,-89.99999237060547,0.0,0.00021856604143977165,0.6174382567405701,-3.051757266803179e-05
96,1.8600000143051147,97,walker.pedestrian.0004,vehicle.nissan.patrol_2021,49.719371,40.3507080078125,2.9399867057800293,13.810936255327604,False,0.0029399867057800294,0.013810936255327604,2410.0,500,138.06063842773438,9.506762504577637,0.9514999389648438,97.72330474853516,8.008400917053223,0.05060558021068573,-0.15539363026618958,-89.99999237060547,0.0,0.00025954717420972884,0.6172102093696594,2.4453156584058888e-05
97,1.8600000143051147,98,walker.pedestrian.0004,vehicle.nissan.patrol_2021,49.719373,40.12908172607422,2.9399867057800293,13.810937007562872,False,0.0029399867057800294,0.013810937007562873,2400.0,500,138.06063842773438,9.459722518920898,0.9514999389648438,97.94424438476562,8.010785102844238,0.050310056656599045,-0.15539363026618958,-89.99999237060547,0.0,0.0002868679293897003,0.6169824004173279,5.843698454555124e-05
98,1.8600000143051147,99,walker.pedestrian.0004,vehicle.nissan.patrol_2021,49.719369,39.90745544433594,2.9399867057800293,13.810935859393027,False,0.0029399867057800294,0.013810935859393027,2380.0,500,138.06063842773438,9.41268253326416,0.9514999389648438,98.1651840209961,8.013169288635254,0.050016630440950394,-0.15539363026618958,-89.99999237060547,0.0,0.0003073585103265941,0.616754412651062,8.572961087338626e-05
99,1.8600000143051147,100,walker.pedestrian.0004,vehicle.nissan.patrol_2021,49.719365,39.685821533203125,2.9399867057800293,13.810934723834345,False,0.0029399867057800294,0.013810934723834345,2370.0,500,138.06063842773438,9.365643501281738,0.9514999389648438,98.38612365722656,8.015554428100586,0.04972514882683754,-0.15539363026618958,-89.99999237060547,0.0,0.0003278490621596575,0.6165264248847961,0.00010700304846977815
100,1.8600000143051147,101,walker.pedestrian.0004,vehicle.nissan.patrol_2021,49.719364,39.464202880859375,2.9399867057800293,13.810934549783509,False,0.0029399867057800294,0.013810934549783509,2360.0,500,138.06063842773438,9.318603515625,0.9514999389648438,98.6070556640625,8.017929077148438,0.049435727298259735,-0.15539363026618958,-89.99999237060547,0.0,0.0003278490621596575,0.6162983179092407,0.0001229152112500742
101,1.8600000143051147,102,walker.pedestrian.0004,vehicle.nissan.patrol_2021,49.71936,39.242584228515625,2.9399867057800293,13.810933438937246,False,0.0029399867057800294,0.013810933438937247,2340.0,500,138.06063842773438,9.271563529968262,0.9514999389648438,98.82799530029297,8.020303726196289,0.049148138612508774,-0.15539363026618958,-89.99999237060547,0.0,0.00033467926550656557,0.6160705089569092,0.00013402914919424802
102,1.8600000143051147,103,walker.pedestrian.0004,vehicle.nissan.patrol_2021,49.71936,39.02095031738281,2.9399867057800293,13.810933285013101,False,0.0029399867057800294,0.0138109332850131,2330.0,500,138.06063842773438,9.224523544311523,0.9514999389648438,99.04893493652344,8.02267837524414,0.048862457275390625,-0.15539363026618958,-89.99999237060547,0.0,0.0003278490621596575,0.6158425211906433,0.00014111603377386928
103,1.8600000143051147,104,walker.pedestrian.0004,vehicle.nissan.patrol_2021,49.719356,38.79932403564453,2.9399867057800293,13.81093219266156,False,0.0029399867057800294,0.01381093219266156,2320.0,500,138.06063842773438,9.177483558654785,0.9514999389648438,99.2698745727539,8.025053024291992,0.04857852682471275,-0.15539363026618958,-89.99999237060547,0.0,0.0003278490621596575,0.6156145334243774,0.00014461336832027882
104,1.8600000143051147,105,walker.pedestrian.0004,vehicle.nissan.patrol_2021,49.719355,38.57769775390625,2.9399867057800293,13.810932052968525,False,0.0029399867057800294,0.013810932052968525,2300.0,500,138.06063842773438,9.130444526672363,0.9514999389648438,99.49080657958984,8.027427673339844,0.04829647019505501,-0.15539363026618958,-89.99999237060547,0.0,0.0003210188588127494,0.6153864860534668,0.00014518940588459373
105,1.8600000143051147,106,walker.pedestrian.0004,vehicle.nissan.patrol_2021,49.719352,38.3560791015625,2.9399867057800293,13.810930973075491,False,0.0029399867057800294,0.01381093097307549,2290.0,500,138.06063842773438,9.083404541015625,0.9514999389648438,99.71174621582031,8.029802322387695,0.04801582172513008,-0.15539363026618958,-89.99999237060547,0.0,0.0003073585103265941,0.6151584982872009,0.00014326386735774577
106,1.8600000143051147,107,walker.pedestrian.0004,vehicle.nissan.patrol_2021,49.719355,38.13444519042969,2.9399867057800293,13.810931810907855,False,0.0029399867057800294,0.013810931810907855,2280.0,500,138.06063842773438,9.036364555358887,0.9514999389648438,99.93268585205078,8.032177925109863,0.04773731157183647,-0.15539363026618958,-89.99999237060547,0.0,0.00029369810363277793,0.6149306893348694,0.0001393865532008931
107,1.8600000143051147,108,walker.pedestrian.0004,vehicle.nissan.patrol_2021,49.719351,37.91282653808594,2.9399867057800293,13.8109307409513,False,0.0029399867057800294,0.0138109307409513,2260.0,500,138.06063842773438,8.989324569702148,0.9514999389648438,100.15361785888672,8.034552574157715,0.04746063053607941,-0.15539363026618958,-89.99999237060547,0.0,0.00027320755179971457,0.6147028803825378,0.00013393769040703773
108,1.8600000143051147,109,walker.pedestrian.0004,vehicle.nissan.patrol_2021,49.71935,37.691200256347656,2.9399867057800293,13.810930645082662,False,0.0029399867057800294,0.013810930645082662,2250.0,500,138.06063842773438,8.94228458404541,0.9514999389648438,100.37455749511719,8.036928176879883,0.04718547686934471,-0.15539363026618958,-89.99999237060547,0.0,0.00025954717420972884,0.6144748330116272,0.00012731895549222827
109,1.8600000143051147,110,walker.pedestrian.0004,vehicle.nissan.patrol_2021,49.719347,37.469573974609375,2.9399867057800293,13.810929592279516,False,0.0029399867057800294,0.013810929592279517,2240.0,500,138.06063842773438,8.895245552062988,0.9514999389648438,100.59549713134766,8.039302825927734,0.046912115067243576,-0.15539363026618958,-89.99999237060547,0.0,0.00023222641902975738,0.6142468452453613,0.00011978986003668979
110,1.8600000143051147,111,walker.pedestrian.0004,vehicle.nissan.patrol_2021,49.719346,37.24794006347656,2.9399867057800293,13.810929505237278,False,0.0029399867057800294,0.013810929505237277,2220.0,500,138.06063842773438,8.84820556640625,0.9514999389648438,100.81643676757812,8.041677474975586,0.04664035513997078,-0.15539363026618958,-89.99999237060547,0.0,0.00021856604143977165,0.6140189170837402,0.00011177740816492587
111,1.8600000143051147,112,walker.pedestrian.0004,vehicle.nissan.patrol_2021,49.719342,37.02630615234375,2.9399867057800293,13.810928464267587,False,0.0029399867057800294,0.013810928464267586,2210.0,500,138.06063842773438,8.801165580749512,0.9514999389648438,101.03736877441406,8.044042587280273,0.04637027531862259,-0.15539363026618958,-89.99999237060547,0.0,0.00019807547505479306,0.6137909293174744,0.0001035636814776808
112,1.8600000143051147,113,walker.pedestrian.0004,vehicle.nissan.patrol_2021,49.719342,36.8046875,2.9399867057800293,13.810928386812918,False,0.0029399867057800294,0.013810928386812919,2200.0,500,138.06063842773438,8.754125595092773,0.9514999389648438,101.25830841064453,8.046407699584961,0.046101875603199005,-0.15539363026618958,-89.99999237060547,0.0,0.00017758490866981447,0.6135629415512085,9.5195478934329e-05
113,1.8600000143051147,114,walker.pedestrian.0004,vehicle.nissan.patrol_2021,49.719339,36.58305358886719,2.9399867057800293,13.810927361611434,False,0.0029399867057800294,0.013810927361611434,2180.0,500,138.06063842773438,8.707085609436035,0.9514999389648438,101.479248046875,8.048772811889648,0.045835111290216446,-0.15539363026618958,-89.99999237060547,0.0,0.00015709434228483588,0.6133348345756531,8.68612842168659e-05
114,1.8600000143051147,115,walker.pedestrian.0004,vehicle.nissan.patrol_2021,49.719342,36.36143493652344,2.9399867057800293,13.810928248841932,False,0.0029399867057800294,0.013810928248841933,2170.0,500,138.06063842773438,8.660046577453613,0.9514999389648438,101.70018005371094,8.051138877868652,0.045569878071546555,-0.15539363026618958,-89.99999237060547,0.0,0.00013660377589985728,0.6131070256233215,7.873505091993138e-05
115,1.8600000143051147,116,walker.pedestrian.0004,vehicle.nissan.patrol_2021,49.719338,36.139808654785156,2.9399867057800293,13.810927235013885,False,0.0029399867057800294,0.013810927235013886,2160.0,500,138.06063842773438,8.613006591796875,0.9514999389648438,101.9211196899414,8.05350399017334,0.04530639573931694,-0.15539363026618958,-89.99999237060547,0.0,0.00011611320951487869,0.6128789186477661,7.097887282725424e-05
116,1.8600000143051147,117,walker.pedestrian.0004,vehicle.nissan.patrol_2021,49.719338,35.918182373046875,2.9399867057800293,13.810927177848091,False,0.0029399867057800294,0.013810927177848091,2140.0,500,138.06063842773438,8.565966606140137,0.9514999389648438,102.14205932617188,8.055869102478027,0.04504436254501343,-0.15539363026618958,-89.99999237060547,0.0,0.00010245283192489296,0.612650990486145,6.368401227518916e-05
117,1.8600000143051147,118,walker.pedestrian.0004,vehicle.nissan.patrol_2021,49.719334,35.69654846191406,2.9399867057800293,13.81092616707864,False,0.0029399867057800294,0.013810926167078639,2130.0,500,138.06063842773438,8.518926620483398,0.9514999389648438,102.36299896240234,8.058234214782715,0.04478397220373154,-0.15539363026618958,-89.99999237060547,0.0,8.196226553991437e-05,0.6124228239059448,5.690049511031248e-05
118,1.8600000143051147,119,walker.pedestrian.0004,vehicle.nissan.patrol_2021,49.719334,35.47492980957031,2.9399867057800293,13.810926126901958,False,0.0029399867057800294,0.013810926126901957,2120.0,500,138.06063842773438,8.47188663482666,0.9514999389648438,102.58393096923828,8.060599327087402,0.04452499374747276,-0.15539363026618958,-89.99999237060547,0.0,6.830188794992864e-05,0.6121953129768372,5.06466458318755e-05
119,1.8600000143051147,120,walker.pedestrian.0004,vehicle.nissan.patrol_2021,49.71933,35.25330352783203,2.9399867057800293,13.81092513128542,False,0.0029399867057800294,0.013810925131285422,2100.0,500,138.06063842773438,8.424847602844238,0.9514999389648438,102.80487060546875,8.06296443939209,0.04426780715584755,-0.15539363026618958,-89.99999237060547,0.0,5.464151035994291e-05,0.6119673252105713,4.494902532314882e-05
120,1.8600000143051147,121,walker.pedestrian.0004,vehicle.nissan.patrol_2021,49.719334,35.03167724609375,2.9399867057800293,13.810926049820118,False,0.0029399867057800294,0.013810926049820118,2090.0,500,138.06063842773438,8.3778076171875,0.9514999389648438,103.02581024169922,8.065329551696777,0.044012222439050674,-0.15539363026618958,-89.99999237060547,0.0,4.0981132769957185e-05,0.6117392182350159,3.9794063923181966e-05
121,1.8600000143051147,122,walker.pedestrian.0004,vehicle.nissan.patrol_2021,49.71933,34.81005859375,2.9399867057800293,13.810925061073728,False,0.0029399867057800294,0.013810925061073728,2080.0,500,138.06063842773438,8.330767631530762,0.9514999389648438,103.24674224853516,8.067694664001465,0.043758124113082886,-0.15539363026618958,-89.99999237060547,0.0,2.7320755179971457e-05,0.6115114092826843,3.522101906128228e-05
122,1.8600000143051147,123,walker.pedestrian.0004,vehicle.nissan.patrol_2021,49.71933,34.58842468261719,2.9399867057800293,13.810925034067926,False,0.0029399867057800294,0.013810925034067927,2060.0,500,138.06063842773438,8.283727645874023,0.9514999389648438,103.46768188476562,8.070058822631836,0.04350551590323448,-0.15539363026618958,-89.99999237060547,0.0,2.0490566384978592e-05,0.6112833023071289,3.122480120509863e-05
123,1.8600000143051147,124,walker.pedestrian.0004,vehicle.nissan.patrol_2021,49.719327,34.36680603027344,2.9399867057800293,13.810924056525577,False,0.0029399867057800294,0.013810924056525576,2050.0,500,138.06063842773438,8.236687660217285,0.9514999389648438,103.6886215209961,8.07241439819336,0.0432545468211174,-0.15539363026618958,-89.99999237060547,0.0,6.830188794992864e-06,0.6110551953315735,2.7907870389753953e-05
124,1.8600000143051147,125,walker.pedestrian.0004,vehicle.nissan.patrol_2021,49.719327,34.145172119140625,2.9399867057800293,13.8109240398535,False,0.0029399867057800294,0.0138109240398535,2040.0,500,138.06063842773438,8.189648628234863,0.9514999389648438,103.90956115722656,8.074769973754883,0.043005142360925674,-0.15539363026618958,-89.99999237060547,0.0,0.0,0.6108274459838867,2.529424091335386e-05
125,1.8600000143051147,126,walker.pedestrian.0004,vehicle.nissan.patrol_2021,49.719323,33.923553466796875,2.9399867057800293,13.810923072125979,False,0.0029399867057800294,0.013810923072125978,2029.9999999999998,500,138.06063842773438,8.142608642578125,0.9514999389648438,104.1304931640625,8.07712459564209,0.04275726154446602,-0.15539363026618958,-89.99999237060547,0.0,0.0,0.6105995178222656,2.2891668777447194e-05
126,1.8600000143051147,127,walker.pedestrian.0004,vehicle.nissan.patrol_2021,49.719323,33.701927185058594,2.9399867057800293,13.810923058661814,False,0.0029399867057800294,0.013810923058661814,2009.9999999999998,500,138.06063842773438,8.095568656921387,0.9514999389648438,104.35143280029297,8.079480171203613,0.04251090809702873,-0.15539363026618958,-89.99999237060547,0.0,0.0,0.610371470451355,2.0801706341444515e-05
127,1.8600000143051147,128,walker.pedestrian.0004,vehicle.nissan.patrol_2021,49.71932,33.48030090332031,2.9399867057800293,13.810922099247176,False,0.0029399867057800294,0.013810922099247176,2000.0,500,138.06063842773438,8.048528671264648,0.9514999389648438,104.57237243652344,8.081835746765137,0.042266156524419785,-0.15539363026618958,-89.99999237060547,0.0,-3.415094397496432e-05,0.6101434230804443,1.9166129277436994e-05
128,1.8600000143051147,129,walker.pedestrian.0004,vehicle.nissan.patrol_2021,49.719316,33.25868225097656,2.9399867057800293,13.810921151644038,False,0.0029399867057800294,0.013810921151644038,1990.0,500,138.06063842773438,8.00148868560791,0.9514999389648438,104.79330444335938,8.08419132232666,0.04202285781502724,-0.15539363026618958,-89.99999237060547,0.0,-3.415094397496432e-05,0.609915554523468,1.795643038349226e-05
129,1.8600000143051147,130,walker.pedestrian.0004,vehicle.nissan.patrol_2021,49.71932,33.03704833984375,2.9399867057800293,13.810922111396758,False,0.0029399867057800294,0.013810922111396758,1970.0,500,138.06063842773438,7.95444917678833,0.9514999389648438,105.01424407958984,8.086546897888184,0.041780851781368256,-0.15539363026618958,-89.99999237060547,0.0,-3.415094397496432e-05,0.609687864780426,1.7158707123599015e-05
130,1.8600000143051147,131,walker.pedestrian.0004,vehicle.nissan.patrol_2021,49.719316,32.8154296875,2.9399867057800293,13.810921165022206,False,0.0029399867057800294,0.013810921165022206,1960.0,500,138.06063842773438,7.90740966796875,0.9514999389648438,105.23518371582031,8.08890151977539,0.041540563106536865,-0.15539363026618958,-89.99999237060547,0.0,-3.415094397496432e-05,0.609459638595581,1.6728456103010103e-05
131,1.8600000143051147,132,walker.pedestrian.0004,vehicle.nissan.patrol_2021,49.719316,32.59379577636719,2.9399867057800293,13.81092117732825,False,0.0029399867057800294,0.01381092117732825,1950.0,500,138.06063842773438,7.860369682312012,0.9514999389648438,105.45612335205078,8.091257095336914,0.04130188003182411,-0.15539363026618958,-89.99999237060547,0.0,-3.415094397496432e-05,0.6092318296432495,1.6346581105608493e-05
132,1.8600000143051147,133,walker.pedestrian.0004,vehicle.nissan.patrol_2021,49.719313,32.37217712402344,2.9399867057800293,13.81092023816002,False,0.0029399867057800294,0.013810920238160019,1930.0,500,138.06063842773438,7.813329696655273,0.9514999389648438,105.67705535888672,8.093612670898438,0.04106460511684418,-0.15539363026618958,-89.99999237060547,0.0,-3.415094397496432e-05,0.6090037226676941,1.610211438674014e-05
133,1.8600000143051147,134,walker.pedestrian.0004,vehicle.nissan.patrol_2021,49.719313,32.150550842285156,2.9399867057800293,13.810920262050729,False,0.0029399867057800294,0.01381092026205073,1920.0,500,138.06063842773438,7.766290187835693,0.9514999389648438,105.89799499511719,8.095968246459961,0.040828969329595566,-0.15539363026618958,-89.99999237060547,0.0,-3.415094397496432e-05,0.6087759137153625,1.6035532098612748e-05
134,1.8600000143051147,135,walker.pedestrian.0004,vehicle.nissan.patrol_2021,49.71931,31.928924560546875,2.9399867057800293,13.810919332725359,False,0.0029399867057800294,0.013810919332725359,1910.0,500,138.06063842773438,7.719250202178955,0.9514999389648438,106.11893463134766,8.098313331604004,0.04059474915266037,-0.15539363026618958,-89.99999237060547,0.0,-3.415094397496432e-05,0.6085477471351624,1.6378269720007665e-05
135,1.8600000143051147,136,walker.pedestrian.0004,vehicle.nissan.patrol_2021,49.719313,31.707298278808594,2.9399867057800293,13.810920316910934,False,0.0029399867057800294,0.013810920316910934,1890.0,500,138.06063842773438,7.672210693359375,0.9514999389648438,106.33987426757812,8.100659370422363,0.04036201536655426,-0.15539363026618958,-89.99999237060547,0.0,-3.415094397496432e-05,0.6083201169967651,1.6857329683261923e-05
136,1.8600000143051147,137,walker.pedestrian.0004,vehicle.nissan.patrol_2021,49.71931,31.485671997070312,2.9399867057800293,13.810919400262533,False,0.0029399867057800294,0.013810919400262533,1880.0,500,138.06063842773438,7.625170707702637,0.9514999389648438,106.56080627441406,8.103004455566406,0.040130842477083206,-0.15539363026618958,-89.99999237060547,0.0,-3.415094397496432e-05,0.6080919504165649,1.728664938127622e-05
137,1.8600000143051147,138,walker.pedestrian.0004,vehicle.nissan.patrol_2021,49.71931,31.26404571533203,2.9399867057800293,13.810919437502038,False,0.0029399867057800294,0.013810919437502038,1870.0,500,138.06063842773438,7.578130722045898,0.9514999389648438,106.78174591064453,8.105350494384766,0.039901044219732285,-0.15539363026618958,-89.99999237060547,0.0,-3.415094397496432e-05,0.6078639030456543,1.760954000928905e-05
138,1.8600000143051147,139,walker.pedestrian.0004,vehicle.nissan.patrol_2021,49.719307,31.04241943359375,2.9399867057800293,13.81091852798015,False,0.0029399867057800294,0.01381091852798015,1850.0,500,138.06063842773438,7.531091213226318,0.9514999389648438,107.002685546875,8.107695579528809,0.03967273607850075,-0.15539363026618958,-89.99999237060547,0.0,-3.415094397496432e-05,0.6076359152793884,1.7905871573020704e-05
139,1.8600000143051147,140,walker.pedestrian.0004,vehicle.nissan.patrol_2021,49.719307,30.820785522460938,2.9399867057800293,13.810918573983725,False,0.0029399867057800294,0.013810918573983725,1840.0,500,138.06063842773438,7.48405122756958,0.9514999389648438,107.22361755371094,8.110041618347168,0.03944583982229233,-0.15539363026618958,-89.99999237060547,0.0,0.0,0.6074079871177673,1.8296421330887824e-05
140,1.8600000143051147,141,walker.pedestrian.0004,vehicle.nissan.patrol_2021,49.719304,30.599159240722656,2.9399867057800293,13.810917662365005,False,0.0029399867057800294,0.013810917662365006,1830.0,500,138.06063842773438,7.43701171875,0.9514999389648438,107.4445571899414,8.112386703491211,0.039220504462718964,-0.15539363026618958,-89.99999237060547,0.0,0.0,0.6071799993515015,1.8743307009572163e-05
141,1.8600000143051147,142,walker.pedestrian.0004,vehicle.nissan.patrol_2021,49.719304,30.377532958984375,2.9399867057800293,13.81091771916572,False,0.0029399867057800294,0.01381091771916572,1810.0,500,138.06063842773438,7.389971733093262,0.9514999389648438,107.66549682617188,8.11473274230957,0.03899631276726723,-0.15539363026618958,-89.99999237060547,0.0,0.0,0.606952428817749,1.9364924810361117e-05
