frame,ped_height,sim_time,walker,ego,e_veloc,distance,walker_vel_ms,ego_vel_ms,ttc_less_than_200,walker_vel_mms,ego_vel_mms,TCC,TCC_threshold,w_location_x,w_location_y,w_location_z,e_location_x,e_location_y,e_location_z,w_rotation_pitch,w_rotation_yaw,w_rotation_roll,e_rotation_pitch,e_rotation_yaw,e_rotation_roll
0,1.8600000143051147,1,walker.pedestrian.0004,vehicle.nissan.patrol_2021,178.300864,26.59048080444336,0.0,49.52801768991155,False,0.0,0.04952801768991155,540.0,500,80.39713287353516,13.049999237060547,1.1038998365402222,53.87914276123047,7.799986362457275,0.09755954891443253,0.15539363026618958,-89.99999237060547,0.0,-0.05434781312942505,-0.000518798828125,0.0002152593806385994
1,1.8600000143051147,2,walker.pedestrian.0004,vehicle.nissan.patrol_2021,50.710866,26.367389678955078,0.0337982140481472,14.086351600023539,False,3.37982140481472e-05,0.014086351600023538,1870.0,500,80.39713287353516,13.049458503723145,1.1038998365402222,54.10227966308594,7.799998760223389,0.09692638367414474,0.15539363026618958,-89.99999237060547,0.0,-0.07348600029945374,-0.0011901857797056437,0.000453305576229468
2,1.8600000143051147,3,walker.pedestrian.0004,vehicle.nissan.patrol_2021,50.254022,26.144886016845703,0.0675964280962944,13.959450424178193,False,6.75964280962944e-05,0.013959450424178193,1860.0,500,80.39713287353516,13.04837703704834,1.1038998365402222,54.3248176574707,7.799986362457275,0.09610935300588608,0.15539363026618958,-89.99999237060547,0.0,-0.078034907579422,-0.001922607421875,0.0006687893182970583
3,1.8600000143051147,4,walker.pedestrian.0004,vehicle.nissan.patrol_2021,49.646925,25.924087524414062,0.1013946384191513,13.790812508243828,False,0.00010139463841915131,0.013790812508243828,1870.0,500,80.39713287353516,13.046754837036133,1.1038998365402222,54.54563903808594,7.799973487854004,0.09525249153375626,0.15539363026618958,-89.99999237060547,0.0,-0.07895015180110931,-0.0032653806265443563,0.0011195518309250474
4,1.8600000143051147,5,walker.pedestrian.0004,vehicle.nissan.patrol_2021,49.610908,25.703418731689453,0.1351928561925888,13.78080786801821,False,0.0001351928561925888,0.01378080786801821,1850.0,500,80.39713287353516,13.044591903686523,1.1038998365402222,54.766326904296875,7.799959659576416,0.09439807385206223,0.15539363026618958,-89.99999237060547,0.0,-0.07992687076330185,-0.005187987815588713,0.0017440654337406158
5,1.8600000143051147,6,walker.pedestrian.0004,vehicle.nissan.patrol_2021,49.610075,25.48273468017578,0.1689910590648651,13.780576463129544,False,0.00016899105906486512,0.013780576463129544,1830.0,500,80.39713287353516,13.041888236999512,1.1038998365402222,54.98701477050781,7.799941062927246,0.09354640543460846,0.15539363026618958,-89.99999237060547,0.0,-0.08099237829446793,-0.007568358443677425,0.00248849019408226
6,1.8600000143051147,7,walker.pedestrian.0004,vehicle.nissan.patrol_2021,49.61006,25.26205062866211,0.2027892768383026,13.780572211427954,False,0.00020278927683830262,0.013780572211427953,1810.0,500,80.39713287353516,13.038643836975098,1.1038998365402222,55.20770263671875,7.799916744232178,0.09269694983959198,0.15539363026618958,-89.99999237060547,0.0,-0.08215351402759552,-0.010406495071947575,0.0033053255174309015
7,1.8600000143051147,8,walker.pedestrian.0004,vehicle.nissan.patrol_2021,49.610049,25.041362762451172,0.2365874946117401,13.780569092015272,False,0.00023658749461174012,0.013780569092015272,1790.0,500,80.39713287353516,13.034857749938965,1.1038998365402222,55.42838668823242,7.799885272979736,0.09184917062520981,0.15539363026618958,-89.99999237060547,0.0,-0.08337611705064774,-0.013580321334302425,0.004152416251599789
8,1.8600000143051147,9,walker.pedestrian.0004,vehicle.nissan.patrol_2021,49.610041,24.820655822753906,0.2703857123851776,13.780567064427164,False,0.0002703857123851776,0.013780567064427164,1770.0,500,80.39713287353516,13.030531883239746,1.1038998365402222,55.64907455444336,7.799842834472656,0.09100261330604553,0.15539363026618958,-89.99999237060547,0.0,-0.08459188789129257,-0.01702880859375,0.0049937269650399685
9,1.8600000143051147,10,walker.pedestrian.0004,vehicle.nissan.patrol_2021,49.610028,24.599956512451172,0.3041839301586151,13.780563213536201,False,0.0003041839301586151,0.013780563213536202,1750.0,500,80.39713287353516,13.025665283203125,1.1038998365402222,55.86975860595703,7.799790859222412,0.09015724062919617,0.15539363026618958,-89.99999237060547,0.0,-0.08584864437580109,-0.0207214318215847,0.005799068138003349
10,1.8600000143051147,11,walker.pedestrian.0004,vehicle.nissan.patrol_2021,49.62398,24.379207611083984,0.3379821181297302,13.784438949578737,False,0.00033798211812973024,0.013784438949578736,1730.0,500,80.39713287353516,13.020256996154785,1.1038998365402222,56.09047317504883,7.799727439880371,0.08931194245815277,0.15539363026618958,-89.99999237060547,0.0,-0.0870029479265213,-0.0245361328125,0.006543349474668503
11,1.8600000143051147,12,walker.pedestrian.0004,vehicle.nissan.patrol_2021,49.65239,24.15839385986328,0.3717803359031677,13.792330511387366,False,0.00037178033590316774,0.013792330511387367,1710.0,500,80.39713287353516,13.01430892944336,1.1038998365402222,56.31124496459961,7.7996506690979,0.08846469968557358,0.15539363026618958,-89.99999237060547,0.0,-0.08776792883872986,-0.02847289852797985,0.007208429742604494
12,1.8600000143051147,13,walker.pedestrian.0004,vehicle.nissan.patrol_2021,49.697298,23.93747329711914,0.4055785536766052,13.804804958976483,False,0.00040557855367660524,0.013804804958976484,1680.0,500,80.39713287353516,13.007819175720215,1.1038998365402222,56.53212356567383,7.799561977386475,0.08761294931173325,0.15539363026618958,-89.99999237060547,0.0,-0.08764497935771942,-0.032440185546875,0.007781631778925657
13,1.8600000143051147,14,walker.pedestrian.0004,vehicle.nissan.patrol_2021,49.707486,23.71646499633789,0.4393767714500427,13.807634964760965,False,0.00043937677145004274,0.013807634964760965,1660.0,500,80.39713287353516,13.000789642333984,1.1038998365402222,56.753074645996094,7.799458980560303,0.08675777167081833,0.15539363026618958,-89.99999237060547,0.0,-0.08636090904474258,-0.0364074669778347,0.008252735249698162
14,1.8600000143051147,15,walker.pedestrian.0004,vehicle.nissan.patrol_2021,49.707716,23.495441436767578,0.4731749892234802,13.807699011862873,False,0.00047317498922348024,0.013807699011862873,1650.0,500,80.39713287353516,12.993218421936035,1.1038998365402222,56.974037170410156,7.799341678619385,0.08590434491634369,0.15539363026618958,-89.99999237060547,0.0,-0.0840727910399437,-0.0403137169778347,0.008613829500973225
15,1.8600000143051147,16,walker.pedestrian.0004,vehicle.nissan.patrol_2021,49.707713,23.274402618408203,0.5069732069969177,13.807698085223977,False,0.0005069732069969177,0.013807698085223977,1630.0,500,80.39713287353516,12.985107421875,1.1038998365402222,57.195003509521484,7.799210548400879,0.085057832300663,0.15539363026618958,-89.99999237060547,0.0,-0.080896757543087,-0.044158935546875,0.008860594592988491
16,1.8600000143051147,17,walker.pedestrian.0004,vehicle.nissan.patrol_2021,49.707696,23.053348541259766,0.5407714247703552,13.80769344487088,False,0.0005407714247703552,0.01380769344487088,1610.0,500,80.39713287353516,12.976454734802246,1.1038998365402222,57.41598129272461,7.7990641593933105,0.08422214537858963,0.15539363026618958,-89.99999237060547,0.0,-0.07705818861722946,-0.0478515662252903,0.008991893380880356
17,1.8600000143051147,18,walker.pedestrian.0004,vehicle.nissan.patrol_2021,49.707684,22.832279205322266,0.5745696425437927,13.807690134165494,False,0.0005745696425437927,0.013807690134165494,1590.0,500,80.39713287353516,12.96726131439209,1.1038998365402222,57.636962890625,7.798907279968262,0.0834009125828743,0.15539363026618958,-89.99999237060547,0.0,-0.07260490953922272,-0.0513915941119194,0.009009817615151405
18,1.8600000143051147,19,walker.pedestrian.0004,vehicle.nissan.patrol_2021,49.707664,22.611202239990234,0.6083678603172302,13.807684457556766,False,0.0006083678603172302,0.013807684457556766,1570.0,500,80.39713287353516,12.957528114318848,1.1038998365402222,57.857948303222656,7.798734664916992,0.08259742707014084,0.15539363026618958,-89.99999237060547,0.0,-0.06774864345788956,-0.0547485314309597,0.008919251151382923
19,1.8600000143051147,20,walker.pedestrian.0004,vehicle.nissan.patrol_2021,49.70764,22.390113830566406,0.642166018486023,13.807677647567662,False,0.0006421660184860229,0.013807677647567662,1550.0,500,80.39713287353516,12.947253227233887,1.1038998365402222,58.07893371582031,7.79854679107666,0.08181396126747131,0.15539363026618958,-89.99999237060547,0.0,-0.06259868294000626,-0.05789182707667351,0.008727009408175945
20,1.8600000143051147,21,walker.pedestrian.0004,vehicle.nissan.patrol_2021,49.707618,22.16901397705078,0.6759642362594604,13.807671719653644,False,0.0006759642362594605,0.013807671719653644,1530.0,500,80.39713287353516,12.936437606811523,1.1038998365402222,58.2999267578125,7.798348903656006,0.08105231821537018,0.15539363026618958,-89.99999237060547,0.0,-0.05722332000732422,-0.0608215369284153,0.008441722951829433
21,1.8600000143051147,22,walker.pedestrian.0004,vehicle.nissan.patrol_2021,49.707597,21.94791030883789,0.709762454032898,13.80766583048087,False,0.0007097624540328979,0.01380766583048087,1510.0,500,80.39713287353516,12.925081253051758,1.1038998365402222,58.52091598510742,7.798139572143555,0.08031398802995682,0.15539363026618958,-89.99999237060547,0.0,-0.05173185095191002,-0.0635375827550888,0.008073226548731327
22,1.8600000143051147,23,walker.pedestrian.0004,vehicle.nissan.patrol_2021,49.707569,21.726783752441406,0.7435606718063354,13.807658171435424,False,0.0007435606718063355,0.013807658171435424,1490.0,500,80.39713287353516,12.91318416595459,1.1038998365402222,58.741912841796875,7.797919750213623,0.0795997604727745,0.15539363026618958,-89.99999237060547,0.0,-0.04623354971408844,-0.066009521484375,0.007631893269717693
23,1.8600000143051147,24,walker.pedestrian.0004,vehicle.nissan.patrol_2021,49.707546,21.505664825439453,0.777358889579773,13.807651729127143,False,0.0007773588895797729,0.013807651729127143,1470.0,500,80.39713287353516,12.90074634552002,1.1038998365402222,58.9629020690918,7.797688961029053,0.07891036570072174,0.15539363026618958,-89.99999237060547,0.0,-0.04080354794859886,-0.0682067796587944,0.0071287029422819614
24,1.8600000143051147,25,walker.pedestrian.0004,vehicle.nissan.patrol_2021,49.707524,21.284526824951172,0.8111571073532104,13.807645578826703,False,0.0008111571073532105,0.013807645578826702,1460.0,500,80.39713287353516,12.887767791748047,1.1038998365402222,59.18389129638672,7.7974467277526855,0.07824577391147614,0.15539363026618958,-89.99999237060547,0.0,-0.03552381321787834,-0.0701904222369194,0.006575425621122122
25,1.8600000143051147,26,walker.pedestrian.0004,vehicle.nissan.patrol_2021,49.7075,21.063392639160156,0.844955325126648,13.807638857538388,False,0.0008449553251266479,0.013807638857538388,1440.0,500,80.39713287353516,12.874248504638672,1.1038998365402222,59.40488052368164,7.7971930503845215,0.07760585844516754,0.15539363026618958,-89.99999237060547,0.0,-0.030428491532802582,-0.0718993991613388,0.005983619950711727
26,1.8600000143051147,27,walker.pedestrian.0004,vehicle.nissan.patrol_2021,49.707477,20.842254638671875,0.8787535429000854,13.80763250229913,False,0.0008787535429000855,0.01380763250229913,1420.0,500,80.39713287353516,12.860188484191895,1.1038998365402222,59.6258659362793,7.796937465667725,0.07699000835418701,0.15539363026618958,-89.99999237060547,0.0,-0.02556539699435234,-0.073394775390625,0.005364160519093275
27,1.8600000143051147,28,walker.pedestrian.0004,vehicle.nissan.patrol_2021,49.707463,20.621105194091797,0.912551760673523,13.80762847730782,False,0.0009125517606735229,0.013807628477307819,1400.0,500,80.39713287353516,12.845587730407715,1.1038998365402222,59.84684753417969,7.796670913696289,0.07639793306589127,0.15539363026618958,-89.99999237060547,0.0,-0.02099600061774254,-0.0746765062212944,0.004727978724986315
28,1.8600000143051147,29,walker.pedestrian.0004,vehicle.nissan.patrol_2021,49.707443,20.39995574951172,0.9463499784469604,13.807622952079864,False,0.0009463499784469605,0.013807622952079865,1380.0,500,80.39713287353516,12.830446243286133,1.1038998365402222,60.06782913208008,7.796402454376221,0.07582839578390121,0.15539363026618958,-89.99999237060547,0.0,-0.016686150804162025,-0.0757140964269638,0.004084745422005653
29,1.8600000143051147,30,walker.pedestrian.0004,vehicle.nissan.patrol_2021,49.707424,20.178794860839844,0.980148196220398,13.807617801802955,False,0.000980148196220398,0.013807617801802955,1360.0,500,80.39713287353516,12.814764022827148,1.1038998365402222,60.2888069152832,7.796123027801514,0.07528030127286911,0.15539363026618958,-89.99999237060547,0.0,-0.01272464171051979,-0.0765685886144638,0.0034438723232597113
30,1.8600000143051147,31,walker.pedestrian.0004,vehicle.nissan.patrol_2021,49.707407,19.95763397216797,1.0139464139938354,13.807613069964944,False,0.0010139464139938355,0.013807613069964943,1350.0,500,80.39713287353516,12.798541069030762,1.1038998365402222,60.5097770690918,7.795840740203857,0.07475273311138153,0.15539363026618958,-89.99999237060547,0.0,-0.009125132113695145,-0.0772094577550888,0.0028137376066297293
31,1.8600000143051147,32,walker.pedestrian.0004,vehicle.nissan.patrol_2021,49.707392,19.736461639404297,1.047744631767273,13.80760875269148,False,0.001047744631767273,0.013807608752691481,1330.0,500,80.39713287353516,12.781777381896973,1.1038998365402222,60.730751037597656,7.795557498931885,0.07424415647983551,0.15539363026618958,-89.99999237060547,0.0,-0.00586030213162303,-0.0776672288775444,0.0022018724121153355
32,1.8600000143051147,33,walker.pedestrian.0004,vehicle.nissan.patrol_2021,49.707377,19.515289306640625,1.0815428495407104,13.807604792303046,False,0.0010815428495407104,0.013807604792303045,1310.0,500,80.39713287353516,12.764472007751465,1.1038998365402222,60.951717376708984,7.795268535614014,0.07375335693359375,0.15539363026618958,-89.99999237060547,0.0,-0.002930151065811515,-0.0779724046587944,0.0016149639850482345
33,1.8600000143051147,34,walker.pedestrian.0004,vehicle.nissan.patrol_2021,49.707364,19.29412078857422,1.115341067314148,13.807601180764529,False,0.001115341067314148,0.01380760118076453,1290.0,500,80.39713287353516,12.746626853942871,1.1038998365402222,61.17267990112305,7.794974327087402,0.07327884435653687,0.15539363026618958,-89.99999237060547,0.0,-0.00036883019492961466,-0.0781249925494194,0.0010585201671347022
34,1.8600000143051147,35,walker.pedestrian.0004,vehicle.nissan.patrol_2021,49.707346,19.072933197021484,1.1491392850875854,13.807596013039081,False,0.0011491392850875855,0.01380759601303908,1280.0,500,80.39713287353516,12.728240966796875,1.1038998365402222,61.39364242553711,7.794676303863525,0.072819285094738,0.15539363026618958,-89.99999237060547,0.0,0.0018783019622787833,-0.0781249925494194,0.0005369975115172565
35,1.8600000143051147,36,walker.pedestrian.0004,vehicle.nissan.patrol_2021,49.707335,18.85175323486328,1.182937502861023,13.80759305011024,False,0.001182937502861023,0.01380759305011024,1260.0,500,80.39713287353516,12.70931339263916,1.1038998365402222,61.614593505859375,7.79437780380249,0.07237335294485092,0.15539363026618958,-89.99999237060547,0.0,0.0037839245051145554,-0.0780334398150444,5.4198200814425945e-05
36,1.8600000143051147,37,walker.pedestrian.0004,vehicle.nissan.patrol_2021,49.707325,18.630558013916016,1.2167357206344604,13.807590389618719,False,0.0012167357206344603,0.013807590389618719,1240.0,500,80.39713287353516,12.68984603881836,1.1038998365402222,61.83555221557617,7.794078826904297,0.07193965464830399,0.15539363026618958,-89.99999237060547,0.0,0.005375358741730452,-0.0777892991900444,-0.0003967284574173391
37,1.8600000143051147,38,walker.pedestrian.0004,vehicle.nissan.patrol_2021,49.707324,18.409366607666016,1.250533938407898,13.807589900421227,False,0.001250533938407898,0.013807589900421227,1220.0,500,80.39713287353516,12.66983699798584,1.1038998365402222,62.05649948120117,7.79378080368042,0.07151664793491364,0.15539363026618958,-89.99999237060547,0.0,0.006673094350844622,-0.0774841159582138,-0.0007934569148346782
38,1.8600000143051147,39,walker.pedestrian.0004,vehicle.nissan.patrol_2021,49.707316,18.188167572021484,1.284332036972046,13.807587755158995,False,0.0012843320369720459,0.013807587755158994,1210.0,500,80.39713287353516,12.649288177490234,1.1038998365402222,62.27744674682617,7.793485641479492,0.07110351324081421,0.15539363026618958,-89.99999237060547,0.0,0.007690792437642813,-0.0770873948931694,-0.0011291501577943563
39,1.8600000143051147,40,walker.pedestrian.0004,vehicle.nissan.patrol_2021,49.707309,17.966960906982422,1.3181302547454834,13.807585838757909,False,0.0013181302547454834,0.01380758583875791,1190.0,500,80.39713287353516,12.62819766998291,1.1038998365402222,62.49839401245117,7.793191909790039,0.070698581635952,0.15539363026618958,-89.99999237060547,0.0,0.008455773815512657,-0.0766296312212944,-0.0014343260554596782
40,1.8600000143051147,41,walker.pedestrian.0004,vehicle.nissan.patrol_2021,49.707303,17.745746612548828,1.351928472518921,13.807584116529119,False,0.001351928472518921,0.01380758411652912,1170.0,500,80.39713287353516,12.6065673828125,1.1038998365402222,62.71933364868164,7.792897701263428,0.07030075043439865,0.15539363026618958,-89.99999237060547,0.0,0.00898169819265604,-0.0761108249425888,-0.0017089841421693563
41,1.8600000143051147,42,walker.pedestrian.0004,vehicle.nissan.patrol_2021,49.707297,17.52452850341797,1.3857266902923584,13.80758258736636,False,0.0013857266902923583,0.01380758258736636,1150.0,500,80.39713287353516,12.584395408630371,1.1038998365402222,62.940277099609375,7.7926025390625,0.06990882754325867,0.15539363026618958,-89.99999237060547,0.0,0.009295887313783169,-0.0755309984087944,-0.0019226073054596782
42,1.8600000143051147,43,walker.pedestrian.0004,vehicle.nissan.patrol_2021,49.707292,17.30331039428711,1.419524908065796,13.807581217491665,False,0.0014195249080657959,0.013807581217491665,1140.0,500,80.39713287353516,12.56168270111084,1.1038998365402222,63.16121292114258,7.792306423187256,0.06952228397130966,0.15539363026618958,-89.99999237060547,0.0,0.009425660595297813,-0.0749511644244194,-0.0021057126577943563
43,1.8600000143051147,44,walker.pedestrian.0004,vehicle.nissan.patrol_2021,49.707288,17.082077026367188,1.4299771785736084,13.807579997097664,False,0.0014299771785736084,0.013807579997097663,1120.0,500,80.39713287353516,12.538803100585938,1.1038998365402222,63.38215255737305,7.79201602935791,0.06914012879133224,0.15539363026618958,-89.99999237060547,0.0,0.009377849288284779,-0.0743408054113388,-0.0022277827374637127
44,1.8600000143051147,45,walker.pedestrian.0004,vehicle.nissan.patrol_2021,49.707284,16.860858917236328,1.4299771785736084,13.807578911253177,False,0.0014299771785736084,0.013807578911253178,1110.0,500,80.39713287353516,12.515923500061035,1.1038998365402222,63.603084564208984,7.791728973388672,0.06876132637262344,0.15539363026618958,-89.99999237060547,0.0,0.00918660406023264,-0.07373046875,-0.002349853515625
45,1.8600000143051147,46,walker.pedestrian.0004,vehicle.nissan.patrol_2021,49.707281,16.639633178710938,1.4299771785736084,13.807577932051467,False,0.0014299771785736084,0.013807577932051467,1090.0,500,80.39713287353516,12.493043899536133,1.1038998365402222,63.82402038574219,7.791440963745117,0.06838527321815491,0.15539363026618958,-89.99999237060547,0.0,0.00886558461934328,-0.0731201097369194,-0.002410888671875
46,1.8600000143051147,47,walker.pedestrian.0004,vehicle.nissan.patrol_2021,49.707277,16.418411254882812,1.4299771785736084,13.807577068733211,False,0.0014299771785736084,0.013807577068733212,1080.0,500,80.39713287353516,12.47016429901123,1.1038998365402222,64.04495239257812,7.791153430938721,0.0680113211274147,0.15539363026618958,-89.99999237060547,0.0,0.008442113175988197,-0.0725097581744194,-0.0024108884390443563
47,1.8600000143051147,48,walker.pedestrian.0004,vehicle.nissan.patrol_2021,49.707275,16.19719696044922,1.4299771785736084,13.807576275809655,False,0.0014299771785736084,0.013807576275809655,1060.0,500,80.39713287353516,12.447284698486328,1.1038998365402222,64.26588439941406,7.790867328643799,0.06763888895511627,0.15539363026618958,-89.99999237060547,0.0,0.007936679758131504,-0.0718994066119194,-0.0024108884390443563
48,1.8600000143051147,49,walker.pedestrian.0004,vehicle.nissan.patrol_2021,49.707272,15.975967407226562,1.4299771785736084,13.807575549391311,False,0.0014299771785736084,0.013807575549391311,1050.0,500,80.39713287353516,12.424405097961426,1.1038998365402222,64.48681640625,7.79058837890625,0.06726760417222977,0.15539363026618958,-89.99999237060547,0.0,0.007356113288551569,-0.0713195726275444,-0.00238037109375
49,1.8600000143051147,50,walker.pedestrian.0004,vehicle.nissan.patrol_2021,49.70727,15.754753112792969,1.4299771785736084,13.80757488982204,False,0.0014299771785736084,0.01380757488982204,1030.0,500,80.39713287353516,12.401525497436523,1.0961923599243164,64.70774841308594,7.790309906005859,0.06689704954624176,0.15539363026618958,-89.99999237060547,0.0,0.0067209056578576565,-0.0707397311925888,-0.0023193357046693563
50,1.8600000143051147,51,walker.pedestrian.0004,vehicle.nissan.patrol_2021,49.707267,15.533531188964844,1.4299771785736084,13.807574271210731,False,0.0014299771785736084,0.01380757427121073,1020.0,500,80.39713287353516,12.378645896911621,1.0877749919891357,64.92868041992188,7.790031433105469,0.06652675569057465,0.15539363026618958,-89.99999237060547,0.0,0.006058377679437399,-0.070220947265625,-0.0022583005484193563
51,1.8600000143051147,52,walker.pedestrian.0004,vehicle.nissan.patrol_2021,49.707265,15.312309265136719,1.4299771785736084,13.807573685835361,False,0.0014299771785736084,0.01380757368583536,1000.0,500,80.39713287353516,12.355766296386719,1.0756734609603882,65.14961242675781,7.789753437042236,0.06615665555000305,0.15539363026618958,-89.99999237060547,0.0,0.005368528421968222,-0.0697021335363388,-0.002166748046875
52,1.8600000143051147,53,walker.pedestrian.0004,vehicle.nissan.patrol_2021,49.707267,15.091094970703125,1.4299771785736084,13.807574081832563,False,0.0014299771785736084,0.013807574081832563,990.0,500,80.39713287353516,12.332886695861816,1.058953881263733,65.37053680419922,7.7894816398620605,0.06578654795885086,0.15539363026618958,-89.99999237060547,0.0,0.004658188670873642,-0.0692443773150444,-0.0020446775015443563
53,1.8600000143051147,54,walker.pedestrian.0004,vehicle.nissan.patrol_2021,49.707265,14.869873046875,1.4299771785736084,13.8075735538928,False,0.0014299771785736084,0.0138075735538928,980.0,500,80.39713287353516,12.310007095336914,1.02547287940979,65.59147644042969,7.789213180541992,0.06541626155376434,0.15539363026618958,-89.99999237060547,0.0,0.003961509559303522,-0.0688171237707138,-0.0019226070726290345
54,1.8600000143051147,55,walker.pedestrian.0004,vehicle.nissan.patrol_2021,49.707263,14.648658752441406,1.4299771785736084,13.807573026176508,False,0.0014299771785736084,0.013807573026176507,960.0,500,80.39713287353516,12.287127494812012,0.99651700258255,65.8124008178711,7.788944721221924,0.0650458112359047,0.15539363026618958,-89.99999237060547,0.0,0.0032716605346649885,-0.0684204027056694,-0.0017700191820040345
55,1.8600000143051147,56,walker.pedestrian.0004,vehicle.nissan.patrol_2021,49.707261,14.427436828613281,1.4299771785736084,13.807572505757802,False,0.0014299771785736084,0.013807572505757803,950.0,500,80.39713287353516,12.26424789428711,0.9514999985694885,66.03333282470703,7.788676738739014,0.06467506289482117,0.15539363026618958,-89.99999237060547,0.0,0.0026023020036518574,-0.0680541843175888,-0.0016479489859193563
56,1.8600000143051147,57,walker.pedestrian.0004,vehicle.nissan.patrol_2021,49.707259,14.206214904785156,1.4299771785736084,13.807571977613222,False,0.0014299771785736084,0.013807571977613222,930.0,500,80.39713287353516,12.241368293762207,0.9514999985694885,66.25426483154297,7.788409233093262,0.06430408358573914,0.15539363026618958,-89.99999237060547,0.0,0.0019534339662641287,-0.0677184909582138,-0.0014953610952943563
57,1.8600000143051147,58,walker.pedestrian.0004,vehicle.nissan.patrol_2021,49.707257,13.985000610351562,1.4299771785736084,13.807571446123024,False,0.0014299771785736084,0.013807571446123023,920.0,500,80.39713287353516,12.218488693237305,0.9514999985694885,66.4751968383789,7.788141250610352,0.06393279880285263,0.15539363026618958,-89.99999237060547,0.0,0.0013387170620262623,-0.0674438402056694,-0.0013427734375
58,1.8600000143051147,59,walker.pedestrian.0004,vehicle.nissan.patrol_2021,49.707255,13.763778686523438,1.4299771785736084,13.807570907214648,False,0.0014299771785736084,0.013807570907214649,900.0,500,80.39713287353516,12.195609092712402,0.9514999985694885,66.69612884521484,7.787874698638916,0.06356147676706314,0.15539363026618958,-89.99999237060547,0.0,0.0007581509416922927,-0.0671996921300888,-0.001190185546875
59,1.8600000143051147,60,walker.pedestrian.0004,vehicle.nissan.patrol_2021,49.707253,13.542556762695312,1.4299771785736084,13.8075703554135,False,0.0014299771785736084,0.013807570355413499,890.0,500,80.39713287353516,12.1727294921875,0.9514999985694885,66.91706085205078,7.787607669830322,0.06319008022546768,0.15539363026618958,-89.99999237060547,0.0,0.00021856604143977165,-0.0669860765337944,-0.0010375974234193563
60,1.8600000143051147,61,walker.pedestrian.0004,vehicle.nissan.patrol_2021,49.707251,13.321334838867188,1.4299771785736084,13.807569787259057,False,0.0014299771785736084,0.013807569787259057,870.0,500,80.39713287353516,12.149849891662598,0.9514999985694885,67.13799285888672,7.787351131439209,0.06281871348619461,0.15539363026618958,-89.99999237060547,0.0,-0.00027320755179971457,-0.0668029710650444,-0.0008850095910020173
61,1.8600000143051147,62,walker.pedestrian.0004,vehicle.nissan.patrol_2021,49.707249,13.100112915039062,1.4299771785736084,13.807569202876829,False,0.0014299771785736084,0.013807569202876829,860.0,500,80.39713287353516,12.126970291137695,0.9514999985694885,67.35892486572266,7.787094593048096,0.06244770064949989,0.15539363026618958,-89.99999237060547,0.0,-0.0007308301865123212,-0.0666503831744194,-0.0007629393367096782
62,1.8600000143051147,63,walker.pedestrian.0004,vehicle.nissan.patrol_2021,49.707247,12.878898620605469,1.4299771785736084,13.807568604632468,False,0.0014299771785736084,0.013807568604632468,850.0,500,80.39713287353516,12.104090690612793,0.9514999985694885,67.5798568725586,7.786838054656982,0.062077026814222336,0.15539363026618958,-89.99999237060547,0.0,-0.001126981107518077,-0.0665283054113388,-0.0006103515042923391
63,1.8600000143051147,64,walker.pedestrian.0004,vehicle.nissan.patrol_2021,49.707245,12.657669067382812,1.4299771785736084,13.807567971687963,False,0.0014299771785736084,0.013807567971687962,830.0,500,80.39713287353516,12.08121109008789,0.9514999985694885,67.80079650878906,7.7865824699401855,0.06170680746436119,0.15539363026618958,-89.99999237060547,0.0,-0.001495811389759183,-0.0664672777056694,-0.00048828116268850863
64,1.8600000143051147,65,walker.pedestrian.0004,vehicle.nissan.patrol_2021,49.707242,12.436447143554688,1.4299771785736084,13.807567342638603,False,0.0014299771785736084,0.013807567342638603,820.0,500,80.39713287353516,12.058331489562988,0.9514999985694885,68.021728515625,7.786326885223389,0.06133735552430153,0.15539363026618958,-89.99999237060547,0.0,-0.0018304905388504267,-0.0664062350988388,-0.0003662108792923391
65,1.8600000143051147,66,walker.pedestrian.0004,vehicle.nissan.patrol_2021,49.70724,12.215225219726562,1.4299771785736084,13.807566700349652,False,0.0014299771785736084,0.013807566700349652,800.0,500,80.39713287353516,12.03545093536377,0.9514999985694885,68.24266052246094,7.786070823669434,0.060968704521656036,0.15539363026618958,-89.99999237060547,0.0,-0.0021105282939970493,-0.06634521484375,-0.00024414058134425431
66,1.8600000143051147,67,walker.pedestrian.0004,vehicle.nissan.patrol_2021,49.707238,11.994003295898438,1.4299771785736084,13.807566024677199,False,0.0014299771785736084,0.013807566024677198,790.0,500,80.39713287353516,12.012571334838867,0.9514999985694885,68.4636001586914,7.785816669464111,0.060601118952035904,0.15539363026618958,-89.99999237060547,0.0,-0.0023495848290622234,-0.06634521484375,-0.00015258787607308477
67,1.8600000143051147,68,walker.pedestrian.0004,vehicle.nissan.patrol_2021,49.707235,11.772781372070312,1.4299771785736084,13.80756534574001,False,0.0014299771785736084,0.013807565345740009,770.0,500,80.39713287353516,11.989691734313965,0.9514999985694885,68.68453216552734,7.785561561584473,0.06023460254073143,0.15539363026618958,-89.99999237060547,0.0,-0.0025339999701827765,-0.06634521484375,-6.103514533606358e-05
68,1.8600000143051147,69,walker.pedestrian.0004,vehicle.nissan.patrol_2021,49.707233,11.551559448242188,1.4299771785736084,13.807564636133188,False,0.0014299771785736084,0.013807564636133187,760.0,500,80.39713287353516,11.966812133789062,0.9514999985694885,68.90546417236328,7.785306930541992,0.05986953526735306,0.15539363026618958,-89.99999237060547,0.0,-0.002684264210984111,-0.0663757249712944,3.2176554668694735e-05
69,1.8600000143051147,70,walker.pedestrian.0004,vehicle.nissan.patrol_2021,49.70723,11.330329895019531,1.4299771785736084,13.807563922320174,False,0.0014299771785736084,0.013807563922320173,740.0,500,80.39713287353516,11.94393253326416,0.9514999985694885,69.12640380859375,7.785052299499512,0.0595058798789978,0.15539363026618958,-89.99999237060547,0.0,-0.002807207638397813,-0.0664062350988388,0.0001105690753320232
70,1.8600000143051147,71,walker.pedestrian.0004,vehicle.nissan.patrol_2021,49.707228,11.109100341796875,1.4299771785736084,13.807563199763347,False,0.0014299771785736084,0.013807563199763347,730.0,500,80.39713287353516,11.921052932739258,0.9514999985694885,69.34734344482422,7.784798622131348,0.059143904596567154,0.15539363026618958,-89.99999237060547,0.0,-0.002807207638397813,-0.0664062350988388,0.0001105690753320232
71,1.8600000143051147,72,walker.pedestrian.0004,vehicle.nissan.patrol_2021,49.707225,10.887870788574219,1.4299771785736084,13.8075624002065,False,0.0014299771785736084,0.0138075624002065,710.0,500,80.39713287353516,11.898173332214355,0.9514999985694885,69.56828308105469,7.784544467926025,0.05878402665257454,0.15539363026618958,-89.99999237060547,0.0,-0.0029643019661307335,-0.0665283054113388,0.0002412824978819117
72,1.8600000143051147,73,walker.pedestrian.0004,vehicle.nissan.patrol_2021,49.707222,10.666648864746094,1.4299771785736084,13.807561725958426,False,0.0014299771785736084,0.013807561725958425,700.0,500,80.39713287353516,11.875293731689453,0.9514999985694885,69.78921508789062,7.784290790557861,0.05842551961541176,0.15539363026618958,-89.99999237060547,0.0,-0.0029643019661307335,-0.0665283054113388,0.0002412824978819117
73,1.8600000143051147,74,walker.pedestrian.0004,vehicle.nissan.patrol_2021,49.707219,10.445426940917969,1.4299771785736084,13.807560954257593,False,0.0014299771785736084,0.013807560954257593,690.0,500,80.39713287353516,11.85241413116455,0.9514999985694885,70.0101547241211,7.784036636352539,0.05806918814778328,0.15539363026618958,-89.99999237060547,0.0,-0.0030257736798375845,-0.0667114108800888,0.0003390153869986534
74,1.8600000143051147,75,walker.pedestrian.0004,vehicle.nissan.patrol_2021,49.707217,10.224189758300781,1.4299771785736084,13.807560248520492,False,0.0014299771785736084,0.013807560248520492,670.0,500,80.39713287353516,11.829534530639648,0.9514999985694885,70.23109436035156,7.783783435821533,0.05771465227007866,0.15539363026618958,-89.99999237060547,0.0,-0.0030257736798375845,-0.0667114108800888,0.0003390153869986534
75,1.8600000143051147,76,walker.pedestrian.0004,vehicle.nissan.patrol_2021,49.707214,10.002967834472656,1.4299771785736084,13.807559498698241,False,0.0014299771785736084,0.013807559498698241,660.0,500,80.39713287353516,11.806654930114746,0.9514999985694885,70.4520263671875,7.783530235290527,0.05736217275261879,0.15539363026618958,-89.99999237060547,0.0,-0.002991622779518366,-0.0668945237994194,0.0004053890588693321
76,1.8600000143051147,77,walker.pedestrian.0004,vehicle.nissan.patrol_2021,49.707212,9.781745910644531,1.4299771785736084,13.80755875838123,False,0.0014299771785736084,0.01380755875838123,640.0,500,80.39713287353516,11.783775329589844,0.9514999985694885,70.67296600341797,7.7832770347595215,0.057011984288692474,0.15539363026618958,-89.99999237060547,0.0,-0.002991622779518366,-0.0668945237994194,0.0004053890588693321
77,1.8600000143051147,78,walker.pedestrian.0004,vehicle.nissan.patrol_2021,49.707209,9.560516357421875,1.4299771785736084,13.807558029466467,False,0.0014299771785736084,0.013807558029466467,630.0,500,80.39713287353516,11.760895729064941,0.9514999985694885,70.89390563964844,7.783023357391357,0.05666393041610718,0.15539363026618958,-89.99999237060547,0.0,-0.002868679352104664,-0.0671081468462944,0.0004444615915417671
78,1.8600000143051147,79,walker.pedestrian.0004,vehicle.nissan.patrol_2021,49.707206,9.339286804199219,1.4299771785736084,13.807557256217866,False,0.0014299771785736084,0.013807557256217866,610.0,500,80.39713287353516,11.738016128540039,0.9514999985694885,71.1148452758789,7.782761096954346,0.05631847307085991,0.15539363026618958,-89.99999237060547,0.0,-0.002868679352104664,-0.0671081468462944,0.0004444615915417671
79,1.8600000143051147,80,walker.pedestrian.0004,vehicle.nissan.patrol_2021,49.707204,9.118064880371094,1.4299771785736084,13.807556546044262,False,0.0014299771785736084,0.013807556546044262,600.0,500,80.39713287353516,11.715136528015137,0.9514999985694885,71.33577728271484,7.782497882843018,0.05597515031695366,0.15539363026618958,-89.99999237060547,0.0,-0.002745735924690962,-0.0673217698931694,0.00045957218389958143
80,1.8600000143051147,81,walker.pedestrian.0004,vehicle.nissan.patrol_2021,49.707201,8.896835327148438,1.4299771785736084,13.807555792537201,False,0.0014299771785736084,0.013807555792537202,580.0,500,80.39713287353516,11.692256927490234,0.9514999985694885,71.55671691894531,7.782235622406006,0.055634383112192154,0.15539363026618958,-89.99999237060547,0.0,-0.002745735924690962,-0.0673217698931694,0.00045957218389958143
81,1.8600000143051147,82,walker.pedestrian.0004,vehicle.nissan.patrol_2021,49.707198,8.675613403320312,1.4299771785736084,13.807555103330804,False,0.0014299771785736084,0.013807555103330805,570.0,500,80.39713287353516,11.669377326965332,0.9514999985694885,71.77765655517578,7.781972408294678,0.0552956759929657,0.15539363026618958,-89.99999237060547,0.0,-0.002568150870501995,-0.0675048679113388,0.0004526538250502199
82,1.8600000143051147,83,walker.pedestrian.0004,vehicle.nissan.patrol_2021,49.707196,8.454383850097656,1.4299771785736084,13.807554328054,False,0.0014299771785736084,0.013807554328054,550.0,500,80.39713287353516,11.64649772644043,0.9514999985694885,71.99859619140625,7.781710147857666,0.05495979264378548,0.15539363026618958,-89.99999237060547,0.0,-0.002568150870501995,-0.0675048679113388,0.0004526538250502199
83,1.8600000143051147,84,walker.pedestrian.0004,vehicle.nissan.patrol_2021,49.707193,8.233154296875,1.4299771785736084,13.807553657886562,False,0.0014299771785736084,0.013807553657886561,540.0,500,80.39713287353516,11.623618125915527,0.9514999985694885,72.21953582763672,7.781446933746338,0.054625969380140305,0.15539363026618958,-89.99999237060547,0.0,-0.0023837359622120857,-0.0676879808306694,0.00042792566819116473
84,1.8600000143051147,85,walker.pedestrian.0004,vehicle.nissan.patrol_2021,49.70719,8.011924743652344,1.4299771785736084,13.807552904929143,False,0.0014299771785736084,0.013807552904929143,530.0,500,80.39713287353516,11.600738525390625,0.9514999985694885,72.44047546386719,7.78118371963501,0.054295044392347336,0.15539363026618958,-89.99999237060547,0.0,-0.0023837359622120857,-0.0676879808306694,0.00042792566819116473
85,1.8600000143051147,86,walker.pedestrian.0004,vehicle.nissan.patrol_2021,49.707188,7.79071044921875,1.4299771785736084,13.807552251759077,False,0.0014299771785736084,0.013807552251759076,510.0,500,80.39713287353516,11.577858924865723,0.9514999985694885,72.66140747070312,7.780921459197998,0.05396613851189613,0.15539363026618958,-89.99999237060547,0.0,-0.002226641634479165,-0.0678405612707138,0.00038923550164327025
86,1.8600000143051147,87,walker.pedestrian.0004,vehicle.nissan.patrol_2021,49.707186,7.569480895996094,1.4299771785736084,13.80755153481702,False,0.0014299771785736084,0.01380755153481702,500.0,500,80.39713287353516,11.55497932434082,0.9514999985694885,72.8823471069336,7.78065824508667,0.053640060126781464,0.15539363026618958,-89.99999237060547,0.0,-0.002226641634479165,-0.0678405612707138,0.00038923550164327025
87,1.8600000143051147,88,walker.pedestrian.0004,vehicle.nissan.patrol_2021,49.267464,7.3502044677734375,1.4299771785736084,13.685406546053322,False,0.0014299771785736084,0.013685406546053321,490.0,500,80.39713287353516,11.532099723815918,0.9514999985694885,73.10133361816406,7.7803955078125,0.05331531539559364,0.15539363026618958,-89.99999237060547,0.0,-0.0019534339662641287,-0.0679626315832138,0.0003408542834222317
88,1.8600000143051147,89,walker.pedestrian.0004,vehicle.nissan.patrol_2021,48.820555,7.132957458496094,1.4299771785736084,13.561265391000394,False,0.0014299771785736084,0.013561265391000393,480.0,500,80.39713287353516,11.509220123291016,0.9514999985694885,73.31829071044922,7.780141830444336,0.05299293249845505,0.15539363026618958,-89.99999237060547,0.0,-0.0017075472278520465,-0.0680236741900444,0.00031544824014417827
89,1.8600000143051147,90,walker.pedestrian.0004,vehicle.nissan.patrol_2021,48.373424,6.91766357421875,1.4299771785736084,13.437062260077607,False,0.0014299771785736084,0.013437062260077607,470.0,500,80.39713287353516,11.486340522766113,0.9514999985694885,73.53329467773438,7.77988862991333,0.05267295613884926,0.15539363026618958,-89.99999237060547,0.0,-0.001372867962345481,-0.0680847018957138,0.00029012930463068187
90,1.8600000143051147,91,walker.pedestrian.0004,vehicle.nissan.patrol_2021,47.926351,6.704353332519531,1.4299771785736084,13.312875299042558,False,0.0014299771785736084,0.013312875299042558,450.0,500,80.39713287353516,11.463459968566895,0.9514999985694885,73.7463150024414,7.779635429382324,0.0523558035492897,0.15539363026618958,-89.99999237060547,0.0,-0.0010108679998666048,-0.0681152269244194,0.0002653361007105559
91,1.8600000143051147,92,walker.pedestrian.0004,vehicle.nissan.patrol_2021,47.479216,6.4930419921875,1.4299771785736084,13.18867115650755,False,0.0014299771785736084,0.013188671156507549,440.0,500,80.39713287353516,11.440580368041992,0.9514999985694885,73.95733642578125,7.779382228851318,0.05204162374138832,0.15539363026618958,-89.99999237060547,0.0,-0.0005532453069463372,-0.0681762546300888,0.00024136522551998496
92,1.8600000143051147,93,walker.pedestrian.0004,vehicle.nissan.patrol_2021,47.032143,6.283683776855469,1.4299771785736084,13.064484145994328,False,0.0014299771785736084,0.013064484145994327,430.0,500,80.39713287353516,11.41770076751709,0.9514999985694885,74.16639709472656,7.779138565063477,0.05173061415553093,0.15539363026618958,-89.99999237060547,0.0,-9.56226431299001e-05,-0.0682067796587944,0.00021865345479454845
93,1.8600000143051147,94,walker.pedestrian.0004,vehicle.nissan.patrol_2021,46.585004,6.076362609863281,1.4299771785736084,12.940279020962315,False,0.0014299771785736084,0.012940279020962314,420.0,500,80.39713287353516,11.394821166992188,0.9514999985694885,74.37342834472656,7.778894901275635,0.051422957330942154,0.15539363026618958,-89.99999237060547,0.0,0.00040298112435266376,-0.0682372972369194,0.00019741797586902976
94,1.8600000143051147,95,walker.pedestrian.0004,vehicle.nissan.patrol_2021,46.137938,5.870979309082031,1.4299771785736084,12.816093914437117,False,0.0014299771785736084,0.012816093914437117,410.0,500,80.39713287353516,11.371941566467285,0.9514999985694885,74.57852172851562,7.778651714324951,0.05111885070800781,0.15539363026618958,-89.99999237060547,0.0,0.0009084151242859662,-0.0682983249425888,0.0001777063444023952
95,1.8600000143051147,96,walker.pedestrian.0004,vehicle.nissan.patrol_2021,45.690865,5.667640686035156,1.4299771785736084,12.69190691425446,False,0.0014299771785736084,0.01269190691425446,400.0,500,80.39713287353516,11.349061965942383,0.9514999985694885,74.78157043457031,7.778408050537109,0.050818175077438354,0.15539363026618958,-89.99999237060547,0.0,0.0014206792693585157,-0.0683288499712944,0.00015957459982018918
96,1.8600000143051147,97,walker.pedestrian.0004,vehicle.nissan.patrol_2021,45.24374,5.46624755859375,1.4299771785736084,12.567705610686847,False,0.0014299771785736084,0.012567705610686847,390.0,500,80.39713287353516,11.32618236541748,0.9514999985694885,74.982666015625,7.778163909912109,0.0505211241543293,0.15539363026618958,-89.99999237060547,0.0,0.0019329434726387262,-0.0683593675494194,0.00014308902609627694
97,1.8600000143051147,98,walker.pedestrian.0004,vehicle.nissan.patrol_2021,44.796653,5.266883850097656,1.4299771785736084,12.443514811087008,False,0.0014299771785736084,0.012443514811087008,380.0,500,80.39713287353516,11.303302764892578,0.9514999985694885,75.1817398071289,7.77793025970459,0.05022762343287468,0.15539363026618958,-89.99999237060547,0.0,0.002438377356156707,-0.0683898776769638,0.00012818488175980747
98,1.8600000143051147,99,walker.pedestrian.0004,vehicle.nissan.patrol_2021,44.349512,5.0694732666015625,1.4299771785736084,12.319308767468389,False,0.0014299771785736084,0.012319308767468388,370.0,500,80.39713287353516,11.280423164367676,0.9514999985694885,75.37885284423828,7.777695655822754,0.04993770644068718,0.15539363026618958,-89.99999237060547,0.0,0.002930151065811515,-0.0684204027056694,0.00011492188059492037
99,1.8600000143051147,100,walker.pedestrian.0004,vehicle.nissan.patrol_2021,43.902442,4.8740234375,1.4299771785736084,12.195122769562683,False,0.0014299771785736084,0.012195122769562684,360.0,500,80.39713287353516,11.257543563842773,0.9514999985694885,75.57400512695312,7.777462005615234,0.049651145935058594,0.15539363026618958,-89.99999237060547,0.0,0.003394603729248047,-0.0684204027056694,0.00010316992847947404
100,1.8600000143051147,101,walker.pedestrian.0004,vehicle.nissan.patrol_2021,43.455311,4.68060302734375,1.4299771785736084,12.070919626814552,False,0.0014299771785736084,0.012070919626814553,350.0,500,80.39713287353516,11.234663963317871,0.9514999985694885,75.76713562011719,7.777227401733398,0.04936801642179489,0.15539363026618958,-89.99999237060547,0.0,0.0038453962188214064,-0.0684509202837944,9.29094385355711e-05
101,1.8600000143051147,102,walker.pedestrian.0004,vehicle.nissan.patrol_2021,43.008234,4.4891357421875,1.4299771785736084,11.946731764729625,False,0.0014299771785736084,0.011946731764729625,340.0,500,80.39713287353516,11.211784362792969,0.9514999985694885,75.95830535888672,7.777003765106201,0.04908820986747742,0.15539363026618958,-89.99999237060547,0.0,0.0042688678950071335,-0.0684814304113388,8.40654902276583e-05
102,1.8600000143051147,103,walker.pedestrian.0004,vehicle.nissan.patrol_2021,42.561103,4.299690246582031,1.4299771785736084,11.822528670727117,False,0.0014299771785736084,0.011822528670727117,320.0,500,80.39713287353516,11.188904762268066,0.9514999985694885,76.14745330810547,7.7767791748046875,0.04881149157881737,0.15539363026618958,-89.99999237060547,0.0,0.004658188670873642,-0.0685119479894638,7.665351586183533e-05
103,1.8600000143051147,104,walker.pedestrian.0004,vehicle.nissan.patrol_2021,42.114024,4.1121978759765625,1.4299771785736084,11.698339910610237,False,0.0014299771785736084,0.011698339910610237,310.0,500,80.39713287353516,11.166025161743164,0.9514999985694885,76.33464813232422,7.776555061340332,0.04853786528110504,0.15539363026618958,-89.99999237060547,0.0,0.005020188633352518,-0.0685424730181694,7.044193625915796e-05
104,1.8600000143051147,105,walker.pedestrian.0004,vehicle.nissan.patrol_2021,41.666882,3.9267501831054688,1.4299771785736084,11.574134005788654,False,0.0014299771785736084,0.011574134005788654,300.0,500,80.39713287353516,11.143145561218262,0.9514999985694885,76.51980590820312,7.776330471038818,0.04826713353395462,0.15539363026618958,-89.99999237060547,0.0,0.005354868248105049,-0.0685424730181694,6.52220260235481e-05
105,1.8600000143051147,106,walker.pedestrian.0004,vehicle.nissan.patrol_2021,41.219745,3.7432479858398438,1.4299771785736084,11.449929073014594,False,0.0014299771785736084,0.011449929073014594,290.0,500,80.39713287353516,11.12026596069336,0.9514999985694885,76.70301055908203,7.776115417480469,0.04799919202923775,0.15539363026618958,-89.99999237060547,0.0,0.005655396264046431,-0.0685729905962944,6.0985916206846014e-05
106,1.8600000143051147,107,walker.pedestrian.0004,vehicle.nissan.patrol_2021,40.772679,3.5616989135742188,1.4299771785736084,11.325744200954764,False,0.0014299771785736084,0.011325744200954764,280.0,500,80.39713287353516,11.097386360168457,0.9514999985694885,76.8842544555664,7.7759013175964355,0.04773395508527756,0.15539363026618958,-89.99999237060547,0.0,0.005921773612499237,-0.0686035007238388,5.7645083870738745e-05
107,1.8600000143051147,108,walker.pedestrian.0004,vehicle.nissan.patrol_2021,40.325528,3.3821868896484375,1.4299771785736084,11.201535510490256,False,0.0014299771785736084,0.011201535510490256,270.0,500,80.39713287353516,11.074506759643555,0.9514999985694885,77.06346893310547,7.775686264038086,0.04747119918465614,0.15539363026618958,-89.99999237060547,0.0,0.0061540002934634686,-0.0686035007238388,5.5079861340345815e-05
108,1.8600000143051147,109,walker.pedestrian.0004,vehicle.nissan.patrol_2021,39.878473,3.2046279907226562,1.4299771785736084,11.07735354335697,False,0.0014299771785736084,0.01107735354335697,260.0,500,80.39713287353516,11.051627159118652,0.9514999985694885,77.24073791503906,7.7754716873168945,0.04721084609627724,0.15539363026618958,-89.99999237060547,0.0,0.00636573601514101,-0.0686340183019638,5.319652336766012e-05
109,1.8600000143051147,110,walker.pedestrian.0004,vehicle.nissan.patrol_2021,39.431342,3.0290908813476562,1.4299771785736084,10.953150618654796,False,0.0014299771785736084,0.010953150618654796,240.0,500,80.39713287353516,11.02874755859375,0.9514999985694885,77.41596984863281,7.775260925292969,0.046952780336141586,0.15539363026618958,-89.99999237060547,0.0,0.006543321069329977,-0.0686340183019638,5.1901635742979124e-05
110,1.8600000143051147,111,walker.pedestrian.0004,vehicle.nissan.patrol_2021,38.98426,2.8555068969726562,1.4299771785736084,10.828961063582499,False,0.0014299771785736084,0.010828961063582498,230.0,500,80.39713287353516,11.005867958068848,0.9514999985694885,77.58924865722656,7.775055885314941,0.04669681563973427,0.15539363026618958,-89.99999237060547,0.0,0.006693584844470024,-0.0686645433306694,5.113353472552262e-05
111,1.8600000143051147,112,walker.pedestrian.0004,vehicle.nissan.patrol_2021,38.537119,2.6839523315429688,1.4299771785736084,10.704755323420208,False,0.0014299771785736084,0.010704755323420209,220.0,500,80.39713287353516,10.982988357543945,0.9514999985694885,77.76050567626953,7.774850845336914,0.0464429073035717,0.15539363026618958,-89.99999237060547,0.0,0.006816528271883726,-0.0686950609087944,5.091558341518976e-05
112,1.8600000143051147,113,walker.pedestrian.0004,vehicle.nissan.patrol_2021,38.090058,2.5143508911132812,1.4299771785736084,10.580571538412208,False,0.0014299771785736084,0.010580571538412208,210.0,500,80.39713287353516,10.960108757019043,0.9514999985694885,77.92980194091797,7.774645805358887,0.046190910041332245,0.15539363026618958,-89.99999237060547,0.0,0.006918981205672026,-0.0686950609087944,5.083817086415365e-05
113,1.8600000143051147,114,walker.pedestrian.0004,vehicle.nissan.patrol_2021,37.64292,2.3467636108398438,1.4299771785736084,10.45636678202822,False,0.0014299771785736084,0.01045636678202822,200.0,500,80.39713287353516,10.93722915649414,0.9514999985694885,78.09709930419922,7.774440765380859,0.045940741896629333,0.15539363026618958,-89.99999237060547,0.0,0.006918981205672026,-0.0686950609087944,5.083817086415365e-05
114,1.8600000143051147,115,walker.pedestrian.0004,vehicle.nissan.patrol_2021,37.195777,2.1811447143554688,1.4299771785736084,10.332160176814742,True,0.0014299771785736084,0.010332160176814742,190.0,500,80.39713287353516,10.914349555969238,0.9514999985694885,78.26241302490234,7.7742462158203125,0.045692138373851776,0.15539363026618958,-89.99999237060547,0.0,0.007048754952847958,-0.06872556358575821,5.1727220125030726e-05
115,1.8600000143051147,116,walker.pedestrian.0004,vehicle.nissan.patrol_2021,36.748701,2.017486572265625,1.4299771785736084,10.207972594417233,True,0.0014299771785736084,0.010207972594417233,170.0,500,80.39713287353516,10.891469955444336,0.9514999985694885,78.42576599121094,7.774050712585449,0.04544540122151375,0.15539363026618958,-89.99999237060547,0.0,0.007048754952847958,-0.06872556358575821,5.1727220125030726e-05
116,1.8600000143051147,117,walker.pedestrian.0004,vehicle.nissan.patrol_2021,36.301606,1.8558578491210938,1.4299771785736084,10.083779352538613,True,0.0014299771785736084,0.010083779352538614,160.0,500,80.39713287353516,10.868589401245117,0.9514999985694885,78.58708953857422,7.773855209350586,0.04520011693239212,0.15539363026618958,-89.99999237060547,0.0,0.007048754952847958,-0.06872556358575821,5.1727220125030726e-05
117,1.8600000143051147,118,walker.pedestrian.0004,vehicle.nissan.patrol_2021,36.29415,1.6942214965820312,1.4299771785736084,10.081708402665837,True,0.0014299771785736084,0.010081708402665838,150.0,500,80.39713287353516,10.845709800720215,0.9514999985694885,78.74842071533203,7.773660182952881,0.044957198202610016,0.15539363026618958,-89.99999237060547,0.0,0.007048754952847958,-0.06872556358575821,5.1727220125030726e-05
118,1.8600000143051147,119,walker.pedestrian.0004,vehicle.nissan.patrol_2021,35.414689,1.5365142822265625,1.4299771785736084,9.83741371577952,True,0.0014299771785736084,0.00983741371577952,140.0,500,80.39713287353516,10.822830200195312,0.9514999985694885,78.90583038330078,7.77347469329834,0.04471469670534134,0.15539363026618958,-89.99999237060547,0.0,0.007048754952847958,-0.06872556358575821,5.1727220125030726e-05
119,1.8600000143051147,120,walker.pedestrian.0004,vehicle.nissan.patrol_2021,34.960374,1.3808059692382812,1.4299771785736084,9.711214925020839,True,0.0014299771785736084,0.009711214925020839,120.0,500,80.39713287353516,10.79995059967041,0.9514999985694885,79.06122589111328,7.773289680480957,0.04447353258728981,0.15539363026618958,-89.99999237060547,0.0,0.007048754952847958,-0.06872556358575821,5.1727220125030726e-05
120,1.8600000143051147,121,walker.pedestrian.0004,vehicle.nissan.patrol_2021,34.513158,1.227142333984375,1.4299771785736084,9.586988332596688,True,0.0014299771785736084,0.009586988332596687,110.0,500,80.39713287353516,10.777070999145508,0.9514999985694885,79.21458435058594,7.773104190826416,0.0442337803542614,0.15539363026618958,-89.99999237060547,0.0,0.007048754952847958,-0.06872556358575821,5.1727220125030726e-05
121,1.8600000143051147,122,walker.pedestrian.0004,vehicle.nissan.patrol_2021,34.066049,1.0754318237304688,1.4299771785736084,9.462791312505663,True,0.0014299771785736084,0.009462791312505664,100.0,500,80.39713287353516,10.754191398620605,0.9514999985694885,79.3659896850586,7.772918701171875,0.043995436280965805,0.15539363026618958,-89.99999237060547,0.0,0.007048754952847958,-0.06872556358575821,5.1727220125030726e-05
122,1.8600000143051147,123,walker.pedestrian.0004,vehicle.nissan.patrol_2021,33.618909,0.925689697265625,1.4299771785736084,9.338585715559782,True,0.0014299771785736084,0.009338585715559782,90.0,500,80.39713287353516,10.731311798095703,0.9514999985694885,79.51543426513672,7.772742748260498,0.04375842958688736,0.15539363026618958,-89.99999237060547,0.0,0.006946302019059658,-0.0688476413488388,6.316998042166233e-05
123,1.8600000143051147,124,walker.pedestrian.0004,vehicle.nissan.patrol_2021,33.171806,0.7779617309570312,1.4299771785736084,9.214390681826153,True,0.0014299771785736084,0.009214390681826152,70.0,500,80.39713287353516,10.7084321975708,0.9514999985694885,79.66285705566406,7.772566795349121,0.043522413820028305,0.15539363026618958,-89.99999237060547,0.0,0.006946302019059658,-0.0688476413488388,6.316998042166233e-05
124,1.8600000143051147,125,walker.pedestrian.0004,vehicle.nissan.patrol_2021,32.724704,0.6321792602539062,1.4299771785736084,9.090195588964457,True,0.0014299771785736084,0.009090195588964458,60.0,500,80.39713287353516,10.685552597045898,0.9514999985694885,79.8083267211914,7.772391319274902,0.04328765720129013,0.15539363026618958,-89.99999237060547,0.0,0.006946302019059658,-0.0688476413488388,6.316998042166233e-05
125,1.8600000143051147,126,walker.pedestrian.0004,vehicle.nissan.patrol_2021,32.277598,0.48844146728515625,1.4299771785736084,8.965999553283737,True,0.0014299771785736084,0.008965999553283737,50.0,500,80.39713287353516,10.662672996520996,0.9514999985694885,79.9517593383789,7.772215843200684,0.04305427521467209,0.15539363026618958,-89.99999237060547,0.0,0.006837018765509129,-0.0688781663775444,6.802022835472599e-05
126,1.8600000143051147,127,walker.pedestrian.0004,vehicle.nissan.patrol_2021,31.830459,0.346649169921875,1.4299771785736084,8.841794042834788,True,0.0014299771785736084,0.008841794042834788,30.0,500,80.39713287353516,10.639793395996094,0.9514999985694885,80.0932388305664,7.772049903869629,0.04282188415527344,0.15539363026618958,-89.99999237060547,0.0,0.006837018765509129,-0.0688781663775444,6.802022835472599e-05
127,1.8600000143051147,128,walker.pedestrian.0004,vehicle.nissan.patrol_2021,31.38336,0.2068939208984375,1.4299771785736084,8.717599929564853,True,0.0014299771785736084,0.008717599929564853,20.0,500,80.39713287353516,10.616913795471191,0.9514999985694885,80.23269653320312,7.771883964538574,0.04259071126580238,0.15539363026618958,-89.99999237060547,0.0,0.006837018765509129,-0.0688781663775444,6.802022835472599e-05
128,1.8600000143051147,129,walker.pedestrian.0004,vehicle.nissan.patrol_2021,30.936258,0.06908416748046875,1.4299771785736084,8.593404872504182,True,0.0014299771785736084,0.008593404872504182,10.0,500,80.39713287353516,10.594034194946289,0.9514999985694885,80.37019348144531,7.7717180252075195,0.04236087575554848,0.15539363026618958,-89.99999237060547,0.0,0.006714075803756714,-0.0689391940832138,7.079504575813189e-05
129,1.8600000143051147,130,walker.pedestrian.0004,vehicle.nissan.patrol_2021,30.489111,-0.06674957275390625,1.4299771785736084,8.469197491773473,True,0.0014299771785736084,0.008469197491773472,-10.0,500,80.39713287353516,10.571154594421387,0.9514999985694885,80.5057144165039,7.771552085876465,0.04213195666670799,0.15539363026618958,-89.99999237060547,0.0,0.006714075803756714,-0.0689391940832138,7.079504575813189e-05
130,1.8600000143051147,131,walker.pedestrian.0004,vehicle.nissan.patrol_2021,30.042012,-0.2005767822265625,1.4299771785736084,8.345003407711902,True,0.0014299771785736084,0.008345003407711903,-20.0,500,80.39713287353516,10.548274993896484,0.9514999985694885,80.63922882080078,7.771395683288574,0.0419042594730854,0.15539363026618958,-89.99999237060547,0.0,0.006714075803756714,-0.0689391940832138,7.079504575813189e-05
131,1.8600000143051147,132,walker.pedestrian.0004,vehicle.nissan.patrol_2021,29.594903,-0.332427978515625,1.4299771785736084,8.220806472030478,True,0.0014299771785736084,0.008220806472030478,-30.0,500,80.39713287353516,10.525395393371582,0.9514999985694885,80.77078247070312,7.771239280700684,0.04167778044939041,0.15539363026618958,-89.99999237060547,0.0,0.0065979622304439545,-0.0689697116613388,7.187817391240969e-05
132,1.8600000143051147,133,walker.pedestrian.0004,vehicle.nissan.patrol_2021,29.147767,-0.46227264404296875,1.4299771785736084,8.096601972876815,True,0.0014299771785736084,0.008096601972876816,-50.0,500,80.39713287353516,10.50251579284668,0.9514999985694885,80.90031433105469,7.771083831787109,0.041452255100011826,0.15539363026618958,-89.99999237060547,0.0,0.0065979622304439545,-0.0689697116613388,7.187817391240969e-05
133,1.8600000143051147,134,walker.pedestrian.0004,vehicle.nissan.patrol_2021,28.700674,-0.5901641845703125,1.4299771785736084,7.972409351365009,True,0.0014299771785736084,0.00797240935136501,-60.0,500,80.39713287353516,10.479636192321777,0.9514999985694885,81.02789306640625,7.770927429199219,0.04122787341475487,0.15539363026618958,-89.99999237060547,0.0,0.0065979622304439545,-0.0689697116613388,7.187817391240969e-05
134,1.8600000143051147,135,walker.pedestrian.0004,vehicle.nissan.patrol_2021,28.253563,-0.7160263061523438,1.4299771785736084,7.848211973399193,True,0.0014299771785736084,0.007848211973399194,-80.0,500,80.39713287353516,10.456756591796875,0.9514999985694885,81.1534423828125,7.77078104019165,0.041004713624715805,0.15539363026618958,-89.99999237060547,0.0,0.0065979622304439545,-0.0689697116613388,7.187817391240969e-05
135,1.8600000143051147,136,walker.pedestrian.0004,vehicle.nissan.patrol_2021,27.806429,-0.8399276733398438,1.4299771785736084,7.724007932729296,True,0.0014299771785736084,0.0077240079327292955,-90.0,500,80.39713287353516,10.433876991271973,0.9514999985694885,81.27703094482422,7.770634651184082,0.04078277572989464,0.15539363026618958,-89.99999237060547,0.0,0.006481849122792482,-0.0690002366900444,7.13804256520234e-05
136,1.8600000143051147,137,walker.pedestrian.0004,vehicle.nissan.patrol_2021,27.359323,-0.9617996215820312,1.4299771785736084,7.59981206145925,True,0.0014299771785736084,0.00759981206145925,-110.0,500,80.39713287353516,10.41099739074707,0.9514999985694885,81.39859771728516,7.770488262176514,0.040561750531196594,0.15539363026618958,-89.99999237060547,0.0,0.006481849122792482,-0.0690002366900444,7.13804256520234e-05
137,1.8600000143051147,138,walker.pedestrian.0004,vehicle.nissan.patrol_2021,26.91222,-1.0817642211914062,1.4299771785736084,7.475616628809906,True,0.0014299771785736084,0.007475616628809906,-120.0,500,80.39713287353516,10.388117790222168,0.9514999985694885,81.51824188232422,7.770341396331787,0.04034183546900749,0.15539363026618958,-89.99999237060547,0.0,0.006481849122792482,-0.0690002366900444,7.13804256520234e-05
138,1.8600000143051147,139,walker.pedestrian.0004,vehicle.nissan.patrol_2021,26.465084,-1.1997299194335938,1.4299771785736084,7.351412152054474,True,0.0014299771785736084,0.007351412152054474,-140.0,500,80.39713287353516,10.365238189697266,0.9514999985694885,81.63589477539062,7.770195960998535,0.04012317582964897,0.15539363026618958,-89.99999237060547,0.0,0.006481849122792482,-0.0690002366900444,7.13804256520234e-05
139,1.8600000143051147,140,walker.pedestrian.0004,vehicle.nissan.patrol_2021,26.017979,-1.3156661987304688,1.4299771785736084,7.2272162690702295,True,0.0014299771785736084,0.0072272162690702295,-150.0,500,80.39713287353516,10.342358589172363,0.9514999985694885,81.75151824951172,7.770059108734131,0.03990558534860611,0.15539363026618958,-89.99999237060547,0.0,0.006481849122792482,-0.0690002366900444,7.13804256520234e-05
140,1.8600000143051147,141,walker.pedestrian.0004,vehicle.nissan.patrol_2021,25.570839,-1.4295806884765625,1.4299771785736084,7.103010867592305,True,0.0014299771785736084,0.007103010867592305,-170.0,500,80.39713287353516,10.319478988647461,0.9514999985694885,81.8651123046875,7.769922256469727,0.03968917578458786,0.15539363026618958,-89.99999237060547,0.0,0.006481849122792482,-0.0690002366900444,7.13804256520234e-05
141,1.8600000143051147,142,walker.pedestrian.0004,vehicle.nissan.patrol_2021,25.123741,-1.5416107177734375,1.4299771785736084,6.978816924722631,True,0.0014299771785736084,0.0069788169247226315,-180.0,500,80.39713287353516,10.296598434448242,0.9514999985694885,81.97683715820312,7.769785404205322,0.03947387635707855,0.15539363026618958,-89.99999237060547,0.0,0.006481849122792482,-0.0690002366900444,7.13804256520234e-05
