frame,ped_height,sim_time,walker,ego,e_veloc,distance,walker_vel_ms,ego_vel_ms,ttc_less_than_200,walker_vel_mms,ego_vel_mms,TCC,TCC_threshold,w_location_x,w_location_y,w_location_z,e_location_x,e_location_y,e_location_z,w_rotation_pitch,w_rotation_yaw,w_rotation_roll,e_rotation_pitch,e_rotation_yaw,e_rotation_roll
0,1.8600000143051147,1,walker.pedestrian.0004,vehicle.nissan.patrol_2021,56.787514,21.044803619384766,0.0,15.774309350748036,False,0.0,0.015774309350748035,1330.0,500,74.50808715820312,13.049999237060547,1.1038998365402222,53.537010192871094,7.799999713897705,0.09770458191633224,0.15539363026618958,-89.99999237060547,0.0,-0.04361075535416603,-3.051757266803179e-05,9.889453394862358e-06
1,1.8600000143051147,2,walker.pedestrian.0004,vehicle.nissan.patrol_2021,56.125924,20.79558563232422,0.0357055626809597,15.59053452948786,False,3.57055626809597e-05,0.01559053452948786,1330.0,500,74.50808715820312,13.04942798614502,1.1038998365402222,53.786277770996094,7.8000006675720215,0.09699317812919617,0.15539363026618958,-89.99999237060547,0.0,-0.05106249079108238,-9.155272709904239e-05,3.347721212776378e-05
2,1.8600000143051147,3,walker.pedestrian.0004,vehicle.nissan.patrol_2021,55.913247,20.547019958496094,0.0714111253619194,15.531457624418,False,7.14111253619194e-05,0.015531457624418,1320.0,500,74.50808715820312,13.048285484313965,1.1038998365402222,54.034881591796875,7.8000006675720215,0.09624412655830383,0.15539363026618958,-89.99999237060547,0.0,-0.05700475722551346,-0.00018310545419808477,6.965730426600203e-05
3,1.8600000143051147,4,walker.pedestrian.0004,vehicle.nissan.patrol_2021,55.884143,20.29853057861328,0.1071166843175888,15.523373078461272,False,0.00010711668431758881,0.015523373078461272,1300.0,500,74.50808715820312,13.046571731567383,1.1038998365402222,54.28339767456055,7.80000114440918,0.09547275304794312,0.15539363026618958,-89.99999237060547,0.0,-0.06256452947854996,-0.0003051757230423391,0.00011485752474982291
4,1.8600000143051147,5,walker.pedestrian.0004,vehicle.nissan.patrol_2021,55.887875,20.05002212524414,0.1428222507238388,15.524409777207252,False,0.0001428222507238388,0.015524409777207251,1280.0,500,74.50808715820312,13.044286727905273,1.1038998365402222,54.53192901611328,7.800002098083496,0.09468158334493637,0.15539363026618958,-89.99999237060547,0.0,-0.0678374320268631,-0.0004577636136673391,0.00016583064279984683
5,1.8600000143051147,6,walker.pedestrian.0004,vehicle.nissan.patrol_2021,55.890013,19.801502227783203,0.1785278022289276,15.525003588523667,False,0.00017852780222892762,0.015525003588523666,1260.0,500,74.50808715820312,13.041430473327637,1.1038998365402222,54.78045654296875,7.8000030517578125,0.09387073665857315,0.15539363026618958,-89.99999237060547,0.0,-0.07272785156965256,-0.0006408691988326609,0.0002199403679696843
6,1.8600000143051147,7,walker.pedestrian.0004,vehicle.nissan.patrol_2021,55.889364,19.552978515625,0.2142333686351776,15.52482345261936,False,0.00021423336863517762,0.01552482345261936,1240.0,500,74.50808715820312,13.038002967834473,1.1038998365402222,55.02899169921875,7.800004005432129,0.0930425226688385,0.15539363026618958,-89.99999237060547,0.0,-0.0771811306476593,-0.0008544920710846782,0.0002747161779552698
7,1.8600000143051147,8,walker.pedestrian.0004,vehicle.nissan.patrol_2021,55.889414,19.304431915283203,0.2499389350414276,15.524837237110951,False,0.0002499389350414276,0.01552483723711095,1220.0,500,74.50808715820312,13.034003257751465,1.1038998365402222,55.27753448486328,7.8000054359436035,0.09219790995121002,0.15539363026618958,-89.99999237060547,0.0,-0.0812382623553276,-0.001068115234375,0.00032809434924274683
8,1.8600000143051147,9,walker.pedestrian.0004,vehicle.nissan.patrol_2021,55.88952,19.055877685546875,0.2856445014476776,15.52486668382176,False,0.0002856445014476776,0.01552486668382176,1210.0,500,74.50808715820312,13.029433250427246,1.1038998365402222,55.52607345581055,7.799999237060547,0.0913388803601265,0.15539363026618958,-89.99999237060547,0.0,-0.08487192541360855,-0.0013122556265443563,0.0003783675783779472
9,1.8600000143051147,10,walker.pedestrian.0004,vehicle.nissan.patrol_2021,55.889566,18.807308197021484,0.3213500380516052,15.52487932542727,False,0.00032135003805160525,0.01552487932542727,1190.0,500,74.50808715820312,13.0242919921875,1.1038998365402222,55.77462387084961,7.799991130828857,0.09046722203493118,0.15539363026618958,-89.99999237060547,0.0,-0.08804113417863846,-0.001556396484375,0.0004241145506966859
10,1.8600000143051147,11,walker.pedestrian.0004,vehicle.nissan.patrol_2021,55.906188,18.55870819091797,0.3570556044578552,15.529496558074895,False,0.00035705560445785524,0.015529496558074894,1170.0,500,74.50808715820312,13.01857852935791,1.1038998365402222,56.023197174072266,7.79998254776001,0.08958442509174347,0.15539363026618958,-89.99999237060547,0.0,-0.09075954556465149,-0.0018005369929596782,0.0004639735852833837
11,1.8600000143051147,12,walker.pedestrian.0004,vehicle.nissan.patrol_2021,55.954684,18.30996322631836,0.3927611708641052,15.542967889271058,False,0.00039276117086410524,0.015542967889271057,1150.0,500,74.50808715820312,13.01229476928711,1.1038998365402222,56.27189636230469,7.7999749183654785,0.088688425719738,0.15539363026618958,-89.99999237060547,0.0,-0.09252173453569412,-0.002044677734375,0.0004975087358616292
12,1.8600000143051147,13,walker.pedestrian.0004,vehicle.nissan.patrol_2021,55.976652,18.061126708984375,0.4284667372703552,15.549069991762563,False,0.00042846673727035524,0.015549069991762563,1130.0,500,74.50808715820312,13.005438804626465,1.1038998365402222,56.52069091796875,7.799966812133789,0.08777980506420135,0.15539363026618958,-89.99999237060547,0.0,-0.09289740025997162,-0.0022888178937137127,0.0005242108600214124
13,1.8600000143051147,14,walker.pedestrian.0004,vehicle.nissan.patrol_2021,55.97755,17.812240600585938,0.4641723036766052,15.549319517520168,False,0.00046417230367660524,0.015549319517520168,1110.0,500,74.50808715820312,12.99801254272461,1.1038998365402222,56.76951599121094,7.7999587059021,0.0868648886680603,0.15539363026618958,-89.99999237060547,0.0,-0.091948002576828,-0.002532958984375,0.0005439302185550332
14,1.8600000143051147,15,walker.pedestrian.0004,vehicle.nissan.patrol_2021,55.977571,17.563350677490234,0.4998778700828552,15.549325216713815,False,0.0004998778700828552,0.015549325216713815,1090.0,500,74.50808715820312,12.99001407623291,1.1038998365402222,57.018348693847656,7.799951076507568,0.08595069497823715,0.15539363026618958,-89.99999237060547,0.0,-0.08984430134296417,-0.0027770993765443563,0.0005563461454585195
15,1.8600000143051147,16,walker.pedestrian.0004,vehicle.nissan.patrol_2021,55.977552,17.314434051513672,0.5355834364891052,15.549319971653354,False,0.0005355834364891052,0.015549319971653354,1080.0,500,74.50808715820312,12.9814453125,1.1038998365402222,57.26719284057617,7.799942970275879,0.08504287898540497,0.15539363026618958,-89.99999237060547,0.0,-0.08681853115558624,-0.0030212400015443563,0.0005615688278339803
16,1.8600000143051147,17,walker.pedestrian.0004,vehicle.nissan.patrol_2021,55.97754,17.06549835205078,0.5712890028953552,15.549316594917913,False,0.0005712890028953552,0.015549316594917914,1060.0,500,74.50808715820312,12.972304344177246,1.1038998365402222,57.51604461669922,7.799935340881348,0.08414661139249802,0.15539363026618958,-89.99999237060547,0.0,-0.082945816218853,-0.0032348630484193563,0.0005596650298684835
17,1.8600000143051147,18,walker.pedestrian.0004,vehicle.nissan.patrol_2021,55.977525,16.81655502319336,0.6069945693016052,15.549312363604223,False,0.0006069945693016052,0.015549312363604222,1040.0,500,74.50808715820312,12.962592124938965,1.1038998365402222,57.76490020751953,7.799927234649658,0.08326652646064758,0.15539363026618958,-89.99999237060547,0.0,-0.07845837622880936,-0.0034484860952943563,0.000550993368960917
18,1.8600000143051147,19,walker.pedestrian.0004,vehicle.nissan.patrol_2021,55.977507,16.56759262084961,0.6427000761032104,15.54930763150261,False,0.0006427000761032105,0.01554930763150261,1020.0,500,74.50808715820312,12.952309608459473,1.1038998365402222,58.013763427734375,7.799909591674805,0.08240566402673721,0.15539363026618958,-89.99999237060547,0.0,-0.07345867902040482,-0.003631591098383069,0.0005362494266591966
19,1.8600000143051147,20,walker.pedestrian.0004,vehicle.nissan.patrol_2021,55.977489,16.318622589111328,0.6784056425094604,15.549302588342357,False,0.0006784056425094604,0.015549302588342357,1010.0,500,74.50808715820312,12.941454887390137,1.1038998365402222,58.262630462646484,7.799891948699951,0.08156787604093552,0.15539363026618958,-89.99999237060547,0.0,-0.0681106448173523,-0.0038146967999637127,0.0005158609128557146
20,1.8600000143051147,21,walker.pedestrian.0004,vehicle.nissan.patrol_2021,55.977461,16.06963348388672,0.7141112089157104,15.549294591587442,False,0.0007141112089157105,0.015549294591587442,990.0,500,74.50808715820312,12.930028915405273,1.1038998365402222,58.51150131225586,7.799873352050781,0.08075473457574844,0.15539363026618958,-89.99999237060547,0.0,-0.06246890500187874,-0.003997802734375,0.000490439182613045
21,1.8600000143051147,22,walker.pedestrian.0004,vehicle.nissan.patrol_2021,55.977439,15.82064437866211,0.7498167753219604,15.549288489256716,False,0.0007498167753219604,0.015549288489256716,970.0,500,74.50808715820312,12.918031692504883,1.1038998365402222,58.76036834716797,7.799855709075928,0.07996872067451477,0.15539363026618958,-89.99999237060547,0.0,-0.05673154816031456,-0.004150390159338713,0.00046037277206778526
22,1.8600000143051147,23,walker.pedestrian.0004,vehicle.nissan.patrol_2021,55.977414,15.571636199951172,0.7855223417282104,15.549281651405865,False,0.0007855223417282105,0.015549281651405865,950.0,500,74.50808715820312,12.905463218688965,1.1038998365402222,59.00924301147461,7.799837589263916,0.0792103186249733,0.15539363026618958,-89.99999237060547,0.0,-0.05093954876065254,-0.004272460471838713,0.0004264441959094256
23,1.8600000143051147,24,walker.pedestrian.0004,vehicle.nissan.patrol_2021,55.977394,15.322620391845703,0.8212279081344604,15.549276053099367,False,0.0008212279081344604,0.015549276053099368,940.0,500,74.50808715820312,12.89232349395752,1.1038998365402222,59.258113861083984,7.799818992614746,0.07848025858402252,0.15539363026618958,-89.99999237060547,0.0,-0.045168038457632065,-0.00439453125,0.00038947779103182256
24,1.8600000143051147,25,walker.pedestrian.0004,vehicle.nissan.patrol_2021,55.977368,15.073604583740234,0.8569334745407104,15.5492688968478,False,0.0008569334745407105,0.015549268896847799,920.0,500,74.50808715820312,12.878612518310547,1.1038998365402222,59.506980895996094,7.799800872802734,0.0777793899178505,0.15539363026618958,-89.99999237060547,0.0,-0.039519473910331726,-0.004516601096838713,0.00035030709113925695
25,1.8600000143051147,26,walker.pedestrian.0004,vehicle.nissan.patrol_2021,55.977344,14.824588775634766,0.8926390409469604,15.5492621743906,False,0.0008926390409469604,0.0155492621743906,900.0,500,74.50808715820312,12.864330291748047,1.1038998365402222,59.7558479309082,7.799782752990723,0.07710716128349304,0.15539363026618958,-89.99999237060547,0.0,-0.03405532240867615,-0.004577635787427425,0.0003094168205279857
26,1.8600000143051147,27,walker.pedestrian.0004,vehicle.nissan.patrol_2021,55.977335,14.575553894042969,0.9283446073532104,15.549259743455945,False,0.0009283446073532105,0.015549259743455945,880.0,500,74.50808715820312,12.84947681427002,1.1038998365402222,60.00471496582031,7.799764156341553,0.07646320015192032,0.15539363026618958,-89.99999237060547,0.0,-0.028843887150287628,-0.004669188056141138,0.000267690367763862
27,1.8600000143051147,28,walker.pedestrian.0004,vehicle.nissan.patrol_2021,55.977318,14.32651138305664,0.9640501737594604,15.54925495786265,False,0.0009640501737594604,0.01554925495786265,870.0,500,74.50808715820312,12.834052085876465,1.1038998365402222,60.253578186035156,7.799745082855225,0.07584655284881592,0.15539363026618958,-89.99999237060547,0.0,-0.023864679038524628,-0.004730224143713713,0.00022590042499359697
28,1.8600000143051147,29,walker.pedestrian.0004,vehicle.nissan.patrol_2021,55.977299,14.077472686767578,0.9997557401657104,15.54924969933763,False,0.0009997557401657104,0.015549249699337629,850.0,500,74.50808715820312,12.818056106567383,1.1038998365402222,60.50243377685547,7.799726486206055,0.07525642216205597,0.15539363026618958,-89.99999237060547,0.0,-0.019261132925748825,-0.004760742653161287,0.00018418954277876765
29,1.8600000143051147,30,walker.pedestrian.0004,vehicle.nissan.patrol_2021,55.977279,13.828426361083984,1.0354613065719604,15.549244040828333,False,0.0010354613065719604,0.015549244040828332,830.0,500,74.50808715820312,12.801488876342773,1.1038998365402222,60.75129318237305,7.799707412719727,0.07469123601913452,0.15539363026618958,-89.99999237060547,0.0,-0.014958113431930542,-0.004791259765625,0.00014353034202940762
30,1.8600000143051147,31,walker.pedestrian.0004,vehicle.nissan.patrol_2021,55.97727,13.57937240600586,1.0711668729782104,15.549241721999863,False,0.0010711668729782105,0.015549241721999863,820.0,500,74.50808715820312,12.784350395202637,1.1038998365402222,61.000144958496094,7.799688339233398,0.07415004819631577,0.15539363026618958,-89.99999237060547,0.0,-0.011017094366252422,-0.004821776878088713,0.00010448647662997246
31,1.8600000143051147,32,walker.pedestrian.0004,vehicle.nissan.patrol_2021,55.977253,13.330310821533203,1.1068724393844604,15.549237027934907,False,0.0011068724393844605,0.015549237027934908,800.0,500,74.50808715820312,12.766640663146973,1.1038998365402222,61.24899673461914,7.7996697425842285,0.07363094389438629,0.15539363026618958,-89.99999237060547,0.0,-0.007417585235089064,-0.004821776878088713,6.715521158184856e-05
32,1.8600000143051147,33,walker.pedestrian.0004,vehicle.nissan.patrol_2021,55.977238,13.081253051757812,1.1425780057907104,15.549232780537357,False,0.0011425780057907104,0.015549232780537357,780.0,500,74.50808715820312,12.748358726501465,1.1038998365402222,61.497840881347656,7.799650192260742,0.07313282042741776,0.15539363026618958,-89.99999237060547,0.0,-0.004214226268231869,-0.004821776878088713,3.218375059077516e-05
33,1.8600000143051147,34,walker.pedestrian.0004,vehicle.nissan.patrol_2021,55.977224,12.832183837890625,1.1782835721969604,15.54922898675756,False,0.0011782835721969604,0.015549228986757561,770.0,500,74.50808715820312,12.729506492614746,1.1038998365402222,61.74668502807617,7.799631118774414,0.07265373319387436,0.15539363026618958,-89.99999237060547,0.0,-0.001372867962345481,-0.004791259299963713,0.0
34,1.8600000143051147,35,walker.pedestrian.0004,vehicle.nissan.patrol_2021,55.977205,12.583110809326172,1.2139891386032104,15.549223698482685,False,0.0012139891386032105,0.015549223698482684,750.0,500,74.50808715820312,12.7100830078125,1.1038998365402222,61.995521545410156,7.799611568450928,0.07219203561544418,0.15539363026618958,-89.99999237060547,0.0,0.0011064906138926744,-0.004791259299963713,-3.0517576306010596e-05
35,1.8600000143051147,36,walker.pedestrian.0004,vehicle.nissan.patrol_2021,55.977194,12.334037780761719,1.2496947050094604,15.54922069329771,False,0.0012496947050094605,0.015549220693297712,730.0,500,74.50808715820312,12.69008731842041,1.1038998365402222,62.244354248046875,7.799592018127441,0.07174605876207352,0.15539363026618958,-89.99999237060547,0.0,0.0032375094015151262,-0.0047607421875,-6.103515261202119e-05
36,1.8600000143051147,37,walker.pedestrian.0004,vehicle.nissan.patrol_2021,55.977185,12.084949493408203,1.285400152206421,15.549218044688843,False,0.001285400152206421,0.015549218044688843,720.0,500,74.50808715820312,12.66952133178711,1.1038998365402222,62.493186950683594,7.799572467803955,0.071314238011837,0.15539363026618958,-89.99999237060547,0.0,0.005033849272876978,-0.004730224143713713,-9.1552734375e-05
37,1.8600000143051147,38,walker.pedestrian.0004,vehicle.nissan.patrol_2021,55.977177,11.835861206054688,1.321105718612671,15.54921571602512,False,0.0013211057186126708,0.015549215716025121,700.0,500,74.50808715820312,12.648383140563965,1.1038998365402222,62.74201583862305,7.799552917480469,0.07089507579803467,0.15539363026618958,-89.99999237060547,0.0,0.006502339616417885,-0.004669188987463713,-9.1552734375e-05
38,1.8600000143051147,39,walker.pedestrian.0004,vehicle.nissan.patrol_2021,55.977166,11.586769104003906,1.356811285018921,15.549212729136766,False,0.0013568112850189209,0.015549212729136766,690.0,500,74.50808715820312,12.62667465209961,1.1038998365402222,62.99083709716797,7.799533367156982,0.07048679143190384,0.15539363026618958,-89.99999237060547,0.0,0.00767713226377964,-0.004638671409338713,-0.00012207030522404239
39,1.8600000143051147,40,walker.pedestrian.0004,vehicle.nissan.patrol_2021,55.977156,11.337669372558594,1.392516851425171,15.549210011113873,False,0.001392516851425171,0.015549210011113873,670.0,500,74.50808715820312,12.60439395904541,1.1038998365402222,63.239662170410156,7.799513339996338,0.07008808106184006,0.15539363026618958,-89.99999237060547,0.0,0.008571887388825417,-0.004608154296875,-0.00012207030522404239
40,1.8600000143051147,41,walker.pedestrian.0004,vehicle.nissan.patrol_2021,55.977151,11.088565826416016,1.428222417831421,15.549208483690247,False,0.001428222417831421,0.015549208483690248,650.0,500,74.50808715820312,12.58154296875,1.1038998365402222,63.48847961425781,7.799493789672852,0.06969761103391647,0.15539363026618958,-89.99999237060547,0.0,0.009207094088196754,-0.004547119140625,-0.00015258787607308477
41,1.8600000143051147,42,walker.pedestrian.0004,vehicle.nissan.patrol_2021,55.977139,10.839454650878906,1.463927984237671,15.549205267350432,False,0.0014639279842376708,0.015549205267350432,640.0,500,74.50808715820312,12.558119773864746,1.1038998365402222,63.73729705810547,7.799473762512207,0.06931404024362564,0.15539363026618958,-89.99999237060547,0.0,0.009623736143112183,-0.004516601096838713,-0.00015258786152116954
42,1.8600000143051147,43,walker.pedestrian.0004,vehicle.nissan.patrol_2021,55.977131,10.590324401855469,1.499633550643921,15.549203183949158,False,0.0014996335506439209,0.015549203183949159,620.0,500,74.50808715820312,12.534125328063965,1.1038998365402222,63.98611831665039,7.799454212188721,0.06893634796142578,0.15539363026618958,-89.99999237060547,0.0,0.009814981371164322,-0.004455565940588713,-0.00015258787607308477
43,1.8600000143051147,44,walker.pedestrian.0004,vehicle.nissan.patrol_2021,55.977128,10.341209411621094,1.510009527206421,15.549202227826807,False,0.001510009527206421,0.015549202227826808,610.0,500,74.50808715820312,12.509965896606445,1.1038998365402222,64.23493194580078,7.799434185028076,0.06856323033571243,0.15539363026618958,-89.99999237060547,0.0,0.009814981371164322,-0.004455565940588713,-0.00015258787607308477
44,1.8600000143051147,45,walker.pedestrian.0004,vehicle.nissan.patrol_2021,55.977125,10.092094421386719,1.510009527206421,15.549201424077438,False,0.001510009527206421,0.015549201424077438,590.0,500,74.50808715820312,12.48580551147461,1.1038998365402222,64.4837417602539,7.799413681030273,0.06819385290145874,0.15539363026618958,-89.99999237060547,0.0,0.009678377769887447,-0.004364013206213713,-0.00015258787607308477
45,1.8600000143051147,46,walker.pedestrian.0004,vehicle.nissan.patrol_2021,55.977123,9.842979431152344,1.510009527206421,15.549200725108667,False,0.001510009527206421,0.015549200725108667,580.0,500,74.50808715820312,12.461645126342773,1.1038998365402222,64.73255157470703,7.799394130706787,0.06782741099596024,0.15539363026618958,-89.99999237060547,0.0,0.009384679608047009,-0.004302978049963713,-0.00015258787607308477
46,1.8600000143051147,47,walker.pedestrian.0004,vehicle.nissan.patrol_2021,55.97712,9.593864440917969,1.510009527206421,15.549200138429846,False,0.001510009527206421,0.015549200138429847,560.0,500,74.50808715820312,12.437484741210938,1.1038998365402222,64.98136138916016,7.799374103546143,0.06746295839548111,0.15539363026618958,-89.99999237060547,0.0,0.00896803755313158,-0.004272460471838713,-0.00015258787607308477
47,1.8600000143051147,48,walker.pedestrian.0004,vehicle.nissan.patrol_2021,55.977119,9.344749450683594,1.510009527206421,15.549199645390544,False,0.001510009527206421,0.015549199645390544,550.0,500,74.50808715820312,12.413325309753418,1.1038998365402222,65.23017120361328,7.799354076385498,0.06709995120763779,0.15539363026618958,-89.99999237060547,0.0,0.008462604135274887,-0.004211425315588713,-0.00015258787607308477
48,1.8600000143051147,49,walker.pedestrian.0004,vehicle.nissan.patrol_2021,55.977117,9.095626831054688,1.510009527206421,15.54919921884958,False,0.001510009527206421,0.01554919921884958,530.0,500,74.50808715820312,12.389164924621582,1.1038998365402222,65.4789810180664,7.799334526062012,0.06673793494701385,0.15539363026618958,-89.99999237060547,0.0,0.00786837749183178,-0.004180908203125,-0.00015258787607308477
49,1.8600000143051147,50,walker.pedestrian.0004,vehicle.nissan.patrol_2021,55.977116,8.846527099609375,1.510009527206421,15.54919885338729,False,0.001510009527206421,0.01554919885338729,520.0,500,74.50808715820312,12.365004539489746,1.1038998365402222,65.727783203125,7.799314498901367,0.06637626141309738,0.15539363026618958,-89.99999237060547,0.0,0.0072195096872746944,-0.004150390159338713,-0.00012207030522404239
50,1.8600000143051147,51,walker.pedestrian.0004,vehicle.nissan.patrol_2021,55.977115,8.597412109375,1.510009527206421,15.549198524689517,False,0.001510009527206421,0.015549198524689518,500.0,500,74.50808715820312,12.34084415435791,1.1038998365402222,65.97659301757812,7.799294948577881,0.06601452082395554,0.15539363026618958,-89.99999237060547,0.0,0.006529660429805517,-0.004089355003088713,-0.00012207030522404239
51,1.8600000143051147,52,walker.pedestrian.0004,vehicle.nissan.patrol_2021,55.681727,8.349609375,1.510009527206421,15.46714635532912,False,0.001510009527206421,0.01546714635532912,490.0,500,74.50808715820312,12.31668472290039,1.0970875024795532,66.22408294677734,7.799274921417236,0.06565207988023758,0.15539363026618958,-89.99999237060547,0.0,0.00586030213162303,-0.004058837424963713,-0.00012207030522404239
52,1.8600000143051147,53,walker.pedestrian.0004,vehicle.nissan.patrol_2021,55.381429,8.1031494140625,1.510009527206421,15.383730414274075,False,0.001510009527206421,0.015383730414274075,480.0,500,74.50808715820312,12.292524337768555,1.0885816812515259,66.47024536132812,7.799254417419434,0.06528861820697784,0.15539363026618958,-89.99999237060547,0.0,0.00523875467479229,-0.0040283203125,-9.1552734375e-05
53,1.8600000143051147,54,walker.pedestrian.0004,vehicle.nissan.patrol_2021,55.081074,7.858009338378906,1.510009527206421,15.300298227059432,False,0.001510009527206421,0.015300298227059432,470.0,500,74.50808715820312,12.268363952636719,1.0760226249694824,66.71508026123047,7.799234867095947,0.06492458283901215,0.15539363026618958,-89.99999237060547,0.0,0.004665018990635872,-0.003997802268713713,-9.1552734375e-05
54,1.8600000143051147,55,walker.pedestrian.0004,vehicle.nissan.patrol_2021,54.780649,7.614250183105469,1.510009527206421,15.216846925698968,False,0.001510009527206421,0.015216846925698968,460.0,500,74.50808715820312,12.244203567504883,1.0583399534225464,66.95854187011719,7.799214839935303,0.06456008553504944,0.15539363026618958,-89.99999237060547,0.0,0.0041459244675934315,-0.003997802268713713,-9.1552734375e-05
55,1.8600000143051147,56,walker.pedestrian.0004,vehicle.nissan.patrol_2021,54.480221,7.371833801269531,1.510009527206421,15.133394633526144,False,0.001510009527206421,0.015133394633526144,440.0,500,74.50808715820312,12.220044136047363,1.0235099792480469,67.20064544677734,7.799195289611816,0.06419536471366882,0.15539363026618958,-89.99999237060547,0.0,0.0036746414843946695,-0.00396728515625,-6.103515261202119e-05
56,1.8600000143051147,57,walker.pedestrian.0004,vehicle.nissan.patrol_2021,54.179847,7.1307525634765625,1.510009527206421,15.049957563016923,False,0.001510009527206421,0.015049957563016922,430.0,500,74.50808715820312,12.195883750915527,0.9916120171546936,67.44142150878906,7.799175262451172,0.06383056193590164,0.15539363026618958,-89.99999237060547,0.0,0.0032580001279711723,-0.003936767112463713,-6.103515261202119e-05
57,1.8600000143051147,58,walker.pedestrian.0004,vehicle.nissan.patrol_2021,53.879429,6.890998840332031,1.510009527206421,14.966508056636664,False,0.001510009527206421,0.014966508056636664,420.0,500,74.50808715820312,12.171723365783691,0.9514999985694885,67.68087005615234,7.7991557121276855,0.06346603482961655,0.15539363026618958,-89.99999237060547,0.0,0.0028960001654922962,-0.003936767112463713,-6.103515261202119e-05
58,1.8600000143051147,59,walker.pedestrian.0004,vehicle.nissan.patrol_2021,53.579066,6.6525726318359375,1.510009527206421,14.883073769563774,False,0.001510009527206421,0.014883073769563774,410.0,500,74.50808715820312,12.147562980651855,0.9514999985694885,67.91899108886719,7.799136161804199,0.06310191750526428,0.15539363026618958,-89.99999237060547,0.0,0.002574981190264225,-0.0039062497671693563,-3.0517576306010596e-05
59,1.8600000143051147,60,walker.pedestrian.0004,vehicle.nissan.patrol_2021,53.278633,6.41546630859375,1.510009527206421,14.799620381094378,False,0.001510009527206421,0.014799620381094378,390.0,500,74.50808715820312,12.12340259552002,0.9514999985694885,68.1557846069336,7.799116134643555,0.06273838132619858,0.15539363026618958,-89.99999237060547,0.0,0.0023086038418114185,-0.0039062497671693563,-3.0517576306010596e-05
60,1.8600000143051147,61,walker.pedestrian.0004,vehicle.nissan.patrol_2021,52.978204,6.179695129394531,1.510009527206421,14.716167909870265,False,0.001510009527206421,0.014716167909870265,380.0,500,74.50808715820312,12.0992431640625,0.9514999985694885,68.39125061035156,7.799096584320068,0.06237567588686943,0.15539363026618958,-89.99999237060547,0.0,0.002090037800371647,-0.003875732421875,-3.0517576306010596e-05
61,1.8600000143051147,62,walker.pedestrian.0004,vehicle.nissan.patrol_2021,52.677841,5.9452362060546875,1.510009527206421,14.632733527319807,False,0.001510009527206421,0.014632733527319808,370.0,500,74.50808715820312,12.075082778930664,0.9514999985694885,68.62539672851562,7.799077033996582,0.06201404333114624,0.15539363026618958,-89.99999237060547,0.0,0.001912452862598002,-0.003875732421875,0.0
62,1.8600000143051147,63,walker.pedestrian.0004,vehicle.nissan.patrol_2021,52.377418,5.712120056152344,1.510009527206421,14.54928291000318,False,0.001510009527206421,0.01454928291000318,360.0,500,74.50808715820312,12.050922393798828,0.9514999985694885,68.85820007324219,7.7990570068359375,0.0616537444293499,0.15539363026618958,-89.99999237060547,0.0,0.0017758491449058056,-0.003875732421875,0.0
63,1.8600000143051147,64,walker.pedestrian.0004,vehicle.nissan.patrol_2021,52.077055,5.4803314208984375,1.510009527206421,14.465848478195104,False,0.001510009527206421,0.014465848478195105,340.0,500,74.50808715820312,12.026762008666992,0.9514999985694885,69.08968353271484,7.799037456512451,0.06129489839076996,0.15539363026618958,-89.99999237060547,0.0,0.0017758491449058056,-0.003875732421875,0.0
64,1.8600000143051147,65,walker.pedestrian.0004,vehicle.nissan.patrol_2021,51.776625,5.249870300292969,1.510009527206421,14.382395839956065,False,0.001510009527206421,0.014382395839956064,330.0,500,74.50808715820312,12.002602577209473,0.9514999985694885,69.31983947753906,7.799017906188965,0.06093795597553253,0.15539363026618958,-89.99999237060547,0.0,0.0016187547007575631,-0.0038452146109193563,9.056889211933594e-06
65,1.8600000143051147,66,walker.pedestrian.0004,vehicle.nissan.patrol_2021,51.476203,5.020782470703125,1.510009527206421,14.298945213736786,False,0.001510009527206421,0.014298945213736786,320.0,500,74.50808715820312,11.978442192077637,0.9514999985694885,69.54861450195312,7.7989983558654785,0.06058235093951225,0.15539363026618958,-89.99999237060547,0.0,0.0016187547007575631,-0.0038452146109193563,9.056889211933594e-06
66,1.8600000143051147,67,walker.pedestrian.0004,vehicle.nissan.patrol_2021,51.175835,4.7930450439453125,1.510009527206421,14.215509752432629,False,0.001510009527206421,0.01421550975243263,300.0,500,74.50808715820312,11.9542818069458,0.9514999985694885,69.77603912353516,7.798978805541992,0.06022884324193001,0.15539363026618958,-89.99999237060547,0.0,0.0016187547007575631,-0.0038452146109193563,9.056889211933594e-06
67,1.8600000143051147,68,walker.pedestrian.0004,vehicle.nissan.patrol_2021,50.875409,4.566650390625,1.510009527206421,14.13205808069716,False,0.001510009527206421,0.01413205808069716,290.0,500,74.50808715820312,11.930121421813965,0.9514999985694885,70.00212860107422,7.798959255218506,0.05987728014588356,0.15539363026618958,-89.99999237060547,0.0,0.0016187547007575631,-0.0038452146109193563,9.056889211933594e-06
68,1.8600000143051147,69,walker.pedestrian.0004,vehicle.nissan.patrol_2021,50.575048,4.341575622558594,1.510009527206421,14.04862453509559,False,0.001510009527206421,0.01404862453509559,280.0,500,74.50808715820312,11.905961990356445,0.9514999985694885,70.22689819335938,7.7989397048950195,0.059527814388275146,0.15539363026618958,-89.99999237060547,0.0,0.0016187547007575631,-0.0038452146109193563,9.056889211933594e-06
69,1.8600000143051147,70,walker.pedestrian.0004,vehicle.nissan.patrol_2021,50.274609,4.117820739746094,1.510009527206421,13.965169055765326,False,0.001510009527206421,0.013965169055765326,270.0,500,74.50808715820312,11.88180160522461,0.9514999985694885,70.45033264160156,7.798920154571533,0.059180259704589844,0.15539363026618958,-89.99999237060547,0.0,0.0016187547007575631,-0.0038452146109193563,9.056889211933594e-06
70,1.8600000143051147,71,walker.pedestrian.0004,vehicle.nissan.patrol_2021,49.974176,3.8954010009765625,1.510009527206421,13.881715493266476,False,0.001510009527206421,0.013881715493266476,250.0,500,74.50808715820312,11.857641220092773,0.9514999985694885,70.67244720458984,7.798900127410889,0.05883483588695526,0.15539363026618958,-89.99999237060547,0.0,0.0017758491449058056,-0.0038452146109193563,3.17772246489767e-05
71,1.8600000143051147,72,walker.pedestrian.0004,vehicle.nissan.patrol_2021,49.673825,3.6743087768554688,1.510009527206421,13.798284722999687,False,0.001510009527206421,0.013798284722999687,240.0,500,74.50808715820312,11.833480834960938,0.9514999985694885,70.89322662353516,7.798880577087402,0.05849197134375572,0.15539363026618958,-89.99999237060547,0.0,0.0017758491449058056,-0.0038452146109193563,3.17772246489767e-05
72,1.8600000143051147,73,walker.pedestrian.0004,vehicle.nissan.patrol_2021,49.373389,3.4545364379882812,1.510009527206421,13.714830218385496,False,0.001510009527206421,0.013714830218385496,230.0,500,74.50808715820312,11.809321403503418,0.9514999985694885,71.11268615722656,7.798861026763916,0.058151356875896454,0.15539363026618958,-89.99999237060547,0.0,0.0019602642860263586,-0.0038452146109193563,3.5082259273622185e-05
73,1.8600000143051147,74,walker.pedestrian.0004,vehicle.nissan.patrol_2021,49.072962,3.2360992431640625,1.510009527206421,13.631378462676484,False,0.001510009527206421,0.013631378462676483,210.0,500,74.50808715820312,11.785161018371582,0.9514999985694885,71.330810546875,7.798851013183594,0.05781329795718193,0.15539363026618958,-89.99999237060547,0.0,0.0020695473067462444,-0.0038452146109193563,3.606298560043797e-05
74,1.8600000143051147,75,walker.pedestrian.0004,vehicle.nissan.patrol_2021,49.067988,3.0177001953125,1.510009527206421,13.629996759515647,False,0.001510009527206421,0.013629996759515647,200.0,500,74.50808715820312,11.761000633239746,0.9514999985694885,71.54889678955078,7.79884147644043,0.057478178292512894,0.15539363026618958,-89.99999237060547,0.0,0.0020695473067462444,-0.0038452146109193563,3.606298560043797e-05
75,1.8600000143051147,76,walker.pedestrian.0004,vehicle.nissan.patrol_2021,48.477054,2.8019256591796875,1.510009527206421,13.46584841534438,True,0.001510009527206421,0.013465848415344381,190.0,500,74.50808715820312,11.73684024810791,0.9514999985694885,71.76436614990234,7.798831462860107,0.05714462324976921,0.15539363026618958,-89.99999237060547,0.0,0.0022334717214107513,-0.0038452146109193563,3.725613350979984e-05
76,1.8600000143051147,77,walker.pedestrian.0004,vehicle.nissan.patrol_2021,48.171914,2.5875091552734375,1.510009527206421,13.381087304149304,True,0.001510009527206421,0.013381087304149305,170.0,500,74.50808715820312,11.71268081665039,0.9514999985694885,71.97846221923828,7.798821926116943,0.056813620030879974,0.15539363026618958,-89.99999237060547,0.0,0.0023564151488244534,-0.0038452146109193563,3.747408845811151e-05
77,1.8600000143051147,78,walker.pedestrian.0004,vehicle.nissan.patrol_2021,47.871385,2.37445068359375,1.510009527206421,13.297607002532942,True,0.001510009527206421,0.013297607002532942,160.0,500,74.50808715820312,11.688520431518555,0.9514999985694885,72.19120788574219,7.798811912536621,0.056485097855329514,0.15539363026618958,-89.99999237060547,0.0,0.0024793585762381554,-0.0038452146109193563,3.754951831069775e-05
78,1.8600000143051147,79,walker.pedestrian.0004,vehicle.nissan.patrol_2021,47.570956,2.1627349853515625,1.510009527206421,13.21415436344099,True,0.001510009527206421,0.01321415436344099,150.0,500,74.50808715820312,11.664360046386719,0.9514999985694885,72.4026107788086,7.798802375793457,0.056159019470214844,0.15539363026618958,-89.99999237060547,0.0,0.0025954716838896275,-0.0038452146109193563,3.741115870070644e-05
79,1.8600000143051147,80,walker.pedestrian.0004,vehicle.nissan.patrol_2021,47.270605,1.9523468017578125,1.510009527206421,13.130723669261853,True,0.001510009527206421,0.013130723669261853,130.0,500,74.50808715820312,11.640199661254883,0.9514999985694885,72.61268615722656,7.798792362213135,0.055835455656051636,0.15539363026618958,-89.99999237060547,0.0,0.0027184151113033295,-0.0038452146109193563,3.719588494277559e-05
80,1.8600000143051147,81,walker.pedestrian.0004,vehicle.nissan.patrol_2021,46.970169,1.7432785034179688,1.510009527206421,13.047269133362503,True,0.001510009527206421,0.013047269133362504,120.0,500,74.50808715820312,11.616040229797363,0.9514999985694885,72.82144165039062,7.798783302307129,0.055514294654130936,0.15539363026618958,-89.99999237060547,0.0,0.0028276981320232153,-0.0038452146109193563,3.690499943331815e-05
81,1.8600000143051147,82,walker.pedestrian.0004,vehicle.nissan.patrol_2021,46.669743,1.5355453491210938,1.510009527206421,12.963817477622378,True,0.001510009527206421,0.012963817477622378,110.0,500,74.50808715820312,11.591879844665527,0.9514999985694885,73.02886199951172,7.798773765563965,0.05519554018974304,0.15539363026618958,-89.99999237060547,0.0,0.002936981152743101,-0.0038452146109193563,3.657692650449462e-05
82,1.8600000143051147,83,walker.pedestrian.0004,vehicle.nissan.patrol_2021,46.369382,1.3291244506835938,1.510009527206421,12.880383941231795,True,0.001510009527206421,0.012880383941231794,90.0,500,74.50808715820312,11.567719459533691,0.9514999985694885,73.2349624633789,7.798763751983643,0.05487914755940437,0.15539363026618958,-89.99999237060547,0.0,0.002936981152743101,-0.0038452146109193563,3.657692650449462e-05
83,1.8600000143051147,84,walker.pedestrian.0004,vehicle.nissan.patrol_2021,46.068943,1.1240463256835938,1.510009527206421,12.796928543746766,True,0.001510009527206421,0.012796928543746765,80.0,500,74.50808715820312,11.543559074401855,0.9514999985694885,73.43972778320312,7.7987542152404785,0.054564740508794785,0.15539363026618958,-89.99999237060547,0.0,0.0031282263807952404,-0.0038452146109193563,3.591049608075991e-05
84,1.8600000143051147,85,walker.pedestrian.0004,vehicle.nissan.patrol_2021,45.76851,0.9202957153320312,1.510009527206421,12.71347494577807,True,0.001510009527206421,0.012713474945778071,60.0,500,74.50808715820312,11.51939868927002,0.9514999985694885,73.6431655883789,7.798744201660156,0.05425300449132919,0.15539363026618958,-89.99999237060547,0.0,0.0031282263807952404,-0.0038452146109193563,3.591049608075991e-05
85,1.8600000143051147,86,walker.pedestrian.0004,vehicle.nissan.patrol_2021,45.468153,0.7178802490234375,1.510009527206421,12.630042445588733,True,0.001510009527206421,0.012630042445588734,50.0,500,74.50808715820312,11.4952392578125,0.9514999985694885,73.84526824951172,7.798734664916992,0.0539432130753994,0.15539363026618958,-89.99999237060547,0.0,0.0032989811152219772,-0.003875732421875,3.5317341826157644e-05
86,1.8600000143051147,87,walker.pedestrian.0004,vehicle.nissan.patrol_2021,45.16772,0.5167770385742188,1.510009527206421,12.546588870044387,True,0.001510009527206421,0.012546588870044386,40.0,500,74.50808715820312,11.471078872680664,0.9514999985694885,74.04605102539062,7.79872465133667,0.05363582447171211,0.15539363026618958,-89.99999237060547,0.0,0.0032989811152219772,-0.003875732421875,3.5317341826157644e-05
87,1.8600000143051147,88,walker.pedestrian.0004,vehicle.nissan.patrol_2021,44.867291,0.3170318603515625,1.510009527206421,12.463136353245275,True,0.001510009527206421,0.012463136353245275,20.0,500,74.50808715820312,11.446918487548828,0.9514999985694885,74.24547576904297,7.798715114593506,0.05333045870065689,0.15539363026618958,-89.99999237060547,0.0,0.0034355849493294954,-0.0038757319562137127,3.4695331123657525e-05
88,1.8600000143051147,89,walker.pedestrian.0004,vehicle.nissan.patrol_2021,44.56693,0.11867523193359375,1.510009527206421,12.379702837341577,True,0.001510009527206421,0.012379702837341577,10.0,500,74.50808715820312,11.422758102416992,0.9514999985694885,74.44351959228516,7.798705101013184,0.05302753299474716,0.15539363026618958,-89.99999237060547,0.0,0.0034355849493294954,-0.0038757319562137127,3.4695331123657525e-05
89,1.8600000143051147,90,walker.pedestrian.0004,vehicle.nissan.patrol_2021,44.266508,-0.07836151123046875,1.510009527206421,12.296252236903245,True,0.001510009527206421,0.012296252236903244,-10.0,500,74.50808715820312,11.398598670959473,0.9514999985694885,74.6402359008789,7.7986955642700195,0.05272647738456726,0.15539363026618958,-89.99999237060547,0.0,0.0035448679700493813,-0.003875732421875,3.3880969567690045e-05
90,1.8600000143051147,91,walker.pedestrian.0004,vehicle.nissan.patrol_2021,43.966075,-0.2740631103515625,1.510009527206421,12.212798717839599,True,0.001510009527206421,0.012212798717839599,-20.0,500,74.50808715820312,11.374438285827637,0.9514999985694885,74.83562469482422,7.798685550689697,0.05242767184972763,0.15539363026618958,-89.99999237060547,0.0,0.0035448679700493813,-0.003875732421875,3.3880969567690045e-05
91,1.8600000143051147,92,walker.pedestrian.0004,vehicle.nissan.patrol_2021,43.665708,-0.46844482421875,1.510009527206421,12.129363384588384,True,0.001510009527206421,0.012129363384588384,-30.0,500,74.50808715820312,11.3502779006958,0.9514999985694885,75.02969360351562,7.798676013946533,0.05213065817952156,0.15539363026618958,-89.99999237060547,0.0,0.0035448679700493813,-0.003875732421875,3.3880969567690045e-05
92,1.8600000143051147,93,walker.pedestrian.0004,vehicle.nissan.patrol_2021,43.365279,-0.6614990234375,1.510009527206421,12.045910887777676,True,0.001510009527206421,0.012045910887777676,-50.0,500,74.50808715820312,11.326117515563965,0.9514999985694885,75.22242736816406,7.798666000366211,0.0518355555832386,0.15539363026618958,-89.99999237060547,0.0,0.0036678113974630833,-0.003875732421875,3.2891257433220744e-05
93,1.8600000143051147,94,walker.pedestrian.0004,vehicle.nissan.patrol_2021,43.06485,-0.8532257080078125,1.510009527206421,11.962458331240759,True,0.001510009527206421,0.01196245833124076,-60.0,500,74.50808715820312,11.301958084106445,0.9514999985694885,75.41383361816406,7.798656463623047,0.05154266208410263,0.15539363026618958,-89.99999237060547,0.0,0.0036678113974630833,-0.003875732421875,3.2891257433220744e-05
94,1.8600000143051147,95,walker.pedestrian.0004,vehicle.nissan.patrol_2021,42.764497,-1.0436248779296875,1.510009527206421,11.879026824902073,True,0.001510009527206421,0.011879026824902073,-80.0,500,74.50808715820312,11.27779769897461,0.9514999985694885,75.60391235351562,7.798646450042725,0.0512516014277935,0.15539363026618958,-89.99999237060547,0.0,0.0036678113974630833,-0.003875732421875,3.2891257433220744e-05
95,1.8600000143051147,96,walker.pedestrian.0004,vehicle.nissan.patrol_2021,42.464057,-1.2326812744140625,1.510009527206421,11.795571482584364,True,0.001510009527206421,0.011795571482584364,-90.0,500,74.50808715820312,11.253637313842773,0.9514999985694885,75.79265594482422,7.7986369132995605,0.05096236988902092,0.15539363026618958,-89.99999237060547,0.0,0.0036678113974630833,-0.003875732421875,3.2891257433220744e-05
96,1.8600000143051147,97,walker.pedestrian.0004,vehicle.nissan.patrol_2021,42.163632,-1.4204330444335938,1.510009527206421,11.712119956512186,True,0.001510009527206421,0.011712119956512185,-110.0,500,74.50808715820312,11.229476928710938,0.9514999985694885,75.9800796508789,7.7986273765563965,0.05067489668726921,0.15539363026618958,-89.99999237060547,0.0,0.0036678113974630833,-0.003875732421875,3.2891257433220744e-05
97,1.8600000143051147,98,walker.pedestrian.0004,vehicle.nissan.patrol_2021,41.863272,-1.606842041015625,1.510009527206421,11.628686554964391,True,0.001510009527206421,0.011628686554964391,-120.0,500,74.50808715820312,11.205317497253418,0.9514999985694885,76.16617584228516,7.798617362976074,0.050389211624860764,0.15539363026618958,-89.99999237060547,0.0,0.0036678113974630833,-0.003875732421875,3.2891257433220744e-05
98,1.8600000143051147,99,walker.pedestrian.0004,vehicle.nissan.patrol_2021,41.562853,-1.7918930053710938,1.510009527206421,11.545236943506026,True,0.001510009527206421,0.011545236943506025,-140.0,500,74.50808715820312,11.181157112121582,0.9514999985694885,76.35090637207031,7.79860782623291,0.050105247646570206,0.15539363026618958,-89.99999237060547,0.0,0.003770264331251383,-0.0039062497671693563,3.277558789704926e-05
99,1.8600000143051147,100,walker.pedestrian.0004,vehicle.nissan.patrol_2021,41.262414,-1.9755706787109375,1.510009527206421,11.46178156531429,True,0.001510009527206421,0.01146178156531429,-150.0,500,74.50808715820312,11.156996726989746,0.9514999985694885,76.53426361083984,7.798597812652588,0.04982337728142738,0.15539363026618958,-89.99999237060547,0.0,0.003770264331251383,-0.0039062497671693563,3.277558789704926e-05
100,1.8600000143051147,101,walker.pedestrian.0004,vehicle.nissan.patrol_2021,40.962057,-2.1579208374023438,1.510009527206421,11.378349128569383,True,0.001510009527206421,0.011378349128569382,-170.0,500,74.50808715820312,11.13283634185791,0.9514999985694885,76.71629333496094,7.798588275909424,0.04954322800040245,0.15539363026618958,-89.99999237060547,0.0,0.003770264331251383,-0.0039062497671693563,3.277558789704926e-05
101,1.8600000143051147,102,walker.pedestrian.0004,vehicle.nissan.patrol_2021,40.661628,-2.3389511108398438,1.510009527206421,11.294896671287757,True,0.001510009527206421,0.011294896671287757,-180.0,500,74.50808715820312,11.10867691040039,0.9514999985694885,76.89700317382812,7.798578262329102,0.049264829605817795,0.15539363026618958,-89.99999237060547,0.0,0.003770264331251383,-0.0039062497671693563,3.277558789704926e-05
102,1.8600000143051147,103,walker.pedestrian.0004,vehicle.nissan.patrol_2021,40.361199,-2.5186386108398438,1.510009527206421,11.21144421534208,True,0.001510009527206421,0.01121144421534208,-200.0,500,74.50808715820312,11.084516525268555,0.9514999985694885,77.07637786865234,7.7985687255859375,0.04898807406425476,0.15539363026618958,-89.99999237060547,0.0,0.003770264331251383,-0.0039062497671693563,3.277558789704926e-05
103,1.8600000143051147,104,walker.pedestrian.0004,vehicle.nissan.patrol_2021,40.060836,-2.6970138549804688,1.510009527206421,11.1280098834976,True,0.001510009527206421,0.0111280098834976,-210.0,500,74.50808715820312,11.060356140136719,0.9514999985694885,77.25442504882812,7.798559188842773,0.04871295765042305,0.15539363026618958,-89.99999237060547,0.0,0.003770264331251383,-0.0039062497671693563,3.277558789704926e-05
104,1.8600000143051147,105,walker.pedestrian.0004,vehicle.nissan.patrol_2021,39.760407,-2.8740463256835938,1.510009527206421,11.04455743676629,True,0.001510009527206421,0.01104455743676629,-230.0,500,74.50808715820312,11.036195755004883,0.9514999985694885,77.43113708496094,7.798549652099609,0.048439595848321915,0.15539363026618958,-89.99999237060547,0.0,0.003770264331251383,-0.0039062497671693563,3.277558789704926e-05
105,1.8600000143051147,106,walker.pedestrian.0004,vehicle.nissan.patrol_2021,39.459971,-3.0497589111328125,1.510009527206421,10.961103085967906,True,0.001510009527206421,0.010961103085967906,-240.0,500,74.50808715820312,11.012036323547363,0.9514999985694885,77.60652923583984,7.798539638519287,0.048167839646339417,0.15539363026618958,-89.99999237060547,0.0,0.003770264331251383,-0.0039062497671693563,3.277558789704926e-05
106,1.8600000143051147,107,walker.pedestrian.0004,vehicle.nissan.patrol_2021,39.159618,-3.2241439819335938,1.510009527206421,10.877671626064954,True,0.001510009527206421,0.010877671626064954,-260.0,500,74.50808715820312,10.987875938415527,0.9514999985694885,77.78059387207031,7.798530101776123,0.04789768159389496,0.15539363026618958,-89.99999237060547,0.0,0.003770264331251383,-0.0039062497671693563,3.277558789704926e-05
107,1.8600000143051147,108,walker.pedestrian.0004,vehicle.nissan.patrol_2021,38.859186,-3.3972091674804688,1.510009527206421,10.794218237120681,True,0.001510009527206421,0.010794218237120682,-280.0,500,74.50808715820312,10.963715553283691,0.9514999985694885,77.95333099365234,7.798520565032959,0.04762916639447212,0.15539363026618958,-89.99999237060547,0.0,0.003770264331251383,-0.0039062497671693563,3.277558789704926e-05
108,1.8600000143051147,109,walker.pedestrian.0004,vehicle.nissan.patrol_2021,38.558764,-3.5689315795898438,1.510009527206421,10.710767712338248,True,0.001510009527206421,0.010710767712338247,-290.0,500,74.50808715820312,10.939555168151855,0.9514999985694885,78.1247329711914,7.798510551452637,0.04736228659749031,0.15539363026618958,-89.99999237060547,0.0,0.003770264331251383,-0.0039062497671693563,3.277558789704926e-05
109,1.8600000143051147,110,walker.pedestrian.0004,vehicle.nissan.patrol_2021,38.258332,-3.7393035888671875,1.510009527206421,10.627314331455905,True,0.001510009527206421,0.010627314331455905,-310.0,500,74.50808715820312,10.915395736694336,0.9514999985694885,78.29478454589844,7.798501014709473,0.04709705337882042,0.15539363026618958,-89.99999237060547,0.0,0.003770264331251383,-0.0039062497671693563,3.277558789704926e-05
110,1.8600000143051147,111,walker.pedestrian.0004,vehicle.nissan.patrol_2021,37.957968,-3.9083023071289062,1.510009527206421,10.543880027147544,True,0.001510009527206421,0.010543880027147545,-320.0,500,74.50808715820312,10.8912353515625,0.9514999985694885,78.46345520019531,7.79849100112915,0.04683345556259155,0.15539363026618958,-89.99999237060547,0.0,0.003770264331251383,-0.0039062497671693563,3.277558789704926e-05
111,1.8600000143051147,112,walker.pedestrian.0004,vehicle.nissan.patrol_2021,37.657536,-4.075965881347656,1.510009527206421,10.46042665177811,True,0.001510009527206421,0.01046042665177811,-340.0,500,74.50808715820312,10.867074966430664,0.9514999985694885,78.63079833984375,7.798481464385986,0.04657134786248207,0.15539363026618958,-89.99999237060547,0.0,0.003770264331251383,-0.0039062497671693563,3.277558789704926e-05
112,1.8600000143051147,113,walker.pedestrian.0004,vehicle.nissan.patrol_2021,37.357111,-4.242301940917969,1.510009527206421,10.376975189222636,True,0.001510009527206421,0.010376975189222636,-360.0,500,74.50808715820312,10.842914581298828,0.9514999985694885,78.79681396484375,7.798471450805664,0.04631088301539421,0.15539363026618958,-89.99999237060547,0.0,0.003770264331251383,-0.0039062497671693563,3.277558789704926e-05
113,1.8600000143051147,114,walker.pedestrian.0004,vehicle.nissan.patrol_2021,37.056744,-4.407318115234375,1.510009527206421,10.293539942728994,True,0.001510009527206421,0.010293539942728995,-370.0,500,74.50808715820312,10.818754196166992,0.9514999985694885,78.96150207519531,7.7984619140625,0.046051979064941406,0.15539363026618958,-89.99999237060547,0.0,0.003770264331251383,-0.0039062497671693563,3.277558789704926e-05
114,1.8600000143051147,115,walker.pedestrian.0004,vehicle.nissan.patrol_2021,36.756325,-4.571006774902344,1.510009527206421,10.210090394796797,True,0.001510009527206421,0.010210090394796797,-390.0,500,74.50808715820312,10.794594764709473,0.9514999985694885,79.12486267089844,7.798451900482178,0.045794639736413956,0.15539363026618958,-89.99999237060547,0.0,0.003770264331251383,-0.0039062497671693563,3.277558789704926e-05
115,1.8600000143051147,116,walker.pedestrian.0004,vehicle.nissan.patrol_2021,36.455893,-4.733360290527344,1.510009527206421,10.126637036752848,True,0.001510009527206421,0.010126637036752848,-410.0,500,74.50808715820312,10.770434379577637,0.9514999985694885,79.28689575195312,7.798442363739014,0.04553886130452156,0.15539363026618958,-89.99999237060547,0.0,0.003770264331251383,-0.0039062497671693563,3.277558789704926e-05
116,1.8600000143051147,117,walker.pedestrian.0004,vehicle.nissan.patrol_2021,36.155499,-4.894386291503906,1.510009527206421,10.04319417099293,True,0.001510009527206421,0.01004319417099293,-420.0,500,74.50808715820312,10.7462739944458,0.9514999985694885,79.44759368896484,7.798432350158691,0.045284613966941833,0.15539363026618958,-89.99999237060547,0.0,0.003770264331251383,-0.0039062497671693563,3.277558789704926e-05
117,1.8600000143051147,118,walker.pedestrian.0004,vehicle.nissan.patrol_2021,35.855067,-5.054084777832031,1.510009527206421,9.95974081994285,True,0.001510009527206421,0.00995974081994285,-440.0,500,74.50808715820312,10.722113609313965,0.9514999985694885,79.60697174072266,7.798422813415527,0.04503185302019119,0.15539363026618958,-89.99999237060547,0.0,0.003770264331251383,-0.0039062497671693563,3.277558789704926e-05
118,1.8600000143051147,119,walker.pedestrian.0004,vehicle.nissan.patrol_2021,35.554673,-5.212455749511719,1.510009527206421,9.876297963464774,True,0.001510009527206421,0.009876297963464774,-460.0,500,74.50808715820312,10.697954177856445,0.9514999985694885,79.7650146484375,7.798412799835205,0.04478061571717262,0.15539363026618958,-89.99999237060547,0.0,0.003770264331251383,-0.0039062497671693563,3.277558789704926e-05
119,1.8600000143051147,120,walker.pedestrian.0004,vehicle.nissan.patrol_2021,35.254247,-5.369499206542969,1.510009527206421,9.792846526167356,True,0.001510009527206421,0.009792846526167355,-480.0,500,74.50808715820312,10.67379379272461,0.9514999985694885,79.92173767089844,7.798403263092041,0.04453086853027344,0.15539363026618958,-89.99999237060547,0.0,0.003770264331251383,-0.0039062497671693563,3.277558789704926e-05
120,1.8600000143051147,121,walker.pedestrian.0004,vehicle.nissan.patrol_2021,34.953846,-5.525199890136719,1.510009527206421,9.709401769743614,True,0.001510009527206421,0.009709401769743614,-490.0,500,74.50808715820312,10.649633407592773,0.9514999985694885,80.07710266113281,7.798393249511719,0.04428260773420334,0.15539363026618958,-89.99999237060547,0.0,0.003770264331251383,-0.0039062497671693563,3.277558789704926e-05
121,1.8600000143051147,122,walker.pedestrian.0004,vehicle.nissan.patrol_2021,34.653456,-5.67950439453125,1.510009527206421,9.625959878731958,True,0.001510009527206421,0.009625959878731959,-510.0,500,74.50808715820312,10.625473022460938,0.9514999985694885,80.23108673095703,7.798383712768555,0.044035833328962326,0.15539363026618958,-89.99999237060547,0.0,0.003770264331251383,-0.0039062497671693563,3.277558789704926e-05
122,1.8600000143051147,123,walker.pedestrian.0004,vehicle.nissan.patrol_2021,34.35303,-5.832489013671875,1.510009527206421,9.542508454231777,True,0.001510009527206421,0.009542508454231777,-530.0,500,74.50808715820312,10.601313591003418,0.9514999985694885,80.38374328613281,7.798373699188232,0.04379058629274368,0.15539363026618958,-89.99999237060547,0.0,0.003770264331251383,-0.0039062497671693563,3.277558789704926e-05
123,1.8600000143051147,124,walker.pedestrian.0004,vehicle.nissan.patrol_2021,34.052633,-5.9841461181640625,1.510009527206421,9.459064663053832,True,0.001510009527206421,0.009459064663053832,-550.0,500,74.50808715820312,10.577153205871582,0.9514999985694885,80.53507232666016,7.798364162445068,0.04354675114154816,0.15539363026618958,-89.99999237060547,0.0,0.003770264331251383,-0.0039062497671693563,3.277558789704926e-05
124,1.8600000143051147,125,walker.pedestrian.0004,vehicle.nissan.patrol_2021,33.752204,-6.1344757080078125,1.510009527206421,9.375612294633243,True,0.001510009527206421,0.009375612294633243,-560.0,500,74.50808715820312,10.552992820739746,0.9514999985694885,80.68507385253906,7.798354148864746,0.043304480612277985,0.15539363026618958,-89.99999237060547,0.0,0.003770264331251383,-0.0039062497671693563,3.277558789704926e-05
125,1.8600000143051147,126,walker.pedestrian.0004,vehicle.nissan.patrol_2021,33.45181,-6.283470153808594,1.510009527206421,9.292169463299913,True,0.001510009527206421,0.009292169463299913,-580.0,500,74.50808715820312,10.52883243560791,0.9514999985694885,80.833740234375,7.798344612121582,0.043063580989837646,0.15539363026618958,-89.99999237060547,0.0,0.003770264331251383,-0.0039062497671693563,3.277558789704926e-05
126,1.8600000143051147,127,walker.pedestrian.0004,vehicle.nissan.patrol_2021,33.151378,-6.4311370849609375,1.510009527206421,9.208716149718585,True,0.001510009527206421,0.009208716149718585,-600.0,500,74.50808715820312,10.50467300415039,0.9514999985694885,80.98108673095703,7.79833459854126,0.04282417148351669,0.15539363026618958,-89.99999237060547,0.0,0.003770264331251383,-0.0039062497671693563,3.277558789704926e-05
127,1.8600000143051147,128,walker.pedestrian.0004,vehicle.nissan.patrol_2021,32.850987,-6.577491760253906,1.510009527206421,9.125274281453077,True,0.001510009527206421,0.009125274281453077,-620.0,500,74.50808715820312,10.480512619018555,0.9514999985694885,81.12710571289062,7.798325061798096,0.04258617386221886,0.15539363026618958,-89.99999237060547,0.0,0.003770264331251383,-0.0039062497671693563,3.277558789704926e-05
128,1.8600000143051147,129,walker.pedestrian.0004,vehicle.nissan.patrol_2021,32.550559,-6.722503662109375,1.510009527206421,9.041821926564124,True,0.001510009527206421,0.009041821926564124,-640.0,500,74.50808715820312,10.456352233886719,0.9514999985694885,81.27178955078125,7.798315048217773,0.04234958440065384,0.15539363026618958,-89.99999237060547,0.0,0.003770264331251383,-0.0039062497671693563,3.277558789704926e-05
129,1.8600000143051147,130,walker.pedestrian.0004,vehicle.nissan.patrol_2021,32.250161,-6.866188049316406,1.510009527206421,8.95837816011741,True,0.001510009527206421,0.00895837816011741,-660.0,500,74.50808715820312,10.432191848754883,0.9514999985694885,81.41514587402344,7.798305511474609,0.04211441054940224,0.15539363026618958,-89.99999237060547,0.0,0.003770264331251383,-0.0039062497671693563,3.277558789704926e-05
130,1.8600000143051147,131,walker.pedestrian.0004,vehicle.nissan.patrol_2021,31.949729,-7.008544921875,1.510009527206421,8.874924860331642,True,0.001510009527206421,0.008874924860331642,-670.0,500,74.50808715820312,10.408032417297363,0.9514999985694885,81.55717468261719,7.798295497894287,0.04188060760498047,0.15539363026618958,-89.99999237060547,0.0,0.003770264331251383,-0.0039062497671693563,3.277558789704926e-05
131,1.8600000143051147,132,walker.pedestrian.0004,vehicle.nissan.patrol_2021,31.649332,-7.149497985839844,1.510009527206421,8.79148110219372,True,0.001510009527206421,0.008791481102193719,-690.0,500,74.50808715820312,10.383872032165527,0.9514999985694885,81.69779968261719,7.798285961151123,0.041648175567388535,0.15539363026618958,-89.99999237060547,0.0,0.003770264331251383,-0.0039062497671693563,3.277558789704926e-05
132,1.8600000143051147,133,walker.pedestrian.0004,vehicle.nissan.patrol_2021,31.348904,-7.2891998291015625,1.510009527206421,8.708028765406599,True,0.001510009527206421,0.008708028765406599,-710.0,500,74.50808715820312,10.359711647033691,0.9514999985694885,81.83717346191406,7.798276424407959,0.041417233645915985,0.15539363026618958,-89.99999237060547,0.0,0.0038522265385836363,-0.003997802268713713,5.021785545977764e-05
133,1.8600000143051147,134,walker.pedestrian.0004,vehicle.nissan.patrol_2021,31.04852,-7.427497863769531,1.510009527206421,8.624588795868043,True,0.001510009527206421,0.008624588795868042,-730.0,500,74.50808715820312,10.335551261901855,0.9514999985694885,81.97514343261719,7.798266887664795,0.04118778184056282,0.15539363026618958,-89.99999237060547,0.0,0.0038522265385836363,-0.003997802268713713,5.021785545977764e-05
134,1.8600000143051147,135,walker.pedestrian.0004,vehicle.nissan.patrol_2021,30.748084,-7.564552307128906,1.510009527206421,8.54113456112052,True,0.001510009527206421,0.00854113456112052,-750.0,500,74.50808715820312,10.311391830444336,0.9514999985694885,82.11186218261719,7.798257350921631,0.04095977544784546,0.15539363026618958,-89.99999237060547,0.0,0.0038522265385836363,-0.003997802268713713,5.021785545977764e-05
135,1.8600000143051147,136,walker.pedestrian.0004,vehicle.nissan.patrol_2021,30.447653,-7.7001953125,1.510009527206421,8.45768128589871,True,0.001510009527206421,0.00845768128589871,-770.0,500,74.50808715820312,10.2872314453125,0.9514999985694885,82.24717712402344,7.798247337341309,0.04073318466544151,0.15539363026618958,-89.99999237060547,0.0,0.0038522265385836363,-0.003997802268713713,5.021785545977764e-05
136,1.8600000143051147,137,walker.pedestrian.0004,vehicle.nissan.patrol_2021,30.147262,-7.834571838378906,1.510009527206421,8.374239454714331,True,0.001510009527206421,0.00837423945471433,-790.0,500,74.50808715820312,10.263071060180664,0.9514999985694885,82.3812255859375,7.7982378005981445,0.040507812052965164,0.15539363026618958,-89.99999237060547,0.0,0.0038522265385836363,-0.003997802268713713,5.021785545977764e-05
137,1.8600000143051147,138,walker.pedestrian.0004,vehicle.nissan.patrol_2021,29.846834,-7.967567443847656,1.510009527206421,8.29078714067353,True,0.001510009527206421,0.00829078714067353,-810.0,500,74.50808715820312,10.238910675048828,0.9514999985694885,82.51388549804688,7.798227787017822,0.04028385132551193,0.15539363026618958,-89.99999237060547,0.0,0.0038522265385836363,-0.003997802268713713,5.021785545977764e-05
138,1.8600000143051147,139,walker.pedestrian.0004,vehicle.nissan.patrol_2021,29.546436,-8.099143981933594,1.510009527206421,8.207343413513803,True,0.001510009527206421,0.008207343413513802,-830.0,500,74.50808715820312,10.214750289916992,0.9514999985694885,82.64513397216797,7.798218250274658,0.04006122425198555,0.15539363026618958,-89.99999237060547,0.0,0.0038522265385836363,-0.003997802268713713,5.021785545977764e-05
139,1.8600000143051147,140,walker.pedestrian.0004,vehicle.nissan.patrol_2021,29.246008,-8.229469299316406,1.510009527206421,8.123891108524958,True,0.001510009527206421,0.008123891108524958,-850.0,500,74.50808715820312,10.190590858459473,0.9514999985694885,82.77513122558594,7.798208236694336,0.039839934557676315,0.15539363026618958,-89.99999237060547,0.0,0.0038522265385836363,-0.003997802268713713,5.021785545977764e-05
140,1.8600000143051147,141,walker.pedestrian.0004,vehicle.nissan.patrol_2021,28.945617,-8.358406066894531,1.510009527206421,8.040449295546907,True,0.001510009527206421,0.008040449295546906,-880.0,500,74.50808715820312,10.166430473327637,0.9514999985694885,82.90373229980469,7.798198699951172,0.03961982578039169,0.15539363026618958,-89.99999237060547,0.0,0.0038522265385836363,-0.003997802268713713,5.021785545977764e-05
141,1.8600000143051147,142,walker.pedestrian.0004,vehicle.nissan.patrol_2021,28.645191,-8.486083984375,1.510009527206421,7.956997477964527,True,0.001510009527206421,0.007956997477964528,-900.0,500,74.50808715820312,10.1422700881958,0.9514999985694885,83.03107452392578,7.79818868637085,0.03940116614103317,0.15539363026618958,-89.99999237060547,0.0,0.003954679239541292,-0.0040283203125,4.714048554887995e-05
