frame,ped_height,sim_time,walker,ego,e_veloc,distance,walker_vel_ms,ego_vel_ms,ttc_less_than_200,walker_vel_mms,ego_vel_mms,TCC,TCC_threshold,w_location_x,w_location_y,w_location_z,e_location_x,e_location_y,e_location_z,w_rotation_pitch,w_rotation_yaw,w_rotation_roll,e_rotation_pitch,e_rotation_yaw,e_rotation_roll
0,1.8600000143051147,1,walker.pedestrian.0004,vehicle.nissan.patrol_2021,45.461847,46.55081558227539,0.0,12.628290749136177,False,0.0,0.012628290749136177,3690.0,500,106.63703155517578,13.049999237060547,1.1038999557495117,60.15425491333008,7.799999713897705,0.0975123941898346,-0.00033467926550656557,-89.99999237060547,1.3027551259980896e-11,-0.007233169861137867,0.0,9.644842293710099e-07
1,1.8600000143051147,2,walker.pedestrian.0004,vehicle.nissan.patrol_2021,45.461837,46.348812103271484,0.0642394945025444,12.628288091390225,False,6.42394945025444e-05,0.012628288091390225,3650.0,500,106.63703155517578,13.048972129821777,1.1038999557495117,60.35628890991211,7.799999713897705,0.09689273685216904,-0.00033467926550656557,-89.99999237060547,1.3027551259980896e-11,-0.006987283006310463,0.0,1.8348458752370789e-06
2,1.8600000143051147,3,walker.pedestrian.0004,vehicle.nissan.patrol_2021,45.461827,46.146793365478516,0.1284789890050888,12.6282852919977,False,0.0001284789890050888,0.0126282852919977,3620.0,500,106.63703155517578,13.046916007995605,1.1038999557495117,60.55832290649414,7.799999713897705,0.09627734869718552,-0.00033467926550656557,-89.99999237060547,1.3027551259980896e-11,-0.0066867549903690815,0.0,2.896157184295589e-06
3,1.8600000143051147,4,walker.pedestrian.0004,vehicle.nissan.patrol_2021,45.461817,45.94475555419922,0.1927184760570526,12.628282467591847,False,0.00019271847605705262,0.012628282467591847,3580.0,500,106.63703155517578,13.043832778930664,1.1038999557495117,60.76036071777344,7.799999713897705,0.0956663116812706,-0.00033467926550656557,-89.99999237060547,1.3027551259980896e-11,-0.006345245521515608,0.0,4.156161139690084e-06
4,1.8600000143051147,5,walker.pedestrian.0004,vehicle.nissan.patrol_2021,45.461807,45.742706298828125,0.2569579780101776,12.62827964786007,False,0.0002569579780101776,0.01262827964786007,3550.0,500,106.63703155517578,13.039721488952637,1.1038999557495117,60.96239471435547,7.799999713897705,0.09505988657474518,-0.00033467926550656557,-89.99999237060547,1.3027551259980896e-11,-0.005955924745649099,0.0,5.556539235840319e-06
5,1.8600000143051147,6,walker.pedestrian.0004,vehicle.nissan.patrol_2021,45.461797,45.54064178466797,0.3211974501609802,12.628276807110295,False,0.0003211974501609802,0.012628276807110294,3520.0,500,106.63703155517578,13.034582138061523,1.1038999557495117,61.1644287109375,7.799999713897705,0.09445838630199432,-0.00033467926550656557,-89.99999237060547,1.3027551259980896e-11,-0.005491471849381924,0.0,7.032029316178523e-06
6,1.8600000143051147,7,walker.pedestrian.0004,vehicle.nissan.patrol_2021,45.461786,45.338558197021484,0.3854369521141052,12.628273948907761,False,0.00038543695211410524,0.012628273948907762,3480.0,500,106.63703155517578,13.02841567993164,1.1038999557495117,61.36646270751953,7.799999713897705,0.09386210888624191,-0.00033467926550656557,-89.99999237060547,1.3027551259980896e-11,-0.005033849272876978,0.0,8.504219294991344e-06
7,1.8600000143051147,8,walker.pedestrian.0004,vehicle.nissan.patrol_2021,45.461776,45.13645935058594,0.4496764540672302,12.628271125066437,False,0.00044967645406723025,0.012628271125066436,3450.0,500,106.63703155517578,13.021220207214355,1.1038999557495117,61.56850051879883,7.799999713897705,0.0932709127664566,-0.00033467926550656557,-89.99999237060547,1.3027551259980896e-11,-0.004576226696372032,0.0,1.0018757166108117e-05
8,1.8600000143051147,9,walker.pedestrian.0004,vehicle.nissan.patrol_2021,45.461766,44.93434143066406,0.5139159560203552,12.628268351374608,False,0.0005139159560203552,0.012628268351374608,3420.0,500,106.63703155517578,13.0129976272583,1.1038999557495117,61.77053451538086,7.799999713897705,0.09268501400947571,-0.00033467926550656557,-89.99999237060547,1.3027551259980896e-11,-0.004084452986717224,0.0,1.1522418390086386e-05
9,1.8600000143051147,10,walker.pedestrian.0004,vehicle.nissan.patrol_2021,45.461756,44.73221206665039,0.5781554579734802,12.628265585269997,False,0.0005781554579734802,0.012628265585269997,3390.0,500,106.63703155517578,13.00374698638916,1.1038999557495117,61.972572326660156,7.799999713897705,0.0921044871211052,-0.00033467926550656557,-89.99999237060547,1.3027551259980896e-11,-0.0036336604971438646,1.6505810607192473e-11,1.2893178791273385e-05
10,1.8600000143051147,11,walker.pedestrian.0004,vehicle.nissan.patrol_2021,45.461746,44.530067443847656,0.6423949003219604,12.628262891691143,False,0.0006423949003219604,0.012628262891691144,3360.0,500,106.63703155517578,12.99346923828125,1.1038999557495117,62.17460632324219,7.799999713897705,0.09152904152870178,-0.00033467926550656557,-89.99999237060547,1.3027551259980896e-11,-0.0031418867874890566,7.458139661409291e-11,1.4237523828342091e-05
11,1.8600000143051147,12,walker.pedestrian.0004,vehicle.nissan.patrol_2021,45.461737,44.32790756225586,0.7066344022750854,12.628260206415256,False,0.0007066344022750855,0.012628260206415255,3320.0,500,106.63703155517578,12.982162475585938,1.1038999557495117,62.376644134521484,7.799999713897705,0.09095901250839233,-0.00033467926550656557,-89.99999237060547,1.3027551259980896e-11,-0.0027184151113033295,1.4354673005811946e-10,1.5540192180196755e-05
12,1.8600000143051147,13,walker.pedestrian.0004,vehicle.nissan.patrol_2021,45.461727,44.125732421875,0.7708739042282104,12.628257624114168,False,0.0007708739042282105,0.012628257624114169,3290.0,500,106.63703155517578,12.969828605651855,1.1038999557495117,62.57868194580078,7.799999713897705,0.09039413183927536,-0.00033467926550656557,-89.99999237060547,1.3027551259980896e-11,-0.002288113348186016,2.2270622845876886e-10,1.6784131730673835e-05
13,1.8600000143051147,14,walker.pedestrian.0004,vehicle.nissan.patrol_2021,45.461718,43.923545837402344,0.8351134061813354,12.628255085709267,False,0.0008351134061813355,0.012628255085709266,3260.0,500,106.63703155517578,12.956466674804688,1.1038999557495117,62.78071594238281,7.799999713897705,0.08983439952135086,-0.00033467926550656557,-89.99999237060547,1.3027551259980896e-11,-0.001857811352238059,3.111818858148041e-10,1.7905163986142725e-05
14,1.8600000143051147,15,walker.pedestrian.0004,vehicle.nissan.patrol_2021,45.461709,43.72133255004883,0.8993529081344604,12.628252578839284,False,0.0008993529081344605,0.012628252578839283,3230.0,500,106.63703155517578,12.94207763671875,1.1038999557495117,62.98275375366211,7.799999713897705,0.08927982300519943,-0.00033467926550656557,-89.99999237060547,1.3027551259980896e-11,-0.0014684905763715506,4.07365807753024e-10,1.8891052604885772e-05
15,1.8600000143051147,16,walker.pedestrian.0004,vehicle.nissan.patrol_2021,45.461701,43.51911544799805,0.9635924100875854,12.628250143143942,False,0.0009635924100875854,0.012628250143143942,3200.0,500,106.63703155517578,12.92665958404541,1.1038999557495117,63.184783935546875,7.799999713897705,0.08873027563095093,-0.00033467926550656557,-89.99999237060547,1.3027551259980896e-11,-0.001126981107518077,5.095086019757389e-10,1.9813523977063596e-05
16,1.8600000143051147,17,walker.pedestrian.0004,vehicle.nissan.patrol_2021,45.461692,43.31687927246094,1.0278319120407104,12.628247803798896,False,0.0010278319120407104,0.012628247803798896,3170.0,500,106.63703155517578,12.9102144241333,1.1038999557495117,63.38682174682617,7.799999713897705,0.08818553388118744,-0.00033467926550656557,-89.99999237060547,1.3027551259980896e-11,-0.0007923019002191722,6.168074939694179e-10,2.0603860320989043e-05
17,1.8600000143051147,18,walker.pedestrian.0004,vehicle.nissan.patrol_2021,45.461684,43.11463165283203,1.0920714139938354,12.628245499397375,False,0.0010920714139938355,0.012628245499397374,3140.0,500,106.63703155517578,12.892741203308105,1.1038999557495117,63.5888557434082,7.799999713897705,0.08764571696519852,-0.00033467926550656557,-89.99999237060547,1.3027551259980896e-11,-0.0004917735932394862,7.277972668973121e-10,2.1249155906843953e-05
18,1.8600000143051147,19,walker.pedestrian.0004,vehicle.nissan.patrol_2021,45.461676,42.91237258911133,1.1563109159469604,12.628243256966604,False,0.0011563109159469604,0.012628243256966603,3110.0,500,106.63703155517578,12.87424087524414,1.1038999557495117,63.79088592529297,7.799999713897705,0.08711055666208267,-0.00033467926550656557,-89.99999237060547,1.3027551259980896e-11,-0.00021856604143977165,8.412150975800614e-10,2.1860892957192846e-05
19,1.8600000143051147,20,walker.pedestrian.0004,vehicle.nissan.patrol_2021,45.461668,42.7100830078125,1.2205504179000854,12.628241079517554,False,0.0012205504179000853,0.012628241079517554,3080.0,500,106.63703155517578,12.854711532592773,1.1038999557495117,63.992923736572266,7.799999713897705,0.08658004552125931,-0.00033467926550656557,-89.99999237060547,1.3027551259980896e-11,2.7320755179971457e-05,9.565289671442656e-10,2.2368614736478776e-05
20,1.8600000143051147,21,walker.pedestrian.0004,vehicle.nissan.patrol_2021,45.46166,42.507789611816406,1.284789800643921,12.628238955741967,False,0.001284789800643921,0.012628238955741966,3060.0,500,106.63703155517578,12.834155082702637,1.1038999557495117,64.19495391845703,7.799999713897705,0.08605384826660156,-0.00033467926550656557,-89.99999237060547,1.3027551259980896e-11,0.00023222641902975738,1.0729964694533578e-09,2.2816278942627832e-05
21,1.8600000143051147,22,walker.pedestrian.0004,vehicle.nissan.patrol_2021,45.461653,42.30548095703125,1.349029302597046,12.628236899875455,False,0.0013490293025970458,0.012628236899875455,3030.0,500,106.63703155517578,12.812570571899414,1.1007670164108276,64.39698791503906,7.799999713897705,0.08553184568881989,-0.00033467926550656557,-89.99999237060547,1.3027551259980896e-11,0.00041664153104647994,1.190025189501398e-09,2.3167867766460404e-05
22,1.8600000143051147,23,walker.pedestrian.0004,vehicle.nissan.patrol_2021,45.461646,42.1031494140625,1.413268804550171,12.62823489141871,False,0.001413268804550171,0.01262823489141871,3000.0,500,106.63703155517578,12.789958000183105,1.0951117277145386,64.5990219116211,7.799999713897705,0.08501384407281876,-0.00033467926550656557,-89.99999237060547,1.3027551259980896e-11,0.0005669056554324925,1.3072054549922996e-09,2.3464090190827847e-05
23,1.8600000143051147,24,walker.pedestrian.0004,vehicle.nissan.patrol_2021,45.461639,41.90080261230469,1.477508306503296,12.628232941321754,False,0.0014775083065032958,0.012628232941321753,2970.0,500,106.63703155517578,12.766318321228027,1.0858086347579956,64.80105590820312,7.799999713897705,0.08449985086917877,-0.00033467926550656557,-89.99999237060547,1.3027551259980896e-11,0.0006898490828461945,1.4242900192584784e-09,2.371054324612487e-05
24,1.8600000143051147,25,walker.pedestrian.0004,vehicle.nissan.patrol_2021,45.461632,41.698455810546875,1.541747808456421,12.62823104590425,False,0.001541747808456421,0.012628231045904251,2940.0,500,106.63703155517578,12.741650581359863,1.0717382431030273,65.00308227539062,7.799999713897705,0.08398982882499695,-0.00033467926550656557,-89.99999237060547,1.3027551259980896e-11,0.0007923019002191722,1.5408360143354116e-09,2.3851749574532732e-05
25,1.8600000143051147,26,walker.pedestrian.0004,vehicle.nissan.patrol_2021,45.461625,41.49608612060547,1.605987310409546,12.628229194125371,False,0.0016059873104095458,0.012628229194125372,2920.0,500,106.63703155517578,12.715954780578613,1.0508571863174438,65.20511627197266,7.799999713897705,0.08348353952169418,-0.00033467926550656557,-89.99999237060547,1.3027551259980896e-11,0.0007923019002191722,1.5408360143354116e-09,2.3851749574532732e-05
26,1.8600000143051147,27,walker.pedestrian.0004,vehicle.nissan.patrol_2021,45.461619,41.293701171875,1.670226812362671,12.628227462898433,False,0.001670226812362671,0.012628227462898434,2890.0,500,106.63703155517578,12.689230918884277,1.011961817741394,65.40715026855469,7.799999713897705,0.08298076689243317,-0.00033467926550656557,-89.99999237060547,1.3027551259980896e-11,0.0009289056761190295,1.7725320100581143e-09,2.4060844225459732e-05
27,1.8600000143051147,28,walker.pedestrian.0004,vehicle.nissan.patrol_2021,45.461612,41.09130096435547,1.734466314315796,12.628225627206625,False,0.0017344663143157959,0.012628225627206625,2860.0,500,106.63703155517578,12.661478996276855,0.9651457667350769,65.60918426513672,7.799999713897705,0.08248172700405121,-0.00033467926550656557,-89.99999237060547,1.3027551259980896e-11,0.0009289056761190295,1.7725320100581143e-09,2.4060844225459732e-05
28,1.8600000143051147,29,walker.pedestrian.0004,vehicle.nissan.patrol_2021,45.461606,40.888885498046875,1.798705816268921,12.628223932152057,False,0.001798705816268921,0.012628223932152058,2830.0,500,106.63703155517578,12.632699966430664,0.9514999389648438,65.81121063232422,7.799999713897705,0.08198589086532593,-0.00033467926550656557,-89.99999237060547,1.3027551259980896e-11,0.0009289056761190295,1.7725320100581143e-09,2.4060844225459732e-05
29,1.8600000143051147,30,walker.pedestrian.0004,vehicle.nissan.patrol_2021,45.4616,40.68644714355469,1.862945318222046,12.628222268169672,False,0.001862945318222046,0.012628222268169672,2810.0,500,106.63703155517578,12.602892875671387,0.9514999389648438,66.01324462890625,7.799999713897705,0.08149345219135284,-0.00033467926550656557,-89.99999237060547,1.3027551259980896e-11,0.0009289056761190295,1.7725320100581143e-09,2.4060844225459732e-05
30,1.8600000143051147,31,walker.pedestrian.0004,vehicle.nissan.patrol_2021,45.461594,40.48400115966797,1.927184820175171,12.628220620099485,False,0.0019271848201751708,0.012628220620099485,2780.0,500,106.63703155517578,12.572057723999023,0.9514999389648438,66.21527862548828,7.799999713897705,0.08100410550832748,-0.00033467926550656557,-89.99999237060547,1.3027551259980896e-11,0.0009289056761190295,1.7725320100581143e-09,2.4060844225459732e-05
31,1.8600000143051147,32,walker.pedestrian.0004,vehicle.nissan.patrol_2021,45.461588,40.28154754638672,1.991424322128296,12.628218992620436,False,0.0019914243221282957,0.012628218992620436,2760.0,500,106.63703155517578,12.54019546508789,0.9514999389648438,66.41730499267578,7.799999713897705,0.08051799237728119,-0.00033467926550656557,-89.99999237060547,1.3027551259980896e-11,0.0009289056761190295,1.7725320100581143e-09,2.4060844225459732e-05
32,1.8600000143051147,33,walker.pedestrian.0004,vehicle.nissan.patrol_2021,45.461583,40.079078674316406,2.055663824081421,12.628217387781776,False,0.002055663824081421,0.012628217387781776,2730.0,500,106.63703155517578,12.507304191589355,0.9514999389648438,66.61933135986328,7.799999713897705,0.08003509044647217,-0.00033467926550656557,-89.99999237060547,1.3027551259980896e-11,0.0009289056761190295,1.7725320100581143e-09,2.4060844225459732e-05
33,1.8600000143051147,34,walker.pedestrian.0004,vehicle.nissan.patrol_2021,45.461577,39.87657928466797,2.119903326034546,12.628215804490162,False,0.002119903326034546,0.012628215804490162,2700.0,500,106.63703155517578,12.47338581085205,0.9514999389648438,66.82136535644531,7.799999713897705,0.07955539226531982,-0.00033467926550656557,-89.99999237060547,1.3027551259980896e-11,0.0009289056761190295,1.7725320100581143e-09,2.4060844225459732e-05
34,1.8600000143051147,35,walker.pedestrian.0004,vehicle.nissan.patrol_2021,45.461571,39.674072265625,2.184142827987671,12.628214239772904,False,0.002184142827987671,0.012628214239772903,2680.0,500,106.63703155517578,12.43843936920166,0.9514999389648438,67.02339935302734,7.799999713897705,0.07907871156930923,-0.00033467926550656557,-89.99999237060547,1.3027551259980896e-11,0.0009289056761190295,1.7725320100581143e-09,2.4060844225459732e-05
35,1.8600000143051147,36,walker.pedestrian.0004,vehicle.nissan.patrol_2021,45.461566,39.47154998779297,2.248382329940796,12.628212698845998,False,0.0022483823299407958,0.012628212698845998,2650.0,500,106.63703155517578,12.4024658203125,0.9514999389648438,67.22542572021484,7.799999713897705,0.0786052718758583,-0.00033467926550656557,-89.99999237060547,1.3027551259980896e-11,0.0007854716968722641,2.7930080470639496e-09,2.3820064598112367e-05
36,1.8600000143051147,37,walker.pedestrian.0004,vehicle.nissan.patrol_2021,45.461561,39.269012451171875,2.312621831893921,12.628211294012527,False,0.002312621831893921,0.012628211294012526,2630.0,500,106.63703155517578,12.365463256835938,0.9514999389648438,67.42745971679688,7.799999713897705,0.07813430577516556,-0.00033467926550656557,-89.99999237060547,1.3027551259980896e-11,0.0007854716968722641,2.7930080470639496e-09,2.3820064598112367e-05
37,1.8600000143051147,38,walker.pedestrian.0004,vehicle.nissan.patrol_2021,45.461555,39.066444396972656,2.376861333847046,12.62820978171441,False,0.002376861333847046,0.01262820978171441,2600.0,500,106.63703155517578,12.327433586120605,0.9514999389648438,67.6294937133789,7.799999713897705,0.07766631990671158,-0.00033467926550656557,-89.99999237060547,1.3027551259980896e-11,0.0006693585310131311,3.017848415609592e-09,2.370849506405648e-05
38,1.8600000143051147,39,walker.pedestrian.0004,vehicle.nissan.patrol_2021,45.46155,38.86388397216797,2.441100835800171,12.628208391406982,False,0.0024411008358001707,0.012628208391406982,2580.0,500,106.63703155517578,12.288375854492188,0.9514999389648438,67.8315200805664,7.799999713897705,0.07720088958740234,-0.00033467926550656557,-89.99999237060547,1.3027551259980896e-11,0.0006693585310131311,3.017848415609592e-09,2.370849506405648e-05
39,1.8600000143051147,40,walker.pedestrian.0004,vehicle.nissan.patrol_2021,45.461545,38.661293029785156,2.505340337753296,12.628206919710014,False,0.002505340337753296,0.012628206919710014,2550.0,500,106.63703155517578,12.248291015625,0.9514999389648438,68.03355407714844,7.799999713897705,0.07673850655555725,-0.00033467926550656557,-89.99999237060547,1.3027551259980896e-11,0.0005464151035994291,3.2426297202903243e-09,2.3535219952464104e-05
40,1.8600000143051147,41,walker.pedestrian.0004,vehicle.nissan.patrol_2021,45.46154,38.45869445800781,2.569579601287842,12.628205564192823,False,0.002569579601287842,0.012628205564192823,2530.0,500,106.63703155517578,12.20717716217041,0.9514999389648438,68.23558807373047,7.799999713897705,0.07627849280834198,-0.00033467926550656557,-89.99999237060547,1.3027551259980896e-11,0.0005464151035994291,3.2426297202903243e-09,2.3535219952464104e-05
41,1.8600000143051147,42,walker.pedestrian.0004,vehicle.nissan.patrol_2021,45.461535,38.25608825683594,2.633819103240967,12.628204128088282,False,0.002633819103240967,0.012628204128088282,2510.0,500,106.63703155517578,12.16503620147705,0.9514999389648438,68.43761444091797,7.799999713897705,0.07582149654626846,-0.00033467926550656557,-89.99999237060547,1.3027551259980896e-11,0.0004234717052895576,3.4678317994973895e-09,2.3360620616585948e-05
42,1.8600000143051147,43,walker.pedestrian.0004,vehicle.nissan.patrol_2021,45.46153,38.05345916748047,2.698058605194092,12.628202812242243,False,0.0026980586051940916,0.012628202812242244,2480.0,500,106.63703155517578,12.121867179870605,0.9514999389648438,68.63964080810547,7.799999713897705,0.07536701112985611,-0.00033467926550656557,-89.99999237060547,1.3027551259980896e-11,0.0004234717052895576,3.4678317994973895e-09,2.3360620616585948e-05
43,1.8600000143051147,44,walker.pedestrian.0004,vehicle.nissan.patrol_2021,45.461525,37.85082244873047,2.720031261444092,12.628201411456686,False,0.002720031261444092,0.012628201411456687,2470.0,500,106.63703155517578,12.078347206115723,0.9514999389648438,68.8416748046875,7.799999713897705,0.07491550594568253,-0.00033467926550656557,-89.99999237060547,1.3027551259980896e-11,0.00031418868456967175,3.693586769770718e-09,2.319180748600047e-05
44,1.8600000143051147,45,walker.pedestrian.0004,vehicle.nissan.patrol_2021,45.46152,37.648193359375,2.720031261444092,12.628200111421616,False,0.002720031261444092,0.012628200111421616,2450.0,500,106.63703155517578,12.034826278686523,0.9514999389648438,69.043701171875,7.799999713897705,0.07446639984846115,-0.00033467926550656557,-89.99999237060547,1.3027551259980896e-11,0.00031418868456967175,3.693586769770718e-09,2.319180748600047e-05
45,1.8600000143051147,46,walker.pedestrian.0004,vehicle.nissan.patrol_2021,45.461515,37.445556640625,2.720031261444092,12.628198737632657,False,0.002720031261444092,0.012628198737632657,2440.0,500,106.63703155517578,11.99130630493164,0.9514999389648438,69.24573516845703,7.799999713897705,0.07401992380619049,-0.00033467926550656557,-89.99999237060547,1.3027551259980896e-11,0.00031418868456967175,3.693586769770718e-09,2.319180748600047e-05
46,1.8600000143051147,47,walker.pedestrian.0004,vehicle.nissan.patrol_2021,45.461511,37.24291229248047,2.720031261444092,12.628197389155124,False,0.002720031261444092,0.012628197389155124,2430.0,500,106.63703155517578,11.947785377502441,0.9514999389648438,69.44776916503906,7.799999713897705,0.0735764279961586,-0.00033467926550656557,-89.99999237060547,1.3027551259980896e-11,0.0001707547198748216,4.0333341111420395e-09,2.3059807062963955e-05
47,1.8600000143051147,48,walker.pedestrian.0004,vehicle.nissan.patrol_2021,45.461506,37.040283203125,2.720031261444092,12.628196169737839,False,0.002720031261444092,0.01262819616973784,2410.0,500,106.63703155517578,11.904264450073242,0.9514999389648438,69.64979553222656,7.799999713897705,0.07313521951436996,-0.00033467926550656557,-89.99999237060547,1.3027551259980896e-11,0.0001707547198748216,4.0333341111420395e-09,2.3059807062963955e-05
48,1.8600000143051147,49,walker.pedestrian.0004,vehicle.nissan.patrol_2021,45.461501,36.837646484375,2.720031261444092,12.628194846902352,False,0.002720031261444092,0.012628194846902351,2400.0,500,106.63703155517578,11.86074447631836,0.9514999389648438,69.8518295288086,7.799999713897705,0.0726967602968216,-0.00033467926550656557,-89.99999237060547,1.3027551259980896e-11,0.0001707547198748216,4.0333341111420395e-09,2.3059807062963955e-05
49,1.8600000143051147,50,walker.pedestrian.0004,vehicle.nissan.patrol_2021,45.461497,36.63500213623047,2.720031261444092,12.628193539068604,False,0.002720031261444092,0.012628193539068605,2390.0,500,106.63703155517578,11.81722354888916,0.9514999389648438,70.05386352539062,7.799999713897705,0.07226100564002991,-0.00033467926550656557,-89.99999237060547,1.3027551259980896e-11,5.464151035994291e-05,4.374188566913517e-09,2.2991609512246214e-05
50,1.8600000143051147,51,walker.pedestrian.0004,vehicle.nissan.patrol_2021,45.461492,36.432373046875,2.720031261444092,12.628192345605612,False,0.002720031261444092,0.012628192345605612,2370.0,500,106.63703155517578,11.773703575134277,0.9514999389648438,70.25588989257812,7.799999713897705,0.07182762026786804,-0.00033467926550656557,-89.99999237060547,1.3027551259980896e-11,5.464151035994291e-05,4.374188566913517e-09,2.2991609512246214e-05
51,1.8600000143051147,52,walker.pedestrian.0004,vehicle.nissan.patrol_2021,45.461488,36.22972869873047,2.720031261444092,12.628191075476915,False,0.002720031261444092,0.012628191075476915,2360.0,500,106.63703155517578,11.730182647705078,0.9514999389648438,70.45792388916016,7.799999713897705,0.07139705866575241,-0.00033467926550656557,-89.99999237060547,1.3027551259980896e-11,5.464151035994291e-05,4.374188566913517e-09,2.2991609512246214e-05
52,1.8600000143051147,53,walker.pedestrian.0004,vehicle.nissan.patrol_2021,45.461483,36.02709197998047,2.720031261444092,12.628189819234484,False,0.002720031261444092,0.012628189819234484,2350.0,500,106.63703155517578,11.686662673950195,0.9514999389648438,70.65995788574219,7.799999713897705,0.07096923887729645,-0.00033467926550656557,-89.99999237060547,1.3027551259980896e-11,5.464151035994291e-05,4.374188566913517e-09,2.2991609512246214e-05
53,1.8600000143051147,54,walker.pedestrian.0004,vehicle.nissan.patrol_2021,45.461479,35.824462890625,2.720031261444092,12.62818857663568,False,0.002720031261444092,0.012628188576635679,2330.0,500,106.63703155517578,11.643141746520996,0.9514999389648438,70.86198425292969,7.799999713897705,0.07054401189088821,-0.00033467926550656557,-89.99999237060547,1.3027551259980896e-11,5.464151035994291e-05,4.374188566913517e-09,2.2991609512246214e-05
54,1.8600000143051147,55,walker.pedestrian.0004,vehicle.nissan.patrol_2021,45.461474,35.62183380126953,2.720031261444092,12.628187354455294,False,0.002720031261444092,0.012628187354455294,2320.0,500,106.63703155517578,11.599621772766113,0.9514999389648438,71.06401062011719,7.799999713897705,0.07012153416872025,-0.00033467926550656557,-89.99999237060547,1.3027551259980896e-11,-6.147169915493578e-05,4.94421348307128e-09,2.2954058294999413e-05
55,1.8600000143051147,56,walker.pedestrian.0004,vehicle.nissan.patrol_2021,45.46147,35.41919708251953,2.720031261444092,12.628186230718436,False,0.002720031261444092,0.012628186230718435,2310.0,500,106.63703155517578,11.556100845336914,0.9514999389648438,71.26604461669922,7.799999713897705,0.06970130652189255,-0.00033467926550656557,-89.99999237060547,1.3027551259980896e-11,-6.147169915493578e-05,4.94421348307128e-09,2.2954058294999413e-05
56,1.8600000143051147,57,walker.pedestrian.0004,vehicle.nissan.patrol_2021,45.461466,35.21656036376953,2.720031261444092,12.628185037490042,False,0.002720031261444092,0.01262818503749004,2290.0,500,106.63703155517578,11.512579917907715,0.9514999389648438,71.46807098388672,7.799999713897705,0.06928375363349915,-0.00033467926550656557,-89.99999237060547,1.3027551259980896e-11,-6.147169915493578e-05,4.94421348307128e-09,2.2954058294999413e-05
57,1.8600000143051147,58,walker.pedestrian.0004,vehicle.nissan.patrol_2021,45.461462,35.01392364501953,2.720031261444092,12.628183854423765,False,0.002720031261444092,0.012628183854423766,2280.0,500,106.63703155517578,11.469059944152832,0.9514999389648438,71.67010498046875,7.799999713897705,0.06886878609657288,-0.00033467926550656557,-89.99999237060547,1.3027551259980896e-11,-6.147169915493578e-05,4.94421348307128e-09,2.2954058294999413e-05
58,1.8600000143051147,59,walker.pedestrian.0004,vehicle.nissan.patrol_2021,45.461458,34.81128692626953,2.720031261444092,12.628182690472629,False,0.002720031261444092,0.012628182690472629,2270.0,500,106.63703155517578,11.425539016723633,0.9514999389648438,71.87213897705078,7.799999713897705,0.06845645606517792,-0.00033467926550656557,-89.99999237060547,1.3027551259980896e-11,-6.147169915493578e-05,4.94421348307128e-09,2.2954058294999413e-05
59,1.8600000143051147,60,walker.pedestrian.0004,vehicle.nissan.patrol_2021,45.461454,34.60865020751953,2.720031261444092,12.628181537817772,False,0.002720031261444092,0.012628181537817772,2250.0,500,106.63703155517578,11.38201904296875,0.9514999389648438,72.07416534423828,7.799999713897705,0.0680466815829277,-0.00033467926550656557,-89.99999237060547,1.3027551259980896e-11,-6.147169915493578e-05,4.94421348307128e-09,2.2954058294999413e-05
60,1.8600000143051147,61,walker.pedestrian.0004,vehicle.nissan.patrol_2021,45.461449,34.40601348876953,2.720031261444092,12.628180401156632,False,0.002720031261444092,0.012628180401156631,2240.0,500,106.63703155517578,11.33849811553955,0.9514999389648438,72.27619934082031,7.799999713897705,0.06763949990272522,-0.00033467926550656557,-89.99999237060547,1.3027551259980896e-11,-6.147169915493578e-05,4.94421348307128e-09,2.2954058294999413e-05
61,1.8600000143051147,62,walker.pedestrian.0004,vehicle.nissan.patrol_2021,45.461445,34.203369140625,2.720031261444092,12.628179281127691,False,0.002720031261444092,0.01262817928112769,2230.0,500,106.63703155517578,11.294978141784668,0.9514999389648438,72.47823333740234,7.799999713897705,0.06723495572805405,-0.00033467926550656557,-89.99999237060547,1.3027551259980896e-11,-6.147169915493578e-05,4.94421348307128e-09,2.2954058294999413e-05
62,1.8600000143051147,63,walker.pedestrian.0004,vehicle.nissan.patrol_2021,45.461441,34.00074005126953,2.720031261444092,12.628178171172316,False,0.002720031261444092,0.012628178171172316,2220.0,500,106.63703155517578,11.251457214355469,0.9514999389648438,72.68025970458984,7.799999713897705,0.06683288514614105,-0.00033467926550656557,-89.99999237060547,1.3027551259980896e-11,-6.147169915493578e-05,4.94421348307128e-09,2.2954058294999413e-05
63,1.8600000143051147,64,walker.pedestrian.0004,vehicle.nissan.patrol_2021,45.461437,33.79810333251953,2.720031261444092,12.628177081117657,False,0.002720031261444092,0.012628177081117657,2200.0,500,106.63703155517578,11.20793628692627,0.9514999389648438,72.88229370117188,7.799999713897705,0.06643344461917877,-0.00033467926550656557,-89.99999237060547,1.3027551259980896e-11,-6.147169915493578e-05,4.94421348307128e-09,2.2954058294999413e-05
64,1.8600000143051147,65,walker.pedestrian.0004,vehicle.nissan.patrol_2021,45.461434,33.59546661376953,2.720031261444092,12.628175997836593,False,0.002720031261444092,0.012628175997836593,2190.0,500,106.63703155517578,11.164416313171387,0.9514999389648438,73.0843276977539,7.799999713897705,0.0660364106297493,-0.00033467926550656557,-89.99999237060547,1.3027551259980896e-11,-6.147169915493578e-05,4.94421348307128e-09,2.2954058294999413e-05
65,1.8600000143051147,66,walker.pedestrian.0004,vehicle.nissan.patrol_2021,45.46143,33.39283752441406,2.720031261444092,12.628174932185217,False,0.002720031261444092,0.012628174932185217,2180.0,500,106.63703155517578,11.120895385742188,0.9514999389648438,73.2863540649414,7.799999713897705,0.06564193218946457,-0.00033467926550656557,-89.99999237060547,1.3027551259980896e-11,-6.147169915493578e-05,4.94421348307128e-09,2.2954058294999413e-05
66,1.8600000143051147,67,walker.pedestrian.0004,vehicle.nissan.patrol_2021,45.461426,33.19019317626953,2.720031261444092,12.628173879029303,False,0.002720031261444092,0.012628173879029304,2160.0,500,106.63703155517578,11.077375411987305,0.9514999389648438,73.48838806152344,7.799999713897705,0.06525001674890518,-0.00033467926550656557,-89.99999237060547,1.3027551259980896e-11,-6.147169915493578e-05,4.94421348307128e-09,2.2954058294999413e-05
67,1.8600000143051147,68,walker.pedestrian.0004,vehicle.nissan.patrol_2021,45.461422,32.98755645751953,2.720031261444092,12.62817283954045,False,0.002720031261444092,0.012628172839540451,2150.0,500,106.63703155517578,11.033854484558105,0.9514999389648438,73.69042205810547,7.799999713897705,0.06486049294471741,-0.00033467926550656557,-89.99999237060547,1.3027551259980896e-11,-6.147169915493578e-05,4.94421348307128e-09,2.2954058294999413e-05
68,1.8600000143051147,69,walker.pedestrian.0004,vehicle.nissan.patrol_2021,45.461419,32.78492736816406,2.720031261444092,12.628171815852822,False,0.002720031261444092,0.012628171815852822,2140.0,500,106.63703155517578,10.990334510803223,0.9514999389648438,73.89244842529297,7.799999713897705,0.06447353214025497,-0.00033467926550656557,-89.99999237060547,1.3027551259980896e-11,-6.147169915493578e-05,4.94421348307128e-09,2.2954058294999413e-05
69,1.8600000143051147,70,walker.pedestrian.0004,vehicle.nissan.patrol_2021,45.461415,32.58229064941406,2.720031261444092,12.628170802204044,False,0.002720031261444092,0.012628170802204044,2120.0,500,106.63703155517578,10.946813583374023,0.9514999389648438,74.094482421875,7.799999713897705,0.06408900767564774,-0.00033467926550656557,-89.99999237060547,1.3027551259980896e-11,-6.147169915493578e-05,4.94421348307128e-09,2.2954058294999413e-05
70,1.8600000143051147,71,walker.pedestrian.0004,vehicle.nissan.patrol_2021,45.461411,32.37964630126953,2.720031261444092,12.628169802571918,False,0.002720031261444092,0.012628169802571918,2110.0,500,106.63703155517578,10.90329360961914,0.9514999389648438,74.29651641845703,7.799999713897705,0.06370697170495987,-0.00033467926550656557,-89.99999237060547,1.3027551259980896e-11,-6.147169915493578e-05,4.94421348307128e-09,2.2954058294999413e-05
71,1.8600000143051147,72,walker.pedestrian.0004,vehicle.nissan.patrol_2021,45.461408,32.177001953125,2.720031261444092,12.628168814808205,False,0.002720031261444092,0.012628168814808206,2100.0,500,106.63703155517578,10.859772682189941,0.9514999389648438,74.49855041503906,7.799999713897705,0.0633273646235466,-0.00033467926550656557,-89.99999237060547,1.3027551259980896e-11,-6.147169915493578e-05,4.94421348307128e-09,2.2954058294999413e-05
72,1.8600000143051147,73,walker.pedestrian.0004,vehicle.nissan.patrol_2021,45.461404,31.974380493164062,2.720031261444092,12.628167839104675,False,0.002720031261444092,0.012628167839104676,2080.0,500,106.63703155517578,10.816251754760742,0.9514999389648438,74.70057678222656,7.799999713897705,0.06295009702444077,-0.00033467926550656557,-89.99999237060547,1.3027551259980896e-11,-6.147169915493578e-05,4.94421348307128e-09,2.2954058294999413e-05
73,1.8600000143051147,74,walker.pedestrian.0004,vehicle.nissan.patrol_2021,45.461401,31.77173614501953,2.720031261444092,12.628166876994808,False,0.002720031261444092,0.012628166876994808,2070.0,500,106.63703155517578,10.77273178100586,0.9514999389648438,74.9026107788086,7.799999713897705,0.0625753402709961,-0.00033467926550656557,-89.99999237060547,1.3027551259980896e-11,-6.147169915493578e-05,4.94421348307128e-09,2.2954058294999413e-05
74,1.8600000143051147,75,walker.pedestrian.0004,vehicle.nissan.patrol_2021,45.461397,31.56909942626953,2.720031261444092,12.628165926065469,False,0.002720031261444092,0.01262816592606547,2060.0,500,106.63703155517578,10.72921085357666,0.9514999389648438,75.10464477539062,7.799999713897705,0.06220287084579468,-0.00033467926550656557,-89.99999237060547,1.3027551259980896e-11,-6.147169915493578e-05,4.94421348307128e-09,2.2954058294999413e-05
75,1.8600000143051147,76,walker.pedestrian.0004,vehicle.nissan.patrol_2021,45.461394,31.366470336914062,2.720031261444092,12.628164988261494,False,0.002720031261444092,0.012628164988261494,2040.0,500,106.63703155517578,10.685690879821777,0.9514999389648438,75.30667114257812,7.799999713897705,0.06183280795812607,-0.00033467926550656557,-89.99999237060547,1.3027551259980896e-11,-6.147169915493578e-05,4.94421348307128e-09,2.2954058294999413e-05
76,1.8600000143051147,77,walker.pedestrian.0004,vehicle.nissan.patrol_2021,45.461391,31.16382598876953,2.720031261444092,12.62816406005772,False,0.002720031261444092,0.01262816406005772,2029.9999999999998,500,106.63703155517578,10.642169952392578,0.9514999389648438,75.50870513916016,7.799999713897705,0.06146499514579773,-0.00033467926550656557,-89.99999237060547,1.3027551259980896e-11,-6.147169915493578e-05,4.94421348307128e-09,2.2954058294999413e-05
77,1.8600000143051147,78,walker.pedestrian.0004,vehicle.nissan.patrol_2021,45.461387,30.961196899414062,2.720031261444092,12.628163144477151,False,0.002720031261444092,0.01262816314447715,2020.0,500,106.63703155517578,10.598649978637695,0.9514999389648438,75.71073913574219,7.799999713897705,0.061099547892808914,-0.00033467926550656557,-89.99999237060547,1.3027551259980896e-11,-6.147169915493578e-05,4.94421348307128e-09,2.2954058294999413e-05
78,1.8600000143051147,79,walker.pedestrian.0004,vehicle.nissan.patrol_2021,45.461384,30.758560180664062,2.720031261444092,12.628162239823574,False,0.002720031261444092,0.012628162239823574,2000.0,500,106.63703155517578,10.555129051208496,0.9514999389648438,75.91276550292969,7.799999713897705,0.060736387968063354,-0.00033467926550656557,-89.99999237060547,1.3027551259980896e-11,-6.147169915493578e-05,4.94421348307128e-09,2.2954058294999413e-05
79,1.8600000143051147,80,walker.pedestrian.0004,vehicle.nissan.patrol_2021,45.461381,30.555923461914062,2.720031261444092,12.628161350165449,False,0.002720031261444092,0.01262816135016545,1990.0,500,106.63703155517578,10.511609077453613,0.9514999389648438,76.11479949951172,7.799999713897705,0.06037559360265732,-0.00033467926550656557,-89.99999237060547,1.3027551259980896e-11,-6.147169915493578e-05,4.94421348307128e-09,2.2954058294999413e-05
80,1.8600000143051147,81,walker.pedestrian.0004,vehicle.nissan.patrol_2021,45.461378,30.353286743164062,2.720031261444092,12.628160469626344,False,0.002720031261444092,0.012628160469626344,1980.0,500,106.63703155517578,10.468088150024414,0.9514999389648438,76.31682586669922,7.799999713897705,0.06001712754368782,-0.00033467926550656557,-89.99999237060547,1.3027551259980896e-11,-6.147169915493578e-05,4.94421348307128e-09,2.2954058294999413e-05
81,1.8600000143051147,82,walker.pedestrian.0004,vehicle.nissan.patrol_2021,45.461375,30.150650024414062,2.720031261444092,12.628159599751037,False,0.002720031261444092,0.012628159599751037,1960.0,500,106.63703155517578,10.424567222595215,0.9514999389648438,76.51885986328125,7.799999713897705,0.05966094881296158,-0.00033467926550656557,-89.99999237060547,1.3027551259980896e-11,-6.147169915493578e-05,4.94421348307128e-09,2.2954058294999413e-05
82,1.8600000143051147,83,walker.pedestrian.0004,vehicle.nissan.patrol_2021,45.461371,29.948013305664062,2.720031261444092,12.628158740879197,False,0.002720031261444092,0.012628158740879197,1950.0,500,106.63703155517578,10.381047248840332,0.9514999389648438,76.72089385986328,7.799999713897705,0.05930702015757561,-0.00033467926550656557,-89.99999237060547,1.3027551259980896e-11,-6.147169915493578e-05,4.94421348307128e-09,2.2954058294999413e-05
83,1.8600000143051147,84,walker.pedestrian.0004,vehicle.nissan.patrol_2021,45.461368,29.745376586914062,2.720031261444092,12.628157893532785,False,0.002720031261444092,0.012628157893532785,1940.0,500,106.63703155517578,10.337526321411133,0.9514999389648438,76.92292022705078,7.799999713897705,0.05895530432462692,-0.00033467926550656557,-89.99999237060547,1.3027551259980896e-11,4.0981132769957185e-05,8.269100959523712e-09,2.273685640830081e-05
84,1.8600000143051147,85,walker.pedestrian.0004,vehicle.nissan.patrol_2021,45.461365,29.542739868164062,2.720031261444092,12.6281569905883,False,0.002720031261444092,0.0126281569905883,1920.0,500,106.63703155517578,10.29400634765625,0.9514999389648438,77.12495422363281,7.799999713897705,0.05860614776611328,-0.00033467926550656557,-89.99999237060547,1.3027551259980896e-11,4.0981132769957185e-05,8.269100959523712e-09,2.273685640830081e-05
85,1.8600000143051147,86,walker.pedestrian.0004,vehicle.nissan.patrol_2021,45.461362,29.340103149414062,2.720031261444092,12.628156165752072,False,0.002720031261444092,0.012628156165752072,1910.0,500,106.63703155517578,10.25048542022705,0.9514999389648438,77.32698822021484,7.799999713897705,0.05825916305184364,-0.00033467926550656557,-89.99999237060547,1.3027551259980896e-11,4.0981132769957185e-05,8.269100959523712e-09,2.273685640830081e-05
86,1.8600000143051147,87,walker.pedestrian.0004,vehicle.nissan.patrol_2021,45.461359,29.137474060058594,2.7199931144714355,12.628155353105042,False,0.0027199931144714353,0.012628155353105042,1900.0,500,106.63703155517578,10.206965446472168,0.9514999389648438,77.52901458740234,7.799999713897705,0.057914502918720245,-0.00033467926550656557,-89.99999237060547,1.3027551259980896e-11,4.0981132769957185e-05,8.269100959523712e-09,2.273685640830081e-05
87,1.8600000143051147,88,walker.pedestrian.0004,vehicle.nissan.patrol_2021,45.461356,28.934837341308594,2.7199931144714355,12.628154546854564,False,0.0027199931144714353,0.012628154546854564,1890.0,500,106.63703155517578,10.163445472717285,0.9514999389648438,77.73104858398438,7.799999713897705,0.05757201835513115,-0.00033467926550656557,-89.99999237060547,1.3027551259980896e-11,4.0981132769957185e-05,8.269100959523712e-09,2.273685640830081e-05
88,1.8600000143051147,89,walker.pedestrian.0004,vehicle.nissan.patrol_2021,45.461354,28.732192993164062,2.7199931144714355,12.628153754747645,False,0.0027199931144714353,0.012628153754747644,1870.0,500,106.63703155517578,10.119925498962402,0.9514999389648438,77.9330825805664,7.799999713897705,0.057231709361076355,-0.00033467926550656557,-89.99999237060547,1.3027551259980896e-11,4.0981132769957185e-05,8.269100959523712e-09,2.273685640830081e-05
89,1.8600000143051147,90,walker.pedestrian.0004,vehicle.nissan.patrol_2021,45.461351,28.529563903808594,2.7199931144714355,12.628152970676009,False,0.0027199931144714353,0.012628152970676008,1860.0,500,106.63703155517578,10.076406478881836,0.9514999389648438,78.1351089477539,7.799999713897705,0.05689357593655586,-0.00033467926550656557,-89.99999237060547,1.3027551259980896e-11,4.0981132769957185e-05,8.269100959523712e-09,2.273685640830081e-05
90,1.8600000143051147,91,walker.pedestrian.0004,vehicle.nissan.patrol_2021,45.461348,28.326927185058594,2.7199931144714355,12.628152194927697,False,0.0027199931144714353,0.012628152194927697,1850.0,500,106.63703155517578,10.032886505126953,0.9514999389648438,78.33714294433594,7.799999713897705,0.05655750259757042,-0.00033467926550656557,-89.99999237060547,1.3027551259980896e-11,4.0981132769957185e-05,8.269100959523712e-09,2.273685640830081e-05
91,1.8600000143051147,92,walker.pedestrian.0004,vehicle.nissan.patrol_2021,45.461345,28.124298095703125,2.7199931144714355,12.628151432006115,False,0.0027199931144714353,0.012628151432006116,1830.0,500,106.63703155517578,9.98936653137207,0.9514999389648438,78.53916931152344,7.799999713897705,0.05622367560863495,-0.00033467926550656557,-89.99999237060547,1.3027551259980896e-11,4.0981132769957185e-05,8.269100959523712e-09,2.273685640830081e-05
92,1.8600000143051147,93,walker.pedestrian.0004,vehicle.nissan.patrol_2021,45.461342,27.921653747558594,2.7199931144714355,12.628150676061848,False,0.0027199931144714353,0.012628150676061848,1820.0,500,106.63703155517578,9.945846557617188,0.9514999389648438,78.74120330810547,7.799999713897705,0.05589187517762184,-0.00033467926550656557,-89.99999237060547,1.3027551259980896e-11,4.0981132769957185e-05,8.269100959523712e-09,2.273685640830081e-05
93,1.8600000143051147,94,walker.pedestrian.0004,vehicle.nissan.patrol_2021,45.46134,27.719009399414062,2.7199931144714355,12.628149930908041,False,0.0027199931144714353,0.012628149930908042,1810.0,500,106.63703155517578,9.902326583862305,0.9514999389648438,78.9432373046875,7.799999713897705,0.05556224659085274,-0.00033467926550656557,-89.99999237060547,1.3027551259980896e-11,4.0981132769957185e-05,8.269100959523712e-09,2.273685640830081e-05
94,1.8600000143051147,95,walker.pedestrian.0004,vehicle.nissan.patrol_2021,45.461337,27.516380310058594,2.7199931144714355,12.628149194768186,False,0.0027199931144714353,0.012628149194768186,1790.0,500,106.63703155517578,9.858806610107422,0.9514999389648438,79.145263671875,7.799999713897705,0.0552346408367157,-0.00033467926550656557,-89.99999237060547,1.3027551259980896e-11,4.0981132769957185e-05,8.269100959523712e-09,2.273685640830081e-05
95,1.8600000143051147,96,walker.pedestrian.0004,vehicle.nissan.patrol_2021,45.461334,27.313743591308594,2.7199931144714355,12.628148468732125,False,0.0027199931144714353,0.012628148468732125,1780.0,500,106.63703155517578,9.815286636352539,0.9514999389648438,79.34729766845703,7.799999713897705,0.05490916967391968,-0.00033467926550656557,-89.99999237060547,1.3027551259980896e-11,4.0981132769957185e-05,8.269100959523712e-09,2.273685640830081e-05
96,1.8600000143051147,97,walker.pedestrian.0004,vehicle.nissan.patrol_2021,45.461332,27.111106872558594,2.7199931144714355,12.628147751720386,False,0.0027199931144714353,0.012628147751720385,1770.0,500,106.63703155517578,9.771766662597656,0.9514999389648438,79.54933166503906,7.799999713897705,0.05458572134375572,-0.00033467926550656557,-89.99999237060547,1.3027551259980896e-11,4.0981132769957185e-05,8.269100959523712e-09,2.273685640830081e-05
97,1.8600000143051147,98,walker.pedestrian.0004,vehicle.nissan.patrol_2021,45.461329,26.908477783203125,2.7199931144714355,12.628147043769799,False,0.0027199931144714353,0.012628147043769798,1750.0,500,106.63703155517578,9.728246688842773,0.9514999389648438,79.75135803222656,7.799999713897705,0.0542643740773201,-0.00033467926550656557,-89.99999237060547,1.3027551259980896e-11,4.0981132769957185e-05,8.269100959523712e-09,2.273685640830081e-05
98,1.8600000143051147,99,walker.pedestrian.0004,vehicle.nissan.patrol_2021,45.461327,26.705833435058594,2.7199931144714355,12.628146344553357,False,0.0027199931144714353,0.012628146344553358,1740.0,500,106.63703155517578,9.68472671508789,0.9514999389648438,79.9533920288086,7.799999713897705,0.05394504591822624,-0.00033467926550656557,-89.99999237060547,1.3027551259980896e-11,4.0981132769957185e-05,8.269100959523712e-09,2.273685640830081e-05
99,1.8600000143051147,100,walker.pedestrian.0004,vehicle.nissan.patrol_2021,45.461324,26.503196716308594,2.7199931144714355,12.628145654860319,False,0.0027199931144714353,0.012628145654860319,1730.0,500,106.63703155517578,9.641206741333008,0.9514999389648438,80.15542602539062,7.799999713897705,0.05362781509757042,-0.00033467926550656557,-89.99999237060547,1.3027551259980896e-11,4.0981132769957185e-05,8.269100959523712e-09,2.273685640830081e-05
100,1.8600000143051147,101,walker.pedestrian.0004,vehicle.nissan.patrol_2021,45.461322,26.300559997558594,2.7199931144714355,12.628144973145123,False,0.0027199931144714353,0.012628144973145123,1710.0,500,106.63703155517578,9.597686767578125,0.9514999389648438,80.35745239257812,7.799999713897705,0.05331256613135338,-0.00033467926550656557,-89.99999237060547,1.3027551259980896e-11,4.0981132769957185e-05,8.269100959523712e-09,2.273685640830081e-05
101,1.8600000143051147,102,walker.pedestrian.0004,vehicle.nissan.patrol_2021,45.461319,26.097923278808594,2.7199931144714355,12.628144299403402,False,0.0027199931144714353,0.012628144299403402,1700.0,500,106.63703155517578,9.554166793823242,0.9514999389648438,80.55948638916016,7.799999713897705,0.05299930274486542,-0.00033467926550656557,-89.99999237060547,1.3027551259980896e-11,4.0981132769957185e-05,8.269100959523712e-09,2.273685640830081e-05
102,1.8600000143051147,103,walker.pedestrian.0004,vehicle.nissan.patrol_2021,45.461317,25.895286560058594,2.7199931144714355,12.62814363581737,False,0.0027199931144714353,0.01262814363581737,1690.0,500,106.63703155517578,9.510647773742676,0.9514999389648438,80.76152038574219,7.799999713897705,0.05268802493810654,-0.00033467926550656557,-89.99999237060547,1.3027551259980896e-11,4.0981132769957185e-05,8.269100959523712e-09,2.273685640830081e-05
103,1.8600000143051147,104,walker.pedestrian.0004,vehicle.nissan.patrol_2021,45.461315,25.692649841308594,2.7199931144714355,12.628142978743425,False,0.0027199931144714353,0.012628142978743425,1670.0,500,106.63703155517578,9.467127799987793,0.9514999389648438,80.96354675292969,7.799999713897705,0.05237869173288345,-0.00033467926550656557,-89.99999237060547,1.3027551259980896e-11,4.0981132769957185e-05,8.269100959523712e-09,2.273685640830081e-05
104,1.8600000143051147,105,walker.pedestrian.0004,vehicle.nissan.patrol_2021,45.461312,25.490020751953125,2.7199931144714355,12.628142331836154,False,0.0027199931144714353,0.012628142331836154,1660.0,500,106.63703155517578,9.42360782623291,0.9514999389648438,81.16558074951172,7.799999713897705,0.052071377635002136,-0.00033467926550656557,-89.99999237060547,1.3027551259980896e-11,4.0981132769957185e-05,8.269100959523712e-09,2.273685640830081e-05
105,1.8600000143051147,106,walker.pedestrian.0004,vehicle.nissan.patrol_2021,45.46131,25.287384033203125,2.7199931144714355,12.628141693096438,False,0.0027199931144714353,0.012628141693096439,1650.0,500,106.63703155517578,9.380087852478027,0.9514999389648438,81.36760711669922,7.799999713897705,0.0517660528421402,-0.00033467926550656557,-89.99999237060547,1.3027551259980896e-11,4.0981132769957185e-05,8.269100959523712e-09,2.273685640830081e-05
106,1.8600000143051147,107,walker.pedestrian.0004,vehicle.nissan.patrol_2021,45.461308,25.084747314453125,2.7199931144714355,12.62814106191608,False,0.0027199931144714353,0.01262814106191608,1630.0,500,106.63703155517578,9.336567878723145,0.9514999389648438,81.56964111328125,7.799999713897705,0.05146263167262077,-0.00033467926550656557,-89.99999237060547,1.3027551259980896e-11,4.0981132769957185e-05,8.269100959523712e-09,2.273685640830081e-05
107,1.8600000143051147,108,walker.pedestrian.0004,vehicle.nissan.patrol_2021,45.461306,24.882110595703125,2.7199931144714355,12.628140437235642,False,0.0027199931144714353,0.012628140437235641,1620.0,500,106.63703155517578,9.293047904968262,0.9514999389648438,81.77167510986328,7.799999713897705,0.05116107687354088,-0.00033467926550656557,-89.99999237060547,1.3027551259980896e-11,4.0981132769957185e-05,8.269100959523712e-09,2.273685640830081e-05
108,1.8600000143051147,109,walker.pedestrian.0004,vehicle.nissan.patrol_2021,45.461303,24.679481506347656,2.7199931144714355,12.628139822109668,False,0.0027199931144714353,0.012628139822109669,1610.0,500,106.63703155517578,9.249527931213379,0.9514999389648438,81.97370147705078,7.799999713897705,0.05086147040128708,-0.00033467926550656557,-89.99999237060547,1.3027551259980896e-11,4.0981132769957185e-05,8.269100959523712e-09,2.273685640830081e-05
109,1.8600000143051147,110,walker.pedestrian.0004,vehicle.nissan.patrol_2021,45.461301,24.476852416992188,2.7199931144714355,12.628139213185614,False,0.0027199931144714353,0.012628139213185613,1590.0,500,106.63703155517578,9.206007957458496,0.9514999389648438,82.17572784423828,7.799999713897705,0.05056373402476311,-0.00033467926550656557,-89.99999237060547,1.3027551259980896e-11,4.0981132769957185e-05,8.269100959523712e-09,2.273685640830081e-05
110,1.8600000143051147,111,walker.pedestrian.0004,vehicle.nissan.patrol_2021,45.461299,24.274200439453125,2.7199931144714355,12.628138615521083,False,0.0027199931144714353,0.012628138615521083,1580.0,500,106.63703155517578,9.162487983703613,0.9514999389648438,82.37776184082031,7.799999713897705,0.0502680204808712,-0.00033467926550656557,-89.99999237060547,1.3027551259980896e-11,4.0981132769957185e-05,8.269100959523712e-09,2.273685640830081e-05
111,1.8600000143051147,112,walker.pedestrian.0004,vehicle.nissan.patrol_2021,45.461297,24.071563720703125,2.7199931144714355,12.628138022202641,False,0.0027199931144714353,0.012628138022202641,1570.0,500,106.63703155517578,9.11896800994873,0.9514999389648438,82.57979583740234,7.799999713897705,0.04997405782341957,-0.00033467926550656557,-89.99999237060547,1.3027551259980896e-11,4.0981132769957185e-05,8.269100959523712e-09,2.273685640830081e-05
112,1.8600000143051147,113,walker.pedestrian.0004,vehicle.nissan.patrol_2021,45.461295,23.868934631347656,2.7199931144714355,12.628137435482737,False,0.0027199931144714353,0.012628137435482736,1560.0,500,106.63703155517578,9.075448036193848,0.9514999389648438,82.78182220458984,7.799999713897705,0.049681928008794785,-0.00033467926550656557,-89.99999237060547,1.3027551259980896e-11,4.0981132769957185e-05,8.269100959523712e-09,2.273685640830081e-05
113,1.8600000143051147,114,walker.pedestrian.0004,vehicle.nissan.patrol_2021,45.461293,23.666297912597656,2.7199931144714355,12.62813685793408,False,0.0027199931144714353,0.012628136857934081,1540.0,500,106.63703155517578,9.031928062438965,0.9514999389648438,82.98385620117188,7.799999713897705,0.04939170554280281,-0.00033467926550656557,-89.99999237060547,1.3027551259980896e-11,4.0981132769957185e-05,8.269100959523712e-09,2.273685640830081e-05
114,1.8600000143051147,115,walker.pedestrian.0004,vehicle.nissan.patrol_2021,45.461291,23.463661193847656,2.7199931144714355,12.628136290055837,False,0.0027199931144714353,0.012628136290055837,1530.0,500,106.63703155517578,8.988409042358398,0.9514999389648438,83.1858901977539,7.799999713897705,0.049103353172540665,-0.00033467926550656557,-89.99999237060547,1.3027551259980896e-11,4.0981132769957185e-05,8.269100959523712e-09,2.273685640830081e-05
115,1.8600000143051147,116,walker.pedestrian.0004,vehicle.nissan.patrol_2021,45.461289,23.261024475097656,2.7199931144714355,12.628135727076673,False,0.0027199931144714353,0.012628135727076674,1520.0,500,106.63703155517578,8.944889068603516,0.9514999389648438,83.3879165649414,7.799999713897705,0.04881687089800835,-0.00033467926550656557,-89.99999237060547,1.3027551259980896e-11,4.0981132769957185e-05,8.269100959523712e-09,2.273685640830081e-05
116,1.8600000143051147,117,walker.pedestrian.0004,vehicle.nissan.patrol_2021,45.461287,23.058387756347656,2.7199931144714355,12.628135168756973,False,0.0027199931144714353,0.012628135168756972,1500.0,500,106.63703155517578,8.901369094848633,0.9514999389648438,83.58995056152344,7.799999713897705,0.04853210225701332,-0.00033467926550656557,-89.99999237060547,1.3027551259980896e-11,4.0981132769957185e-05,8.269100959523712e-09,2.273685640830081e-05
117,1.8600000143051147,118,walker.pedestrian.0004,vehicle.nissan.patrol_2021,45.461285,22.855758666992188,2.7199931144714355,12.628134622253869,False,0.0027199931144714353,0.01262813462225387,1490.0,500,106.63703155517578,8.85784912109375,0.9514999389648438,83.79197692871094,7.799999713897705,0.04824920371174812,-0.00033467926550656557,-89.99999237060547,1.3027551259980896e-11,4.0981132769957185e-05,8.269100959523712e-09,2.273685640830081e-05
118,1.8600000143051147,119,walker.pedestrian.0004,vehicle.nissan.patrol_2021,45.461283,22.653121948242188,2.7199931144714355,12.628134079014512,False,0.0027199931144714353,0.012628134079014511,1480.0,500,106.63703155517578,8.814329147338867,0.9514999389648438,83.99401092529297,7.799999713897705,0.047968100756406784,-0.00033467926550656557,-89.99999237060547,1.3027551259980896e-11,4.0981132769957185e-05,8.269100959523712e-09,2.273685640830081e-05
119,1.8600000143051147,120,walker.pedestrian.0004,vehicle.nissan.patrol_2021,45.461281,22.450485229492188,2.7199931144714355,12.628133546800232,False,0.0027199931144714353,0.012628133546800232,1460.0,500,106.63703155517578,8.770809173583984,0.9514999389648438,84.196044921875,7.799999713897705,0.047688864171504974,-0.00033467926550656557,-89.99999237060547,1.3027551259980896e-11,4.0981132769957185e-05,8.269100959523712e-09,2.273685640830081e-05
120,1.8600000143051147,121,walker.pedestrian.0004,vehicle.nissan.patrol_2021,45.461279,22.247848510742188,2.7199931144714355,12.62813301735841,False,0.0027199931144714353,0.01262813301735841,1450.0,500,106.63703155517578,8.727289199829102,0.9514999389648438,84.3980712890625,7.799999713897705,0.047411344945430756,-0.00033467926550656557,-89.99999237060547,1.3027551259980896e-11,4.0981132769957185e-05,8.269100959523712e-09,2.273685640830081e-05
121,1.8600000143051147,122,walker.pedestrian.0004,vehicle.nissan.patrol_2021,45.461277,22.045211791992188,2.7199931144714355,12.628132494274848,False,0.0027199931144714353,0.012628132494274847,1440.0,500,106.63703155517578,8.683769226074219,0.9514999389648438,84.60010528564453,7.799999713897705,0.04713554307818413,-0.00033467926550656557,-89.99999237060547,1.3027551259980896e-11,4.0981132769957185e-05,8.269100959523712e-09,2.273685640830081e-05
122,1.8600000143051147,123,walker.pedestrian.0004,vehicle.nissan.patrol_2021,45.461275,21.842567443847656,2.7199931144714355,12.628131981908401,False,0.0027199931144714353,0.0126281319819084,1420.0,500,106.63703155517578,8.640249252319336,0.9514999389648438,84.80213928222656,7.799999713897705,0.04686160758137703,-0.00033467926550656557,-89.99999237060547,1.3027551259980896e-11,4.0981132769957185e-05,8.269100959523712e-09,2.273685640830081e-05
123,1.8600000143051147,124,walker.pedestrian.0004,vehicle.nissan.patrol_2021,45.461273,21.639938354492188,2.7199931144714355,12.628131471351079,False,0.0027199931144714353,0.012628131471351079,1410.0,500,106.63703155517578,8.596729278564453,0.9514999389648438,85.00416564941406,7.799999713897705,0.04658927768468857,-0.00033467926550656557,-89.99999237060547,1.3027551259980896e-11,4.0981132769957185e-05,8.269100959523712e-09,2.273685640830081e-05
124,1.8600000143051147,125,walker.pedestrian.0004,vehicle.nissan.patrol_2021,45.461271,21.437301635742188,2.7199931144714355,12.628130970413737,False,0.0027199931144714353,0.012628130970413737,1400.0,500,106.63703155517578,8.55320930480957,0.9514999389648438,85.2061996459961,7.799999713897705,0.04631877690553665,-0.00033467926550656557,-89.99999237060547,1.3027551259980896e-11,4.0981132769957185e-05,8.269100959523712e-09,2.273685640830081e-05
125,1.8600000143051147,126,walker.pedestrian.0004,vehicle.nissan.patrol_2021,45.46127,21.234657287597656,2.7199931144714355,12.628130476633286,False,0.0027199931144714353,0.012628130476633286,1380.0,500,106.63703155517578,8.509689331054688,0.9514999389648438,85.40823364257812,7.799999713897705,0.04605003073811531,-0.00033467926550656557,-89.99999237060547,1.3027551259980896e-11,4.0981132769957185e-05,8.269100959523712e-09,2.273685640830081e-05
126,1.8600000143051147,127,walker.pedestrian.0004,vehicle.nissan.patrol_2021,45.461268,21.032028198242188,2.7199931144714355,12.628129984172228,False,0.0027199931144714353,0.012628129984172228,1370.0,500,106.63703155517578,8.466170310974121,0.9514999389648438,85.61026000976562,7.799999713897705,0.04578285291790962,-0.00033467926550656557,-89.99999237060547,1.3027551259980896e-11,4.0981132769957185e-05,8.269100959523712e-09,2.273685640830081e-05
127,1.8600000143051147,128,walker.pedestrian.0004,vehicle.nissan.patrol_2021,45.461266,20.829391479492188,2.7199931144714355,12.6281295015022,False,0.0027199931144714353,0.0126281295015022,1360.0,500,106.63703155517578,8.422650337219238,0.9514999389648438,85.81229400634766,7.799999713897705,0.04551738500595093,-0.00033467926550656557,-89.99999237060547,1.3027551259980896e-11,4.0981132769957185e-05,8.269100959523712e-09,2.273685640830081e-05
128,1.8600000143051147,129,walker.pedestrian.0004,vehicle.nissan.patrol_2021,45.461264,20.626754760742188,2.7199931144714355,12.628129025778403,False,0.0027199931144714353,0.012628129025778402,1340.0,500,106.63703155517578,8.379130363464355,0.9514999389648438,86.01432800292969,7.799999713897705,0.04525367543101311,-0.00033467926550656557,-89.99999237060547,1.3027551259980896e-11,4.0981132769957185e-05,8.269100959523712e-09,2.273685640830081e-05
129,1.8600000143051147,130,walker.pedestrian.0004,vehicle.nissan.patrol_2021,45.461263,20.42412567138672,2.7199931144714355,12.628128554576767,False,0.0027199931144714353,0.012628128554576767,1330.0,500,106.63703155517578,8.335610389709473,0.9514999389648438,86.21635437011719,7.799999713897705,0.04499164596199989,-0.00033467926550656557,-89.99999237060547,1.3027551259980896e-11,4.0981132769957185e-05,8.269100959523712e-09,2.273685640830081e-05
130,1.8600000143051147,131,walker.pedestrian.0004,vehicle.nissan.patrol_2021,45.461261,20.221481323242188,2.7199931144714355,12.628128087864047,False,0.0027199931144714353,0.012628128087864047,1320.0,500,106.63703155517578,8.29209041595459,0.9514999389648438,86.41838836669922,7.799999713897705,0.04473121464252472,-0.00033467926550656557,-89.99999237060547,1.3027551259980896e-11,4.0981132769957185e-05,8.269100959523712e-09,2.273685640830081e-05
131,1.8600000143051147,132,walker.pedestrian.0004,vehicle.nissan.patrol_2021,45.461259,20.018844604492188,2.7199931144714355,12.62812762885005,False,0.0027199931144714353,0.01262812762885005,1300.0,500,106.63703155517578,8.248570442199707,0.9514999389648438,86.62041473388672,7.799999713897705,0.04447238892316818,-0.00033467926550656557,-89.99999237060547,1.3027551259980896e-11,4.0981132769957185e-05,8.269100959523712e-09,2.273685640830081e-05
132,1.8600000143051147,133,walker.pedestrian.0004,vehicle.nissan.patrol_2021,45.461258,19.816207885742188,2.7199931144714355,12.628127176064652,False,0.0027199931144714353,0.012628127176064652,1290.0,500,106.63703155517578,8.205050468444824,0.9514999389648438,86.82244873046875,7.799999713897705,0.04421527683734894,-0.00033467926550656557,-89.99999237060547,1.3027551259980896e-11,4.0981132769957185e-05,8.269100959523712e-09,2.273685640830081e-05
133,1.8600000143051147,134,walker.pedestrian.0004,vehicle.nissan.patrol_2021,45.461256,19.613571166992188,2.7199931144714355,12.628126729738035,False,0.0027199931144714353,0.012628126729738036,1280.0,500,106.63703155517578,8.161530494689941,0.9514999389648438,87.02448272705078,7.799999713897705,0.0439598448574543,-0.00033467926550656557,-89.99999237060547,1.3027551259980896e-11,4.0981132769957185e-05,8.269100959523712e-09,2.273685640830081e-05
